[
  {
    "id": "node-503665154",
    "name": "Biserica Podgoria",
    "type": "church",
    "subcategory": "christian",
    "lat": 47.0595695,
    "lng": 22.0026115,
    "osmType": "node"
  },
  {
    "id": "node-505689231",
    "name": "Biserica Greco-Catolică",
    "type": "church",
    "subcategory": "christian",
    "lat": 46.9967468,
    "lng": 21.9967072,
    "osmType": "node"
  },
  {
    "id": "node-506504802",
    "name": "Biserica Mănăstirii Premonstratense Maica Îndurerată",
    "type": "church",
    "subcategory": "christian",
    "lat": 47.0600859,
    "lng": 21.9315468,
    "osmType": "node"
  },
  {
    "id": "node-516102303",
    "name": "Școala Sportivă",
    "type": "school",
    "subcategory": "school",
    "lat": 47.050467,
    "lng": 21.9199967,
    "osmType": "node"
  },
  {
    "id": "node-703825870",
    "name": "Universitatea Creștină Partium - Clădirea Sulyok",
    "type": "school",
    "subcategory": "university",
    "lat": 47.0570222,
    "lng": 21.922709,
    "osmType": "node"
  },
  {
    "id": "node-703829100",
    "name": "Biserica Sfânta Ana (Mănăstirea Ursulinelor)",
    "type": "church",
    "subcategory": "christian",
    "lat": 47.0577192,
    "lng": 21.9323101,
    "osmType": "node"
  },
  {
    "id": "node-1316063317",
    "name": "Mănăstirea Buna Vestire",
    "type": "church",
    "subcategory": "christian",
    "lat": 47.1033301,
    "lng": 21.8876023,
    "osmType": "node"
  },
  {
    "id": "node-1492545118",
    "name": "Betesda",
    "type": "church",
    "subcategory": "christian",
    "lat": 46.9866367,
    "lng": 21.9819711,
    "osmType": "node"
  },
  {
    "id": "node-1492545124",
    "name": "Bethesda",
    "type": "church",
    "subcategory": "christian",
    "lat": 46.9876769,
    "lng": 21.9850575,
    "osmType": "node"
  },
  {
    "id": "node-1493556655",
    "name": "Biserica ortodoxă română Băile Felix",
    "type": "church",
    "subcategory": "christian",
    "lat": 46.9903641,
    "lng": 21.9778587,
    "osmType": "node"
  },
  {
    "id": "node-1493556657",
    "name": "Pogorârea Sfântului Spirit",
    "type": "church",
    "subcategory": "christian",
    "lat": 46.9903652,
    "lng": 21.979303,
    "osmType": "node"
  },
  {
    "id": "node-1493556658",
    "name": "Policlinica Băile Felix",
    "type": "medical",
    "subcategory": "clinic",
    "lat": 46.9901319,
    "lng": 21.9776925,
    "osmType": "node"
  },
  {
    "id": "node-1493556722",
    "name": "Biserica Ortodoxă (fostă catolică)",
    "type": "church",
    "subcategory": "christian",
    "lat": 46.9918649,
    "lng": 21.9788136,
    "osmType": "node"
  },
  {
    "id": "node-1734265241",
    "name": "Biserica Sf Arhangheli",
    "type": "church",
    "subcategory": "christian",
    "lat": 46.9944491,
    "lng": 21.9965478,
    "osmType": "node"
  },
  {
    "id": "node-1734273081",
    "name": "Centrul de Recuperare",
    "type": "medical",
    "subcategory": "doctors",
    "lat": 46.9962315,
    "lng": 22.0005,
    "osmType": "node"
  },
  {
    "id": "node-1737744565",
    "name": "Biserica Sf. Arhangheli Mihai și Gavril",
    "type": "church",
    "subcategory": "christian",
    "lat": 47.1033231,
    "lng": 21.8832676,
    "osmType": "node"
  },
  {
    "id": "node-1997615084",
    "name": "Fără nume",
    "type": "church",
    "subcategory": "christian",
    "lat": 47.1438575,
    "lng": 21.9986736,
    "osmType": "node"
  },
  {
    "id": "node-1997705392",
    "name": "Biserica Romano-Catolică",
    "type": "church",
    "subcategory": "christian",
    "lat": 47.1570693,
    "lng": 22.0326299,
    "osmType": "node"
  },
  {
    "id": "node-1997705425",
    "name": "Fără nume",
    "type": "church",
    "subcategory": "christian",
    "lat": 47.1564163,
    "lng": 22.0712803,
    "osmType": "node"
  },
  {
    "id": "node-1999225317",
    "name": "Fără nume",
    "type": "church",
    "subcategory": "christian",
    "lat": 47.1145298,
    "lng": 21.9571351,
    "osmType": "node"
  },
  {
    "id": "node-2000492192",
    "name": "Biserica Baptistă",
    "type": "church",
    "subcategory": "christian",
    "lat": 47.0854481,
    "lng": 21.9276267,
    "osmType": "node"
  },
  {
    "id": "node-2000492353",
    "name": "Biserica Ortodoxă",
    "type": "church",
    "subcategory": "christian",
    "lat": 47.086175,
    "lng": 21.9250032,
    "osmType": "node"
  },
  {
    "id": "node-2001715472",
    "name": "Biserica Catolică Episcopia Bihor",
    "type": "church",
    "subcategory": "christian",
    "lat": 47.1034188,
    "lng": 21.9003973,
    "osmType": "node"
  },
  {
    "id": "node-2005216124",
    "name": "Fără nume",
    "type": "church",
    "subcategory": "christian",
    "lat": 47.090572,
    "lng": 21.9790099,
    "osmType": "node"
  },
  {
    "id": "node-2005299631",
    "name": "Fără nume",
    "type": "church",
    "subcategory": "christian",
    "lat": 47.0851597,
    "lng": 22.0677078,
    "osmType": "node"
  },
  {
    "id": "node-2007100834",
    "name": "Biserica",
    "type": "church",
    "subcategory": "christian",
    "lat": 47.167631,
    "lng": 21.836267,
    "osmType": "node"
  },
  {
    "id": "node-2007101618",
    "name": "Biserica",
    "type": "church",
    "subcategory": "christian",
    "lat": 47.169393,
    "lng": 21.8390285,
    "osmType": "node"
  },
  {
    "id": "node-2011414125",
    "name": "Biserica Sf Trei Ierarhi",
    "type": "church",
    "subcategory": "christian",
    "lat": 47.0744392,
    "lng": 21.9128272,
    "osmType": "node"
  },
  {
    "id": "node-2011414374",
    "name": "Adormirea Maicii Domnului",
    "type": "church",
    "subcategory": "christian",
    "lat": 47.0728056,
    "lng": 21.9221787,
    "osmType": "node"
  },
  {
    "id": "node-2015477558",
    "name": "Biserica Sfinții Apostoli Petru și Pavel",
    "type": "church",
    "subcategory": "christian",
    "lat": 47.0530011,
    "lng": 21.9006057,
    "osmType": "node"
  },
  {
    "id": "node-2017968950",
    "name": "Biserica Ortodoxă Sânmartin",
    "type": "church",
    "subcategory": "christian",
    "lat": 47.0057296,
    "lng": 21.9754934,
    "osmType": "node"
  },
  {
    "id": "node-2019494901",
    "name": "Biserica Sf Arhangheli",
    "type": "church",
    "subcategory": "christian",
    "lat": 46.9987389,
    "lng": 21.9525349,
    "osmType": "node"
  },
  {
    "id": "node-2019571779",
    "name": "Biserica Romano-Catolică",
    "type": "church",
    "subcategory": "christian",
    "lat": 47.0040701,
    "lng": 21.9770455,
    "osmType": "node"
  },
  {
    "id": "node-2019583040",
    "name": "Fără nume",
    "type": "church",
    "subcategory": "christian",
    "lat": 47.0127714,
    "lng": 22.0204921,
    "osmType": "node"
  },
  {
    "id": "node-2022013725",
    "name": "Biserica Ortodoxă Înâlțarea Domnului",
    "type": "church",
    "subcategory": "christian",
    "lat": 47.0766714,
    "lng": 21.7778979,
    "osmType": "node"
  },
  {
    "id": "node-2022077131",
    "name": "Fără nume",
    "type": "church",
    "subcategory": "christian",
    "lat": 47.0097784,
    "lng": 21.8059916,
    "osmType": "node"
  },
  {
    "id": "node-2023674009",
    "name": "Biserica Ortodoxa \"Adormirea Maicii Domnului\"",
    "type": "church",
    "subcategory": "christian",
    "lat": 46.9938164,
    "lng": 21.8814573,
    "osmType": "node"
  },
  {
    "id": "node-2023674182",
    "name": "Fără nume",
    "type": "church",
    "subcategory": "christian",
    "lat": 46.9998351,
    "lng": 21.8834077,
    "osmType": "node"
  },
  {
    "id": "node-2025281786",
    "name": "Fără nume",
    "type": "church",
    "subcategory": "christian",
    "lat": 46.9700844,
    "lng": 22.0228074,
    "osmType": "node"
  },
  {
    "id": "node-2026937795",
    "name": "Biserica Alparea",
    "type": "church",
    "subcategory": "christian",
    "lat": 47.030307,
    "lng": 22.0470917,
    "osmType": "node"
  },
  {
    "id": "node-2026937841",
    "name": "Biserica Nouă",
    "type": "church",
    "subcategory": "christian",
    "lat": 47.0449927,
    "lng": 22.0303014,
    "osmType": "node"
  },
  {
    "id": "node-2026937985",
    "name": "Biserica Veche",
    "type": "church",
    "subcategory": "christian",
    "lat": 47.0451609,
    "lng": 22.0298883,
    "osmType": "node"
  },
  {
    "id": "node-2026937996",
    "name": "Biserica Reformată",
    "type": "church",
    "subcategory": "christian",
    "lat": 47.0441933,
    "lng": 22.0285743,
    "osmType": "node"
  },
  {
    "id": "node-2026962663",
    "name": "Fără nume",
    "type": "church",
    "subcategory": "christian",
    "lat": 47.056667,
    "lng": 22.0447209,
    "osmType": "node"
  },
  {
    "id": "node-2027781333",
    "name": "Fără nume",
    "type": "church",
    "subcategory": "christian",
    "lat": 46.995848,
    "lng": 22.0773212,
    "osmType": "node"
  },
  {
    "id": "node-2032185675",
    "name": "Fără nume",
    "type": "church",
    "subcategory": "christian",
    "lat": 46.9499362,
    "lng": 22.0520902,
    "osmType": "node"
  },
  {
    "id": "node-2034618952",
    "name": "Grădinița 20",
    "type": "school",
    "subcategory": "kindergarten",
    "lat": 47.0759866,
    "lng": 21.9105832,
    "osmType": "node"
  },
  {
    "id": "node-2034618953",
    "name": "Liceul Lucian Blaga",
    "type": "school",
    "subcategory": "school",
    "lat": 47.0759939,
    "lng": 21.9119511,
    "osmType": "node"
  },
  {
    "id": "node-2117812836",
    "name": "Fără nume",
    "type": "church",
    "subcategory": "christian",
    "lat": 46.9078358,
    "lng": 22.0789812,
    "osmType": "node"
  },
  {
    "id": "node-2118210727",
    "name": "Fără nume",
    "type": "church",
    "subcategory": "christian",
    "lat": 46.9092788,
    "lng": 22.0663481,
    "osmType": "node"
  },
  {
    "id": "node-2118244841",
    "name": "Fără nume",
    "type": "church",
    "subcategory": "christian",
    "lat": 46.904302,
    "lng": 22.0673518,
    "osmType": "node"
  },
  {
    "id": "node-2148853720",
    "name": "Biserica Romano-Catolică",
    "type": "church",
    "subcategory": "christian",
    "lat": 46.9054345,
    "lng": 21.7877768,
    "osmType": "node"
  },
  {
    "id": "node-2148853773",
    "name": "Fără nume",
    "type": "church",
    "subcategory": "christian",
    "lat": 46.9019399,
    "lng": 21.7906254,
    "osmType": "node"
  },
  {
    "id": "node-2156359102",
    "name": "Fără nume",
    "type": "church",
    "subcategory": "christian",
    "lat": 46.9260957,
    "lng": 21.7803122,
    "osmType": "node"
  },
  {
    "id": "node-2177652122",
    "name": "Fără nume",
    "type": "church",
    "subcategory": "christian",
    "lat": 46.9479756,
    "lng": 21.8673975,
    "osmType": "node"
  },
  {
    "id": "node-2177652124",
    "name": "Fără nume",
    "type": "church",
    "subcategory": "christian",
    "lat": 46.9466865,
    "lng": 21.8695974,
    "osmType": "node"
  },
  {
    "id": "node-2178793944",
    "name": "Biserica",
    "type": "church",
    "subcategory": "christian",
    "lat": 46.9153742,
    "lng": 22.0143754,
    "osmType": "node"
  },
  {
    "id": "node-2374550835",
    "name": "Reformed Church",
    "type": "church",
    "subcategory": "christian",
    "lat": 47.1528738,
    "lng": 21.9211071,
    "osmType": "node"
  },
  {
    "id": "node-2374555901",
    "name": "Catholic Church",
    "type": "church",
    "subcategory": "christian",
    "lat": 47.1528045,
    "lng": 21.920214,
    "osmType": "node"
  },
  {
    "id": "node-2374559749",
    "name": "Orthodox Church",
    "type": "church",
    "subcategory": "christian",
    "lat": 47.1518614,
    "lng": 21.9191491,
    "osmType": "node"
  },
  {
    "id": "node-2374561937",
    "name": "Fără nume",
    "type": "medical",
    "subcategory": "hospital",
    "lat": 47.152146,
    "lng": 21.9198089,
    "osmType": "node"
  },
  {
    "id": "node-3501759561",
    "name": "Biserică reformată",
    "type": "church",
    "subcategory": "christian",
    "lat": 47.0723182,
    "lng": 21.9330475,
    "osmType": "node"
  },
  {
    "id": "node-4347914531",
    "name": "Biserica Greco-Catolică Sfinții Arhangheli",
    "type": "church",
    "subcategory": "christian",
    "lat": 47.0693104,
    "lng": 21.8526957,
    "osmType": "node"
  },
  {
    "id": "node-4360452290",
    "name": "Biserica Crestina Maghiara Biharia",
    "type": "church",
    "subcategory": "christian",
    "lat": 47.1516769,
    "lng": 21.9220737,
    "osmType": "node"
  },
  {
    "id": "node-4540081520",
    "name": "Gradinita cu program prelungit Nr. 35",
    "type": "school",
    "subcategory": "kindergarten",
    "lat": 47.076659,
    "lng": 21.9188031,
    "osmType": "node"
  },
  {
    "id": "node-4564154290",
    "name": "Cabinet stomatologic",
    "type": "medical",
    "subcategory": "doctors",
    "lat": 47.0333909,
    "lng": 21.9459427,
    "osmType": "node"
  },
  {
    "id": "node-4932619946",
    "name": "Biserica Sf Treime",
    "type": "church",
    "subcategory": "christian",
    "lat": 46.9332719,
    "lng": 22.048397,
    "osmType": "node"
  },
  {
    "id": "node-4938688434",
    "name": "Universitatea Creștină Partium - Clădirea Partium",
    "type": "school",
    "subcategory": "school",
    "lat": 47.0577828,
    "lng": 21.9223764,
    "osmType": "node"
  },
  {
    "id": "node-5052961321",
    "name": "Școala cu clasele I - VIII \"Szacsvay Imre\"",
    "type": "school",
    "subcategory": "school",
    "lat": 47.0622358,
    "lng": 21.9313387,
    "osmType": "node"
  },
  {
    "id": "node-5461989139",
    "name": "Școala Generală Eugen Jianu",
    "type": "school",
    "subcategory": "school",
    "lat": 47.0735038,
    "lng": 21.7803751,
    "osmType": "node"
  },
  {
    "id": "node-5637238423",
    "name": "Fără nume",
    "type": "school",
    "subcategory": "school",
    "lat": 47.1553327,
    "lng": 21.9210748,
    "osmType": "node"
  },
  {
    "id": "node-7981182385",
    "name": "Biserica de lemn",
    "type": "church",
    "subcategory": "christian",
    "lat": 47.0433001,
    "lng": 21.9195374,
    "osmType": "node"
  },
  {
    "id": "node-7981215885",
    "name": "Fără nume",
    "type": "church",
    "subcategory": "place_of_worship",
    "lat": 47.0473425,
    "lng": 21.9233733,
    "osmType": "node"
  },
  {
    "id": "node-8516264332",
    "name": "Biserica Mizericordienilor",
    "type": "church",
    "subcategory": "christian",
    "lat": 47.0602358,
    "lng": 21.9378721,
    "osmType": "node"
  },
  {
    "id": "node-8547094038",
    "name": "Fără nume",
    "type": "church",
    "subcategory": "christian",
    "lat": 46.9334207,
    "lng": 22.0532262,
    "osmType": "node"
  },
  {
    "id": "node-9900436067",
    "name": "scoala",
    "type": "school",
    "subcategory": "school",
    "lat": 46.928281,
    "lng": 21.7856985,
    "osmType": "node"
  },
  {
    "id": "node-9900436073",
    "name": "gradinita",
    "type": "school",
    "subcategory": "kindergarten",
    "lat": 46.928189,
    "lng": 21.7833511,
    "osmType": "node"
  },
  {
    "id": "node-9900436567",
    "name": "scoala",
    "type": "school",
    "subcategory": "school",
    "lat": 46.9019591,
    "lng": 21.7864067,
    "osmType": "node"
  },
  {
    "id": "node-9943134195",
    "name": "Lavinia Davidescu",
    "type": "medical",
    "subcategory": "clinic",
    "lat": 47.0563209,
    "lng": 21.9404042,
    "osmType": "node"
  },
  {
    "id": "node-9943173919",
    "name": "Fără nume",
    "type": "medical",
    "subcategory": "doctors",
    "lat": 47.0583577,
    "lng": 21.9403182,
    "osmType": "node"
  },
  {
    "id": "node-9943204798",
    "name": "Fără nume",
    "type": "medical",
    "subcategory": "doctors",
    "lat": 47.0570079,
    "lng": 21.9334962,
    "osmType": "node"
  },
  {
    "id": "node-9945497409",
    "name": "Fără nume",
    "type": "medical",
    "subcategory": "doctors",
    "lat": 47.0547876,
    "lng": 21.9362826,
    "osmType": "node"
  },
  {
    "id": "node-10167110667",
    "name": "Biserica lui Isus Hristos a Sfintilor din Zilele din Urma",
    "type": "church",
    "subcategory": "christian",
    "lat": 47.0552584,
    "lng": 21.9244512,
    "osmType": "node"
  },
  {
    "id": "node-11254642058",
    "name": "Affidea",
    "type": "medical",
    "subcategory": "clinic",
    "lat": 47.0598868,
    "lng": 21.9385546,
    "osmType": "node"
  },
  {
    "id": "node-11510831327",
    "name": "Fără nume",
    "type": "church",
    "subcategory": "christian",
    "lat": 47.1172854,
    "lng": 21.9942575,
    "osmType": "node"
  },
  {
    "id": "node-11527411483",
    "name": "MedLife",
    "type": "medical",
    "subcategory": "clinic",
    "lat": 47.0502079,
    "lng": 21.9377932,
    "osmType": "node"
  },
  {
    "id": "node-11556195174",
    "name": "Spitalul de Recuperare",
    "type": "medical",
    "subcategory": "hospital",
    "lat": 46.9903961,
    "lng": 21.9831887,
    "osmType": "node"
  },
  {
    "id": "node-11843037982",
    "name": "Dr Iova",
    "type": "medical",
    "subcategory": "doctors",
    "lat": 47.0399526,
    "lng": 21.927591,
    "osmType": "node"
  },
  {
    "id": "node-13476045110",
    "name": "Biserica Baptistă Maghiară Betlehem",
    "type": "church",
    "subcategory": "christian",
    "lat": 47.0458976,
    "lng": 21.93947,
    "osmType": "node"
  },
  {
    "id": "node-13524278209",
    "name": "Școala Gimnazială ,, D. R. Popescu\" Nojorid",
    "type": "school",
    "subcategory": "school",
    "lat": 46.9940859,
    "lng": 21.8825031,
    "osmType": "node"
  },
  {
    "id": "node-13524278219",
    "name": "Biserica Baptista \"Emanuel\" Oradea",
    "type": "church",
    "subcategory": "christian",
    "lat": 46.9992151,
    "lng": 21.8829707,
    "osmType": "node"
  },
  {
    "id": "node-13584860758",
    "name": "Vitalogy",
    "type": "medical",
    "subcategory": "pharmacy",
    "lat": 47.0047326,
    "lng": 21.9756878,
    "osmType": "node"
  },
  {
    "id": "node-13584860765",
    "name": "Farmacie",
    "type": "medical",
    "subcategory": "pharmacy",
    "lat": 47.0046012,
    "lng": 21.975503,
    "osmType": "node"
  },
  {
    "id": "node-13595604601",
    "name": "CMI DR. HIDI BERNADETT",
    "type": "medical",
    "subcategory": "doctors",
    "lat": 47.0598944,
    "lng": 21.9407255,
    "osmType": "node"
  },
  {
    "id": "node-13798934207",
    "name": "Raze",
    "type": "medical",
    "subcategory": "clinic",
    "lat": 47.06187,
    "lng": 21.9191906,
    "osmType": "node"
  },
  {
    "id": "way-41293449",
    "name": "Școala Octavian Goga",
    "type": "school",
    "subcategory": "school",
    "lat": 47.0657397,
    "lng": 21.9057217,
    "osmType": "way"
  },
  {
    "id": "way-41293455",
    "name": "Liceul Tehnologic \"Constantin Brâncuși\"",
    "type": "school",
    "subcategory": "school",
    "lat": 47.0672006,
    "lng": 21.9018921,
    "osmType": "way"
  },
  {
    "id": "way-41309511",
    "name": "Fără nume",
    "type": "school",
    "subcategory": "school",
    "lat": 47.0492894,
    "lng": 21.9331958,
    "osmType": "way"
  },
  {
    "id": "way-41416611",
    "name": "Colegiul Național Mihai Eminescu",
    "type": "school",
    "subcategory": "college",
    "lat": 47.0605659,
    "lng": 21.930562,
    "osmType": "way"
  },
  {
    "id": "way-190653989",
    "name": "Biserica catolică",
    "type": "church",
    "subcategory": "christian",
    "lat": 47.0516034,
    "lng": 21.9433941,
    "osmType": "way"
  },
  {
    "id": "way-199191245",
    "name": "Spitalul Clinic Municipal Dr. Gavril Curteanu",
    "type": "medical",
    "subcategory": "hospital",
    "lat": 47.0749167,
    "lng": 21.917108,
    "osmType": "way"
  },
  {
    "id": "way-199193080",
    "name": "Grădinița 45 cu program prelungit",
    "type": "school",
    "subcategory": "kindergarten",
    "lat": 47.0721563,
    "lng": 21.9151561,
    "osmType": "way"
  },
  {
    "id": "way-199194115",
    "name": "Spitalul Clinic de Neurologie și Psihiatrie",
    "type": "medical",
    "subcategory": "hospital",
    "lat": 47.0638051,
    "lng": 21.9450195,
    "osmType": "way"
  },
  {
    "id": "way-207629627",
    "name": "Școală",
    "type": "school",
    "subcategory": "school",
    "lat": 46.9197291,
    "lng": 22.0202159,
    "osmType": "way"
  },
  {
    "id": "way-243194085",
    "name": "Fără nume",
    "type": "church",
    "subcategory": "christian",
    "lat": 46.9651872,
    "lng": 21.9753174,
    "osmType": "way"
  },
  {
    "id": "way-243196013",
    "name": "Fără nume",
    "type": "church",
    "subcategory": "christian",
    "lat": 46.9625205,
    "lng": 21.834629,
    "osmType": "way"
  },
  {
    "id": "way-243199125",
    "name": "Biserica",
    "type": "church",
    "subcategory": "christian",
    "lat": 46.9689084,
    "lng": 21.925892,
    "osmType": "way"
  },
  {
    "id": "way-243199126",
    "name": "Fără nume",
    "type": "church",
    "subcategory": "christian",
    "lat": 46.9653421,
    "lng": 21.8389615,
    "osmType": "way"
  },
  {
    "id": "way-243201239",
    "name": "Biserica Ortodoxă Chișirid",
    "type": "church",
    "subcategory": "christian",
    "lat": 46.9692246,
    "lng": 21.8904091,
    "osmType": "way"
  },
  {
    "id": "way-261607829",
    "name": "Biserica Betania",
    "type": "church",
    "subcategory": "christian",
    "lat": 47.0669165,
    "lng": 21.9251692,
    "osmType": "way"
  },
  {
    "id": "way-262027659",
    "name": "Școala gimnazială „Lucreția Suciu”",
    "type": "school",
    "subcategory": "school",
    "lat": 47.0501773,
    "lng": 21.9472812,
    "osmType": "way"
  },
  {
    "id": "way-262767448",
    "name": "Liceul Don Orione",
    "type": "school",
    "subcategory": "school",
    "lat": 47.0671287,
    "lng": 21.9061645,
    "osmType": "way"
  },
  {
    "id": "way-262768555",
    "name": "Biserica Sfântul Duh Mângâietor",
    "type": "church",
    "subcategory": "christian",
    "lat": 47.0661082,
    "lng": 21.9095492,
    "osmType": "way"
  },
  {
    "id": "way-262788659",
    "name": "Liceul Teologic Baptist Emanuel",
    "type": "school",
    "subcategory": "school",
    "lat": 47.0565524,
    "lng": 21.9159579,
    "osmType": "way"
  },
  {
    "id": "way-262832955",
    "name": "Bazilica Romano-Catolică",
    "type": "church",
    "subcategory": "christian",
    "lat": 47.0690105,
    "lng": 21.9318817,
    "osmType": "way"
  },
  {
    "id": "way-264909502",
    "name": "Liceul Don Orione",
    "type": "school",
    "subcategory": "school",
    "lat": 47.0672303,
    "lng": 21.906822,
    "osmType": "way"
  },
  {
    "id": "way-264910458",
    "name": "Gradinita nr. 50",
    "type": "school",
    "subcategory": "childcare",
    "lat": 47.0654244,
    "lng": 21.9094525,
    "osmType": "way"
  },
  {
    "id": "way-264917565",
    "name": "Biserica Sfântul Ladislau",
    "type": "church",
    "subcategory": "christian",
    "lat": 47.0555433,
    "lng": 21.9287875,
    "osmType": "way"
  },
  {
    "id": "way-272752548",
    "name": "Fără nume",
    "type": "school",
    "subcategory": "kindergarten",
    "lat": 47.0576408,
    "lng": 21.9166981,
    "osmType": "way"
  },
  {
    "id": "way-286239555",
    "name": "Biserica Concepție imaculată",
    "type": "church",
    "subcategory": "christian",
    "lat": 47.049639,
    "lng": 21.9505968,
    "osmType": "way"
  },
  {
    "id": "way-286239556",
    "name": "Biserica Sfinții Arhangheli Mihail și Gavril",
    "type": "church",
    "subcategory": "christian",
    "lat": 47.0484868,
    "lng": 21.9526908,
    "osmType": "way"
  },
  {
    "id": "way-286239557",
    "name": "Sinagoga ortodoxă",
    "type": "church",
    "subcategory": "jewish",
    "lat": 47.0522346,
    "lng": 21.9325418,
    "osmType": "way"
  },
  {
    "id": "way-286245385",
    "name": "Catedrala greco-catolică Sfântul Nicolae",
    "type": "church",
    "subcategory": "christian",
    "lat": 47.0541255,
    "lng": 21.9275188,
    "osmType": "way"
  },
  {
    "id": "way-286245387",
    "name": "Biserica reformată Orașul Nou",
    "type": "church",
    "subcategory": "christian",
    "lat": 47.0565841,
    "lng": 21.9234937,
    "osmType": "way"
  },
  {
    "id": "way-286245390",
    "name": "Catedrala Episcopală Oradea",
    "type": "church",
    "subcategory": "christian",
    "lat": 47.052216,
    "lng": 21.939582,
    "osmType": "way"
  },
  {
    "id": "way-286245391",
    "name": "Biserica \"Coborârea Sfântului Duh\"",
    "type": "church",
    "subcategory": "christian",
    "lat": 47.0608918,
    "lng": 21.9371937,
    "osmType": "way"
  },
  {
    "id": "way-291005315",
    "name": "Sala Regatului a Martorilor lui Iehova",
    "type": "church",
    "subcategory": "christian",
    "lat": 47.0711015,
    "lng": 21.9271676,
    "osmType": "way"
  },
  {
    "id": "way-312206820",
    "name": "Biserica Seminatului",
    "type": "church",
    "subcategory": "christian",
    "lat": 47.0565822,
    "lng": 21.939481,
    "osmType": "way"
  },
  {
    "id": "way-379458205",
    "name": "Fără nume",
    "type": "church",
    "subcategory": "christian",
    "lat": 47.1428128,
    "lng": 21.9986108,
    "osmType": "way"
  },
  {
    "id": "way-379469505",
    "name": "Biserica Sfânta Fecioară Maria",
    "type": "church",
    "subcategory": "christian",
    "lat": 47.0719325,
    "lng": 21.7786252,
    "osmType": "way"
  },
  {
    "id": "way-380143514",
    "name": "Biserica Sfântul Ioan Nepomuk",
    "type": "church",
    "subcategory": "christian",
    "lat": 47.0446585,
    "lng": 22.0346751,
    "osmType": "way"
  },
  {
    "id": "way-380143518",
    "name": "Nepomuki Szent János-templom",
    "type": "church",
    "subcategory": "christian",
    "lat": 47.1177553,
    "lng": 21.9963757,
    "osmType": "way"
  },
  {
    "id": "way-385361492",
    "name": "Biserica ecumenica",
    "type": "church",
    "subcategory": "christian",
    "lat": 47.0607546,
    "lng": 22.0050091,
    "osmType": "way"
  },
  {
    "id": "way-420844002",
    "name": "Biserica Sfântul Apostol Andrei",
    "type": "church",
    "subcategory": "christian",
    "lat": 47.0690495,
    "lng": 21.9188684,
    "osmType": "way"
  },
  {
    "id": "way-420902626",
    "name": "Iasmed",
    "type": "medical",
    "subcategory": "clinic",
    "lat": 47.0654083,
    "lng": 21.9541795,
    "osmType": "way"
  },
  {
    "id": "way-421060544",
    "name": "Spitalul Clinic Judetean",
    "type": "medical",
    "subcategory": "hospital",
    "lat": 47.0640899,
    "lng": 21.9539593,
    "osmType": "way"
  },
  {
    "id": "way-421282171",
    "name": "Biserica Sfântul Vasile cel Mare",
    "type": "church",
    "subcategory": "christian",
    "lat": 47.0289784,
    "lng": 21.9533021,
    "osmType": "way"
  },
  {
    "id": "way-421285030",
    "name": "Biserica Providența",
    "type": "church",
    "subcategory": "christian",
    "lat": 47.0296479,
    "lng": 21.9471099,
    "osmType": "way"
  },
  {
    "id": "way-421286567",
    "name": "Universitatea Emanuel",
    "type": "school",
    "subcategory": "university",
    "lat": 47.0270143,
    "lng": 21.9555837,
    "osmType": "way"
  },
  {
    "id": "way-421766749",
    "name": "Biserica Nufărului",
    "type": "church",
    "subcategory": "christian",
    "lat": 47.0331649,
    "lng": 21.9491404,
    "osmType": "way"
  },
  {
    "id": "way-421767355",
    "name": "Biserica Reformată Seleuș",
    "type": "church",
    "subcategory": "christian",
    "lat": 47.0338486,
    "lng": 21.951081,
    "osmType": "way"
  },
  {
    "id": "way-421779708",
    "name": "Biserica Catolică Sfânta Treime",
    "type": "church",
    "subcategory": "christian",
    "lat": 47.0351157,
    "lng": 21.9572766,
    "osmType": "way"
  },
  {
    "id": "way-421961371",
    "name": "Biserica Ortodoxă Sf. Ioan Iacob Hozevitul",
    "type": "church",
    "subcategory": "christian",
    "lat": 47.0368756,
    "lng": 21.9448314,
    "osmType": "way"
  },
  {
    "id": "way-421967047",
    "name": "Biserica Ortodoxa Sf.Vineri",
    "type": "church",
    "subcategory": "christian",
    "lat": 47.0437279,
    "lng": 21.945465,
    "osmType": "way"
  },
  {
    "id": "way-422011201",
    "name": "Biserica Schimbarea la Față",
    "type": "church",
    "subcategory": "christian",
    "lat": 47.0430014,
    "lng": 21.955466,
    "osmType": "way"
  },
  {
    "id": "way-422175675",
    "name": "Szent Antal-kápolna",
    "type": "church",
    "subcategory": "christian",
    "lat": 47.037893,
    "lng": 21.9827421,
    "osmType": "way"
  },
  {
    "id": "way-422521523",
    "name": "Biserica Ortodoxă",
    "type": "church",
    "subcategory": "christian",
    "lat": 47.0409648,
    "lng": 21.977063,
    "osmType": "way"
  },
  {
    "id": "way-423118595",
    "name": "Facultatea de Drept",
    "type": "school",
    "subcategory": "university",
    "lat": 47.0587154,
    "lng": 21.9406282,
    "osmType": "way"
  },
  {
    "id": "way-423122942",
    "name": "Biserica Romano-Catolică",
    "type": "church",
    "subcategory": "christian",
    "lat": 47.0526581,
    "lng": 21.9313876,
    "osmType": "way"
  },
  {
    "id": "way-423122948",
    "name": "Sinagoga neologă Sion",
    "type": "church",
    "subcategory": "jewish",
    "lat": 47.0549221,
    "lng": 21.9324012,
    "osmType": "way"
  },
  {
    "id": "way-423412051",
    "name": "Mănăstirea Sfintei Cruci",
    "type": "church",
    "subcategory": "christian",
    "lat": 47.0523194,
    "lng": 21.967754,
    "osmType": "way"
  },
  {
    "id": "way-432438187",
    "name": "Biserica Reformată Sântion",
    "type": "church",
    "subcategory": "christian",
    "lat": 47.095899,
    "lng": 21.834452,
    "osmType": "way"
  },
  {
    "id": "way-432465450",
    "name": "Fără nume",
    "type": "church",
    "subcategory": "christian",
    "lat": 47.1003953,
    "lng": 21.835174,
    "osmType": "way"
  },
  {
    "id": "way-435011072",
    "name": "Fără nume",
    "type": "school",
    "subcategory": "school",
    "lat": 47.0975715,
    "lng": 21.8367737,
    "osmType": "way"
  },
  {
    "id": "way-435226193",
    "name": "Fără nume",
    "type": "school",
    "subcategory": "school",
    "lat": 47.1135852,
    "lng": 21.8128539,
    "osmType": "way"
  },
  {
    "id": "way-435338634",
    "name": "Biserica Reformată",
    "type": "church",
    "subcategory": "christian",
    "lat": 47.1165309,
    "lng": 21.8145246,
    "osmType": "way"
  },
  {
    "id": "way-436091299",
    "name": "Fără nume",
    "type": "church",
    "subcategory": "christian",
    "lat": 47.169405,
    "lng": 21.8390239,
    "osmType": "way"
  },
  {
    "id": "way-436095926",
    "name": "Biserica Reformată",
    "type": "church",
    "subcategory": "christian",
    "lat": 47.16763,
    "lng": 21.8362874,
    "osmType": "way"
  },
  {
    "id": "way-436548036",
    "name": "Biserica Nouă",
    "type": "church",
    "subcategory": "christian",
    "lat": 47.0710941,
    "lng": 21.8578052,
    "osmType": "way"
  },
  {
    "id": "way-436650618",
    "name": "Spitalul Pelican",
    "type": "medical",
    "subcategory": "hospital",
    "lat": 47.0759891,
    "lng": 21.9162861,
    "osmType": "way"
  },
  {
    "id": "way-436834235",
    "name": "Biserica Baptistă Rogériusz",
    "type": "church",
    "subcategory": "christian",
    "lat": 47.078715,
    "lng": 21.9105434,
    "osmType": "way"
  },
  {
    "id": "way-436834261",
    "name": "Biserica romano-catolică „Sfântul Iosif”",
    "type": "church",
    "subcategory": "christian",
    "lat": 47.0777046,
    "lng": 21.9241137,
    "osmType": "way"
  },
  {
    "id": "way-437148076",
    "name": "Fără nume",
    "type": "school",
    "subcategory": "school",
    "lat": 47.0659902,
    "lng": 21.8564744,
    "osmType": "way"
  },
  {
    "id": "way-437149338",
    "name": "Biserica Sfinții Mihail și Gavril",
    "type": "church",
    "subcategory": "christian",
    "lat": 47.069259,
    "lng": 21.8526951,
    "osmType": "way"
  },
  {
    "id": "way-454105826",
    "name": "Fără nume",
    "type": "church",
    "subcategory": "christian",
    "lat": 46.93743,
    "lng": 21.912944,
    "osmType": "way"
  },
  {
    "id": "way-489535792",
    "name": "Capela Sf. Elisabeta",
    "type": "church",
    "subcategory": "christian",
    "lat": 47.0437809,
    "lng": 21.9360621,
    "osmType": "way"
  },
  {
    "id": "way-526787674",
    "name": "Școala Gimnazială nr. 16",
    "type": "school",
    "subcategory": "school",
    "lat": 47.0798219,
    "lng": 21.914357,
    "osmType": "way"
  },
  {
    "id": "way-526790380",
    "name": "Fără nume",
    "type": "school",
    "subcategory": "school",
    "lat": 47.0762057,
    "lng": 21.9119341,
    "osmType": "way"
  },
  {
    "id": "way-526791484",
    "name": "Fără nume",
    "type": "school",
    "subcategory": "school",
    "lat": 47.0516494,
    "lng": 21.9276295,
    "osmType": "way"
  },
  {
    "id": "way-526935585",
    "name": "Fără nume",
    "type": "school",
    "subcategory": "school",
    "lat": 47.068509,
    "lng": 21.9282129,
    "osmType": "way"
  },
  {
    "id": "way-544489782",
    "name": "Biserica Sf. Sebastian",
    "type": "church",
    "subcategory": "christian",
    "lat": 47.0547069,
    "lng": 21.9126667,
    "osmType": "way"
  },
  {
    "id": "way-544503067",
    "name": "Convenția Bisericilor Creștine Baptiste Maghiare din România",
    "type": "church",
    "subcategory": "christian",
    "lat": 47.0560705,
    "lng": 21.9415235,
    "osmType": "way"
  },
  {
    "id": "way-544505902",
    "name": "Biserica Ortodoxa Velența II",
    "type": "church",
    "subcategory": "christian",
    "lat": 47.0474185,
    "lng": 21.9580644,
    "osmType": "way"
  },
  {
    "id": "way-544645098",
    "name": "Biserica Romano-Catolică Sfânta Tereza",
    "type": "church",
    "subcategory": "christian",
    "lat": 47.0586289,
    "lng": 21.9016073,
    "osmType": "way"
  },
  {
    "id": "way-544741748",
    "name": "Capela Ortodoxă",
    "type": "church",
    "subcategory": "christian",
    "lat": 47.040241,
    "lng": 21.9210774,
    "osmType": "way"
  },
  {
    "id": "way-544741749",
    "name": "Capela Catolică",
    "type": "church",
    "subcategory": "christian",
    "lat": 47.0413714,
    "lng": 21.9186737,
    "osmType": "way"
  },
  {
    "id": "way-624038692",
    "name": "Fără nume",
    "type": "church",
    "subcategory": "christian",
    "lat": 47.060176,
    "lng": 21.8219536,
    "osmType": "way"
  },
  {
    "id": "way-624042128",
    "name": "Creșă",
    "type": "school",
    "subcategory": "kindergarten",
    "lat": 47.0711982,
    "lng": 21.8592669,
    "osmType": "way"
  },
  {
    "id": "way-624265570",
    "name": "Biserica Ortodoxă",
    "type": "church",
    "subcategory": "christian",
    "lat": 47.0662613,
    "lng": 21.853622,
    "osmType": "way"
  },
  {
    "id": "way-651522972",
    "name": "Biserica cu Lună",
    "type": "church",
    "subcategory": "christian",
    "lat": 47.0536957,
    "lng": 21.9290046,
    "osmType": "way"
  },
  {
    "id": "way-674630005",
    "name": "Biserica Romano-Catolică",
    "type": "church",
    "subcategory": "christian",
    "lat": 47.1150779,
    "lng": 21.9571398,
    "osmType": "way"
  },
  {
    "id": "way-708873958",
    "name": "Spitalul Clinic Căi Ferate",
    "type": "medical",
    "subcategory": "hospital",
    "lat": 47.0670588,
    "lng": 21.9356638,
    "osmType": "way"
  },
  {
    "id": "way-708876663",
    "name": "Spitalul Clinic de Urgență Avram Iancu",
    "type": "medical",
    "subcategory": "hospital",
    "lat": 47.0615135,
    "lng": 21.9365972,
    "osmType": "way"
  },
  {
    "id": "way-710472254",
    "name": "Grădinița nr. 54",
    "type": "school",
    "subcategory": "kindergarten",
    "lat": 47.0725363,
    "lng": 21.9112038,
    "osmType": "way"
  },
  {
    "id": "way-717090541",
    "name": "Biserica Ortodoxă Militară",
    "type": "church",
    "subcategory": "christian",
    "lat": 47.0445553,
    "lng": 21.9216355,
    "osmType": "way"
  },
  {
    "id": "way-717090565",
    "name": "Laser System",
    "type": "medical",
    "subcategory": "clinic",
    "lat": 47.0404903,
    "lng": 21.9267446,
    "osmType": "way"
  },
  {
    "id": "way-835601377",
    "name": "Fără nume",
    "type": "medical",
    "subcategory": "hospital",
    "lat": 47.0625381,
    "lng": 21.9400743,
    "osmType": "way"
  },
  {
    "id": "way-883258099",
    "name": "Biserica Baptistă",
    "type": "church",
    "subcategory": "christian",
    "lat": 47.0737185,
    "lng": 21.9180838,
    "osmType": "way"
  },
  {
    "id": "way-885321773",
    "name": "Fără nume",
    "type": "school",
    "subcategory": "school",
    "lat": 47.0620033,
    "lng": 21.9219003,
    "osmType": "way"
  },
  {
    "id": "way-885324657",
    "name": "Liceul de Arte Oradea",
    "type": "school",
    "subcategory": "school",
    "lat": 47.0652312,
    "lng": 21.9266296,
    "osmType": "way"
  },
  {
    "id": "way-904648889",
    "name": "Református templom",
    "type": "church",
    "subcategory": "christian",
    "lat": 47.1863641,
    "lng": 21.7968877,
    "osmType": "way"
  },
  {
    "id": "way-914060058",
    "name": "Biserica de lemn din Corbești",
    "type": "church",
    "subcategory": "christian",
    "lat": 47.0527353,
    "lng": 21.9680536,
    "osmType": "way"
  },
  {
    "id": "way-920568286",
    "name": "Biserica Baptistă \"Betania\"",
    "type": "church",
    "subcategory": "christian",
    "lat": 46.9477999,
    "lng": 22.0206203,
    "osmType": "way"
  },
  {
    "id": "way-925805948",
    "name": "Capela Romano-Catolică Sfântul Ladislau",
    "type": "church",
    "subcategory": "christian",
    "lat": 47.0621119,
    "lng": 21.9309814,
    "osmType": "way"
  },
  {
    "id": "way-1003402475",
    "name": "Universitatea din Oradea, Campus B",
    "type": "school",
    "subcategory": "university",
    "lat": 47.0434959,
    "lng": 21.9221363,
    "osmType": "way"
  },
  {
    "id": "way-1085760795",
    "name": "MedEuropa",
    "type": "medical",
    "subcategory": "clinic",
    "lat": 47.064073,
    "lng": 21.9138434,
    "osmType": "way"
  },
  {
    "id": "way-1100792443",
    "name": "Biserica Romano-Catolică",
    "type": "church",
    "subcategory": "christian",
    "lat": 47.0040557,
    "lng": 21.9770524,
    "osmType": "way"
  },
  {
    "id": "way-1210617912",
    "name": "Biserica reformată Rogerius",
    "type": "church",
    "subcategory": "christian",
    "lat": 47.0705855,
    "lng": 21.9246033,
    "osmType": "way"
  },
  {
    "id": "way-1283554643",
    "name": "Fără nume",
    "type": "church",
    "subcategory": "christian",
    "lat": 46.9811196,
    "lng": 21.9855966,
    "osmType": "way"
  },
  {
    "id": "way-1345006056",
    "name": "Faculty of Environmental Protection",
    "type": "school",
    "subcategory": "university",
    "lat": 47.05861,
    "lng": 21.9407973,
    "osmType": "way"
  },
  {
    "id": "way-1349500949",
    "name": "Grădiniţa Program Prelungit NR. 44",
    "type": "school",
    "subcategory": "kindergarten",
    "lat": 47.0520627,
    "lng": 21.9056834,
    "osmType": "way"
  },
  {
    "id": "way-1374968255",
    "name": "Liceul Greco-Catolic Iuliu Maniu",
    "type": "school",
    "subcategory": "school",
    "lat": 47.0544336,
    "lng": 21.926719,
    "osmType": "way"
  },
  {
    "id": "way-1395145904",
    "name": "Grădinița nr. 7 „Albă ca Zăpada”",
    "type": "school",
    "subcategory": "kindergarten",
    "lat": 47.0805156,
    "lng": 21.9151525,
    "osmType": "way"
  },
  {
    "id": "way-1395145905",
    "name": "Grădinița cu program prelungit nr. 53",
    "type": "school",
    "subcategory": "kindergarten",
    "lat": 47.0805184,
    "lng": 21.9155111,
    "osmType": "way"
  },
  {
    "id": "way-1395146712",
    "name": "Grădinița cu program prelungit nr. 52;Creșa nr. 3 „Tărâmul Fermecat”",
    "type": "school",
    "subcategory": "kindergarten",
    "lat": 47.0790407,
    "lng": 21.9130543,
    "osmType": "way"
  },
  {
    "id": "way-1455869295",
    "name": "Biserica Evanghelică",
    "type": "church",
    "subcategory": "christian",
    "lat": 47.0577846,
    "lng": 21.9247046,
    "osmType": "way"
  },
  {
    "id": "relation-3530253",
    "name": "Biserica Baptistă Emanuel",
    "type": "church",
    "subcategory": "christian",
    "lat": 47.0569364,
    "lng": 21.9164511,
    "osmType": "relation"
  },
  {
    "id": "relation-11842368",
    "name": "Universitatea din Oradea, Campus A",
    "type": "school",
    "subcategory": "university",
    "lat": 47.0445802,
    "lng": 21.9181619,
    "osmType": "relation"
  }
]