[
  {
    "id": "node-317718354",
    "name": "Facultatea de Medicină",
    "type": "school",
    "subcategory": "university",
    "lat": 44.3047594,
    "lng": 23.794708,
    "osmType": "node",
    "brand": null,
    "operator": null
  },
  {
    "id": "node-317724016",
    "name": "Biserica Sfânta Treime",
    "type": "church",
    "subcategory": "christian",
    "lat": 44.3183176,
    "lng": 23.7928514,
    "osmType": "node",
    "brand": null,
    "operator": null
  },
  {
    "id": "node-1316062977",
    "name": "Mănăstirea Jitianu",
    "type": "church",
    "subcategory": "christian",
    "lat": 44.27189,
    "lng": 23.80211,
    "osmType": "node",
    "brand": null,
    "operator": null
  },
  {
    "id": "node-1942909585",
    "name": "Biserica Adormirea Maicii Domnului",
    "type": "church",
    "subcategory": "christian",
    "lat": 44.2714732,
    "lng": 23.8920705,
    "osmType": "node",
    "brand": null,
    "operator": null
  },
  {
    "id": "node-2539518678",
    "name": "Biserica Sfântul Calinic Cernicanul",
    "type": "church",
    "subcategory": "christian",
    "lat": 44.3094596,
    "lng": 23.820896,
    "osmType": "node",
    "brand": null,
    "operator": null
  },
  {
    "id": "node-2592374389",
    "name": "Biserica Sfântul Nicodim",
    "type": "church",
    "subcategory": "christian",
    "lat": 44.3338514,
    "lng": 23.7711684,
    "osmType": "node",
    "brand": null,
    "operator": null
  },
  {
    "id": "node-2620351233",
    "name": "Biserica Madona Oota",
    "type": "church",
    "subcategory": "christian",
    "lat": 44.309119,
    "lng": 23.8116492,
    "osmType": "node",
    "brand": null,
    "operator": null
  },
  {
    "id": "node-2686505842",
    "name": "Grădinița Micul Prinț",
    "type": "school",
    "subcategory": "kindergarten",
    "lat": 44.3087118,
    "lng": 23.7872619,
    "osmType": "node",
    "brand": null,
    "operator": null
  },
  {
    "id": "node-3166981767",
    "name": "Synevo",
    "type": "medical",
    "subcategory": "clinic",
    "lat": 44.3064905,
    "lng": 23.791116,
    "osmType": "node",
    "brand": null,
    "operator": null
  },
  {
    "id": "node-3217141720",
    "name": "Centrul Medical de Nefrologie și Dializă",
    "type": "medical",
    "subcategory": "clinic",
    "lat": 44.3083872,
    "lng": 23.8028627,
    "osmType": "node",
    "brand": null,
    "operator": null
  },
  {
    "id": "node-3217141728",
    "name": "Policlinica Bunavestire",
    "type": "medical",
    "subcategory": "clinic",
    "lat": 44.3098349,
    "lng": 23.7963748,
    "osmType": "node",
    "brand": null,
    "operator": null
  },
  {
    "id": "node-3217141729",
    "name": "Policlinica Medsan",
    "type": "medical",
    "subcategory": "clinic",
    "lat": 44.3129928,
    "lng": 23.7959135,
    "osmType": "node",
    "brand": null,
    "operator": null
  },
  {
    "id": "node-3218834789",
    "name": "SPAD",
    "type": "medical",
    "subcategory": "clinic",
    "lat": 44.312365,
    "lng": 23.7929271,
    "osmType": "node",
    "brand": null,
    "operator": null
  },
  {
    "id": "node-3226299140",
    "name": "Centrul Medical Renașterea",
    "type": "medical",
    "subcategory": "clinic",
    "lat": 44.3129057,
    "lng": 23.8017601,
    "osmType": "node",
    "brand": null,
    "operator": null
  },
  {
    "id": "node-3226299145",
    "name": "Policlinica Medaura",
    "type": "medical",
    "subcategory": "clinic",
    "lat": 44.3087652,
    "lng": 23.8049993,
    "osmType": "node",
    "brand": null,
    "operator": null
  },
  {
    "id": "node-3226299147",
    "name": "Signal Iduna",
    "type": "medical",
    "subcategory": "clinic",
    "lat": 44.3138242,
    "lng": 23.8018177,
    "osmType": "node",
    "brand": null,
    "operator": null
  },
  {
    "id": "node-3226305495",
    "name": "Biserica Sfântul Ioan Botezătorul",
    "type": "church",
    "subcategory": "christian",
    "lat": 44.3130331,
    "lng": 23.80234,
    "osmType": "node",
    "brand": null,
    "operator": null
  },
  {
    "id": "node-3227962058",
    "name": "Centrul Medical Camen",
    "type": "medical",
    "subcategory": "clinic",
    "lat": 44.3261593,
    "lng": 23.7873051,
    "osmType": "node",
    "brand": null,
    "operator": null
  },
  {
    "id": "node-3228663315",
    "name": "Grădinița Tedy Bear",
    "type": "school",
    "subcategory": "kindergarten",
    "lat": 44.320976,
    "lng": 23.7902859,
    "osmType": "node",
    "brand": null,
    "operator": null
  },
  {
    "id": "node-3229736257",
    "name": "Clinica Dr. Camelia Pătru",
    "type": "medical",
    "subcategory": "clinic",
    "lat": 44.3256942,
    "lng": 23.7885,
    "osmType": "node",
    "brand": null,
    "operator": null
  },
  {
    "id": "node-3229749680",
    "name": "Centrul de Oncologie Sfântul Nectarie Craiova",
    "type": "medical",
    "subcategory": "clinic",
    "lat": 44.310012,
    "lng": 23.803804,
    "osmType": "node",
    "brand": null,
    "operator": null
  },
  {
    "id": "node-3243467271",
    "name": "Facultatea de Agronomie",
    "type": "school",
    "subcategory": "university",
    "lat": 44.3194629,
    "lng": 23.7865155,
    "osmType": "node",
    "brand": null,
    "operator": null
  },
  {
    "id": "node-3243467309",
    "name": "Terrapsi",
    "type": "medical",
    "subcategory": "clinic",
    "lat": 44.3178498,
    "lng": 23.7900822,
    "osmType": "node",
    "brand": null,
    "operator": null
  },
  {
    "id": "node-3243467626",
    "name": "ENDOlife",
    "type": "medical",
    "subcategory": "clinic",
    "lat": 44.3257971,
    "lng": 23.7782146,
    "osmType": "node",
    "brand": null,
    "operator": null
  },
  {
    "id": "node-3244664004",
    "name": "Fără nume",
    "type": "medical",
    "subcategory": "clinic",
    "lat": 44.3100597,
    "lng": 23.8201461,
    "osmType": "node",
    "brand": null,
    "operator": null
  },
  {
    "id": "node-3252797041",
    "name": "Centrul Medical Dr. Ianoși",
    "type": "medical",
    "subcategory": "clinic",
    "lat": 44.3259849,
    "lng": 23.8092712,
    "osmType": "node",
    "brand": null,
    "operator": null
  },
  {
    "id": "node-3252797056",
    "name": "Policlinica Sfântul Ilie",
    "type": "medical",
    "subcategory": "clinic",
    "lat": 44.3248117,
    "lng": 23.8059194,
    "osmType": "node",
    "brand": null,
    "operator": null
  },
  {
    "id": "node-3252797057",
    "name": "Policlinica Tommed",
    "type": "medical",
    "subcategory": "clinic",
    "lat": 44.3231112,
    "lng": 23.8040071,
    "osmType": "node",
    "brand": null,
    "operator": null
  },
  {
    "id": "node-3253648703",
    "name": "Maternitate Alpha Medical",
    "type": "medical",
    "subcategory": "clinic",
    "lat": 44.3027497,
    "lng": 23.7983132,
    "osmType": "node",
    "brand": null,
    "operator": null
  },
  {
    "id": "node-3253648712",
    "name": "Renamed Dialcare",
    "type": "medical",
    "subcategory": "clinic",
    "lat": 44.3060249,
    "lng": 23.7976378,
    "osmType": "node",
    "brand": null,
    "operator": null
  },
  {
    "id": "node-3253650415",
    "name": "Biserica Buna Vestire",
    "type": "church",
    "subcategory": "christian",
    "lat": 44.3213368,
    "lng": 23.7843916,
    "osmType": "node",
    "brand": null,
    "operator": null
  },
  {
    "id": "node-3323207834",
    "name": "Regina Maria",
    "type": "medical",
    "subcategory": "clinic",
    "lat": 44.3180977,
    "lng": 23.8034179,
    "osmType": "node",
    "brand": null,
    "operator": null
  },
  {
    "id": "node-3334259322",
    "name": "Synlab",
    "type": "medical",
    "subcategory": "clinic",
    "lat": 44.3180633,
    "lng": 23.8119719,
    "osmType": "node",
    "brand": "Synlab",
    "operator": null
  },
  {
    "id": "node-3334259331",
    "name": "Optistyle",
    "type": "medical",
    "subcategory": "doctors",
    "lat": 44.3167316,
    "lng": 23.8189647,
    "osmType": "node",
    "brand": null,
    "operator": null
  },
  {
    "id": "node-3334259354",
    "name": "Superbet",
    "type": "superbet",
    "subcategory": "betting",
    "lat": 44.3197724,
    "lng": 23.8215869,
    "osmType": "node",
    "brand": "Superbet",
    "operator": "Superbet Betting & Gaming SA"
  },
  {
    "id": "node-3336744768",
    "name": "Tiens",
    "type": "medical",
    "subcategory": "clinic",
    "lat": 44.3203274,
    "lng": 23.8080822,
    "osmType": "node",
    "brand": null,
    "operator": null
  },
  {
    "id": "node-3360142444",
    "name": "OB-GYN",
    "type": "medical",
    "subcategory": "clinic",
    "lat": 44.3202813,
    "lng": 23.8217572,
    "osmType": "node",
    "brand": null,
    "operator": null
  },
  {
    "id": "node-3387591359",
    "name": "Centrul medical MaDonna Maria",
    "type": "medical",
    "subcategory": "clinic",
    "lat": 44.3236378,
    "lng": 23.7940368,
    "osmType": "node",
    "brand": null,
    "operator": null
  },
  {
    "id": "node-3423250863",
    "name": "Medical Center",
    "type": "medical",
    "subcategory": "clinic",
    "lat": 44.3361739,
    "lng": 23.7779572,
    "osmType": "node",
    "brand": null,
    "operator": null
  },
  {
    "id": "node-3423250872",
    "name": "Superbet",
    "type": "superbet",
    "subcategory": "betting",
    "lat": 44.3328817,
    "lng": 23.7814653,
    "osmType": "node",
    "brand": null,
    "operator": "Superbet Betting & Gaming SA"
  },
  {
    "id": "node-3431993577",
    "name": "Superbet",
    "type": "superbet",
    "subcategory": "betting",
    "lat": 44.337056,
    "lng": 23.7758627,
    "osmType": "node",
    "brand": "Superbet",
    "operator": "Superbet Betting & Gaming SA"
  },
  {
    "id": "node-3446956589",
    "name": "Policlinica Sfântul Ilie",
    "type": "medical",
    "subcategory": "clinic",
    "lat": 44.3254082,
    "lng": 23.806708,
    "osmType": "node",
    "brand": null,
    "operator": null
  },
  {
    "id": "node-3518057172",
    "name": "Biserica Sfântul Gheorghe Vechi",
    "type": "church",
    "subcategory": "christian",
    "lat": 44.3162253,
    "lng": 23.8018401,
    "osmType": "node",
    "brand": null,
    "operator": null
  },
  {
    "id": "node-3518118651",
    "name": "Biserica Hagi Enuș",
    "type": "church",
    "subcategory": "christian",
    "lat": 44.318065,
    "lng": 23.8048194,
    "osmType": "node",
    "brand": null,
    "operator": null
  },
  {
    "id": "node-3574348101",
    "name": "Biserica Ortodoxă Sfântul Mina",
    "type": "church",
    "subcategory": "christian",
    "lat": 44.3228354,
    "lng": 23.7920729,
    "osmType": "node",
    "brand": null,
    "operator": null
  },
  {
    "id": "node-3589365643",
    "name": "Biserica Sfântul Mare Mucenic Gheorghe",
    "type": "church",
    "subcategory": "christian",
    "lat": 44.3155071,
    "lng": 23.8042623,
    "osmType": "node",
    "brand": null,
    "operator": null
  },
  {
    "id": "node-3590602950",
    "name": "Biserica Sfântul Gheorghe",
    "type": "church",
    "subcategory": "christian",
    "lat": 44.2902154,
    "lng": 23.7810716,
    "osmType": "node",
    "brand": null,
    "operator": null
  },
  {
    "id": "node-3590602955",
    "name": "Biserica Sfinții Martiri Brâncoveni",
    "type": "church",
    "subcategory": "christian",
    "lat": 44.3013723,
    "lng": 23.7974872,
    "osmType": "node",
    "brand": null,
    "operator": null
  },
  {
    "id": "node-3590603102",
    "name": "Biserica Sfinții Apostoli",
    "type": "church",
    "subcategory": "christian",
    "lat": 44.3154587,
    "lng": 23.8071783,
    "osmType": "node",
    "brand": null,
    "operator": null
  },
  {
    "id": "node-3590603103",
    "name": "Biserica Toți Sfinții",
    "type": "church",
    "subcategory": "christian",
    "lat": 44.3100639,
    "lng": 23.8045704,
    "osmType": "node",
    "brand": null,
    "operator": null
  },
  {
    "id": "node-3590603129",
    "name": "Biserica Sfântul Nicolae",
    "type": "church",
    "subcategory": "christian",
    "lat": 44.3262224,
    "lng": 23.7918615,
    "osmType": "node",
    "brand": null,
    "operator": null
  },
  {
    "id": "node-3590603151",
    "name": "Biserica Sfântul Ioan Sebastian",
    "type": "church",
    "subcategory": "christian",
    "lat": 44.3385096,
    "lng": 23.7755124,
    "osmType": "node",
    "brand": null,
    "operator": null
  },
  {
    "id": "node-3590603156",
    "name": "Biserica Ziua Crucii",
    "type": "church",
    "subcategory": "christian",
    "lat": 44.3250235,
    "lng": 23.8190971,
    "osmType": "node",
    "brand": null,
    "operator": null
  },
  {
    "id": "node-3590603157",
    "name": "Biserica Evanghelică Luterană",
    "type": "church",
    "subcategory": "christian",
    "lat": 44.319603,
    "lng": 23.7950297,
    "osmType": "node",
    "brand": null,
    "operator": null
  },
  {
    "id": "node-3807220142",
    "name": "Clinica Medisof",
    "type": "medical",
    "subcategory": "clinic",
    "lat": 44.3092358,
    "lng": 23.8049514,
    "osmType": "node",
    "brand": null,
    "operator": null
  },
  {
    "id": "node-3822711552",
    "name": "Centrul Medical \"Sănătatea\"",
    "type": "medical",
    "subcategory": "clinic",
    "lat": 44.3153897,
    "lng": 23.8091356,
    "osmType": "node",
    "brand": null,
    "operator": null
  },
  {
    "id": "node-4015377104",
    "name": "Biserica Sfinții Arhangheli",
    "type": "church",
    "subcategory": "christian",
    "lat": 44.3138651,
    "lng": 23.7996263,
    "osmType": "node",
    "brand": null,
    "operator": null
  },
  {
    "id": "node-4015377105",
    "name": "CMI Paraliov Andreea",
    "type": "medical",
    "subcategory": "doctors",
    "lat": 44.3157058,
    "lng": 23.8084196,
    "osmType": "node",
    "brand": null,
    "operator": null
  },
  {
    "id": "node-4015377106",
    "name": "Cabinet psihologic Jianu Mihail",
    "type": "medical",
    "subcategory": "doctors",
    "lat": 44.3106739,
    "lng": 23.818274,
    "osmType": "node",
    "brand": null,
    "operator": null
  },
  {
    "id": "node-4015377108",
    "name": "Centrul Medical \"Sfântul Nicolae\"",
    "type": "medical",
    "subcategory": "clinic",
    "lat": 44.3144882,
    "lng": 23.8106346,
    "osmType": "node",
    "brand": null,
    "operator": null
  },
  {
    "id": "node-4015377115",
    "name": "Grădinița Iedera",
    "type": "school",
    "subcategory": "kindergarten",
    "lat": 44.3162045,
    "lng": 23.8052748,
    "osmType": "node",
    "brand": null,
    "operator": null
  },
  {
    "id": "node-4015377148",
    "name": "Fără nume",
    "type": "medical",
    "subcategory": "doctors",
    "lat": 44.3111364,
    "lng": 23.8052374,
    "osmType": "node",
    "brand": null,
    "operator": null
  },
  {
    "id": "node-4028841524",
    "name": "CMI Ion Țolea",
    "type": "medical",
    "subcategory": "doctors",
    "lat": 44.3209219,
    "lng": 23.8089782,
    "osmType": "node",
    "brand": null,
    "operator": null
  },
  {
    "id": "node-4028841525",
    "name": "Cabinet dermatologic Ion Țolea",
    "type": "medical",
    "subcategory": "doctors",
    "lat": 44.3213323,
    "lng": 23.8090809,
    "osmType": "node",
    "brand": null,
    "operator": null
  },
  {
    "id": "node-4028841526",
    "name": "Centrul medical dr. Bătăiosu",
    "type": "medical",
    "subcategory": "clinic",
    "lat": 44.3199162,
    "lng": 23.807533,
    "osmType": "node",
    "brand": null,
    "operator": null
  },
  {
    "id": "node-4067089668",
    "name": "Centrul Medical Phoenix",
    "type": "medical",
    "subcategory": "clinic",
    "lat": 44.3155858,
    "lng": 23.8239672,
    "osmType": "node",
    "brand": null,
    "operator": null
  },
  {
    "id": "node-4067089674",
    "name": "Neurologie",
    "type": "medical",
    "subcategory": "doctors",
    "lat": 44.3169949,
    "lng": 23.8173604,
    "osmType": "node",
    "brand": null,
    "operator": null
  },
  {
    "id": "node-4067089675",
    "name": "Psihiatrie",
    "type": "medical",
    "subcategory": "doctors",
    "lat": 44.3169051,
    "lng": 23.8178182,
    "osmType": "node",
    "brand": null,
    "operator": null
  },
  {
    "id": "node-4067089679",
    "name": "Stomatologie Oftalmologie",
    "type": "medical",
    "subcategory": "doctors",
    "lat": 44.3168829,
    "lng": 23.8179312,
    "osmType": "node",
    "brand": null,
    "operator": null
  },
  {
    "id": "node-4072194088",
    "name": "Cabinet Medical Psihiatrie",
    "type": "medical",
    "subcategory": "doctors",
    "lat": 44.3179938,
    "lng": 23.8123466,
    "osmType": "node",
    "brand": null,
    "operator": null
  },
  {
    "id": "node-4072195489",
    "name": "Cabinet Psihologic Obeanu Lucian Gabriel",
    "type": "medical",
    "subcategory": "doctors",
    "lat": 44.3177912,
    "lng": 23.8132954,
    "osmType": "node",
    "brand": null,
    "operator": null
  },
  {
    "id": "node-4195626174",
    "name": "Biserica Sfântul Nicolae",
    "type": "church",
    "subcategory": "christian",
    "lat": 44.3264349,
    "lng": 23.7792386,
    "osmType": "node",
    "brand": null,
    "operator": null
  },
  {
    "id": "node-4199118079",
    "name": "Medeea Clinic",
    "type": "medical",
    "subcategory": "clinic",
    "lat": 44.3202117,
    "lng": 23.8008593,
    "osmType": "node",
    "brand": null,
    "operator": null
  },
  {
    "id": "node-4270186989",
    "name": "Neurolife",
    "type": "medical",
    "subcategory": "clinic",
    "lat": 44.3272012,
    "lng": 23.781625,
    "osmType": "node",
    "brand": null,
    "operator": null
  },
  {
    "id": "node-4271961354",
    "name": "Cabinet medical dr. Petcu",
    "type": "medical",
    "subcategory": "doctors",
    "lat": 44.3206582,
    "lng": 23.7983402,
    "osmType": "node",
    "brand": null,
    "operator": null
  },
  {
    "id": "node-4383509594",
    "name": "Cabinet Psihologie Eduard Bondoc",
    "type": "medical",
    "subcategory": "clinic",
    "lat": 44.3171173,
    "lng": 23.8187571,
    "osmType": "node",
    "brand": null,
    "operator": null
  },
  {
    "id": "node-4428547790",
    "name": "Priority Medical",
    "type": "medical",
    "subcategory": "clinic",
    "lat": 44.3229665,
    "lng": 23.7896766,
    "osmType": "node",
    "brand": null,
    "operator": null
  },
  {
    "id": "node-4841546321",
    "name": "Fără nume",
    "type": "medical",
    "subcategory": "doctors",
    "lat": 44.3297,
    "lng": 23.798463,
    "osmType": "node",
    "brand": null,
    "operator": null
  },
  {
    "id": "node-4908065268",
    "name": "Biserica Bucovăț",
    "type": "church",
    "subcategory": "christian",
    "lat": 44.2951369,
    "lng": 23.74219,
    "osmType": "node",
    "brand": null,
    "operator": null
  },
  {
    "id": "node-5793608126",
    "name": "Biserica Sfântul Ioan Botezătorul",
    "type": "church",
    "subcategory": "christian",
    "lat": 44.326497,
    "lng": 23.7666914,
    "osmType": "node",
    "brand": null,
    "operator": null
  },
  {
    "id": "node-6009322143",
    "name": "Onco-Life Center",
    "type": "medical",
    "subcategory": "hospital",
    "lat": 44.3206854,
    "lng": 23.7959911,
    "osmType": "node",
    "brand": null,
    "operator": null
  },
  {
    "id": "node-6301288046",
    "name": "Fără nume",
    "type": "church",
    "subcategory": "christian",
    "lat": 44.361131,
    "lng": 23.7193963,
    "osmType": "node",
    "brand": null,
    "operator": null
  },
  {
    "id": "node-6313835001",
    "name": "Grădinița Nicolae Romanescu",
    "type": "school",
    "subcategory": "kindergarten",
    "lat": 44.302411,
    "lng": 23.7925759,
    "osmType": "node",
    "brand": null,
    "operator": null
  },
  {
    "id": "node-6590635166",
    "name": "Biserica Sfântul Vasile",
    "type": "church",
    "subcategory": "christian",
    "lat": 44.3302287,
    "lng": 23.8119673,
    "osmType": "node",
    "brand": null,
    "operator": null
  },
  {
    "id": "node-6592188770",
    "name": "Biserica Sfântul Ioan Valahul",
    "type": "church",
    "subcategory": "christian",
    "lat": 44.3350801,
    "lng": 23.791323,
    "osmType": "node",
    "brand": null,
    "operator": null
  },
  {
    "id": "node-6712962781",
    "name": "Biserica Adormirea Maicii Domnului",
    "type": "church",
    "subcategory": "christian",
    "lat": 44.3601658,
    "lng": 23.822729,
    "osmType": "node",
    "brand": null,
    "operator": null
  },
  {
    "id": "node-6781399124",
    "name": "MedLife Sama",
    "type": "medical",
    "subcategory": "clinic",
    "lat": 44.3168253,
    "lng": 23.8113285,
    "osmType": "node",
    "brand": null,
    "operator": null
  },
  {
    "id": "node-6916637771",
    "name": "Grădinița Traian Demetrescu",
    "type": "school",
    "subcategory": "kindergarten",
    "lat": 44.3166707,
    "lng": 23.8005337,
    "osmType": "node",
    "brand": null,
    "operator": null
  },
  {
    "id": "node-6916651297",
    "name": "Grădinița Madona Dudu",
    "type": "school",
    "subcategory": "kindergarten",
    "lat": 44.3157457,
    "lng": 23.7901803,
    "osmType": "node",
    "brand": null,
    "operator": null
  },
  {
    "id": "node-7044770324",
    "name": "Colegiul Național Militar Tudor Vladimirescu",
    "type": "school",
    "subcategory": "school",
    "lat": 44.3207887,
    "lng": 23.8145253,
    "osmType": "node",
    "brand": null,
    "operator": null
  },
  {
    "id": "node-7080319520",
    "name": "Școala Gimnazială Terraveda",
    "type": "school",
    "subcategory": "school",
    "lat": 44.325784,
    "lng": 23.7952003,
    "osmType": "node",
    "brand": null,
    "operator": null
  },
  {
    "id": "node-7080367915",
    "name": "Grădinița Curcubeul Copilăriei",
    "type": "school",
    "subcategory": "kindergarten",
    "lat": 44.3319359,
    "lng": 23.7940939,
    "osmType": "node",
    "brand": null,
    "operator": null
  },
  {
    "id": "node-7080373844",
    "name": "Liceul Voltaire",
    "type": "school",
    "subcategory": "school",
    "lat": 44.3071562,
    "lng": 23.8226951,
    "osmType": "node",
    "brand": null,
    "operator": null
  },
  {
    "id": "node-7080403062",
    "name": "Grădinița Nr. 29",
    "type": "school",
    "subcategory": "kindergarten",
    "lat": 44.3288362,
    "lng": 23.8122032,
    "osmType": "node",
    "brand": null,
    "operator": null
  },
  {
    "id": "node-7080403063",
    "name": "Grădinița Căsuța Fermecată",
    "type": "school",
    "subcategory": "kindergarten",
    "lat": 44.3224067,
    "lng": 23.7956839,
    "osmType": "node",
    "brand": null,
    "operator": null
  },
  {
    "id": "node-7080499726",
    "name": "Grădinița Little Diamonds",
    "type": "school",
    "subcategory": "kindergarten",
    "lat": 44.3253162,
    "lng": 23.7920372,
    "osmType": "node",
    "brand": null,
    "operator": null
  },
  {
    "id": "node-7080512889",
    "name": "Grădinița Sf. Tatiana",
    "type": "school",
    "subcategory": "kindergarten",
    "lat": 44.3259929,
    "lng": 23.7919737,
    "osmType": "node",
    "brand": null,
    "operator": null
  },
  {
    "id": "node-7080512890",
    "name": "Grădinița Romano-Catolică Sf. Anton",
    "type": "school",
    "subcategory": "kindergarten",
    "lat": 44.320586,
    "lng": 23.7938439,
    "osmType": "node",
    "brand": null,
    "operator": null
  },
  {
    "id": "node-7080520916",
    "name": "Școala Postliceală Sanitară Queen Elizabeth",
    "type": "school",
    "subcategory": "school",
    "lat": 44.3215663,
    "lng": 23.8174055,
    "osmType": "node",
    "brand": null,
    "operator": null
  },
  {
    "id": "node-7080523194",
    "name": "Școala Postliceală Sanitară Christiana",
    "type": "school",
    "subcategory": "school",
    "lat": 44.3133706,
    "lng": 23.7972433,
    "osmType": "node",
    "brand": null,
    "operator": null
  },
  {
    "id": "node-7080524013",
    "name": "Școala Postliceală Edunet",
    "type": "school",
    "subcategory": "school",
    "lat": 44.321738,
    "lng": 23.7840069,
    "osmType": "node",
    "brand": null,
    "operator": null
  },
  {
    "id": "node-7388965154",
    "name": "Biserica Sfântul Nicolae",
    "type": "church",
    "subcategory": "christian",
    "lat": 44.3038632,
    "lng": 23.7913192,
    "osmType": "node",
    "brand": null,
    "operator": null
  },
  {
    "id": "node-7470510355",
    "name": "Unitatea de Primiri Urgențe",
    "type": "medical",
    "subcategory": "hospital",
    "lat": 44.3060717,
    "lng": 23.7929466,
    "osmType": "node",
    "brand": null,
    "operator": null
  },
  {
    "id": "node-7842989276",
    "name": "Cabinet psiholog Daniela Ianoș",
    "type": "medical",
    "subcategory": "clinic",
    "lat": 44.3210016,
    "lng": 23.8100349,
    "osmType": "node",
    "brand": null,
    "operator": "iCare"
  },
  {
    "id": "node-8325562446",
    "name": "Synevo",
    "type": "medical",
    "subcategory": "clinic",
    "lat": 44.3175745,
    "lng": 23.8144178,
    "osmType": "node",
    "brand": "Synevo",
    "operator": null
  },
  {
    "id": "node-8628401565",
    "name": "Superbet",
    "type": "superbet",
    "subcategory": "betting",
    "lat": 44.3000379,
    "lng": 23.7975937,
    "osmType": "node",
    "brand": null,
    "operator": "Superbet Betting & Gaming SA"
  },
  {
    "id": "node-8628401579",
    "name": "Superbet",
    "type": "superbet",
    "subcategory": "betting",
    "lat": 44.328906,
    "lng": 23.8153902,
    "osmType": "node",
    "brand": null,
    "operator": "Superbet Betting & Gaming SA"
  },
  {
    "id": "node-8628401585",
    "name": "Superbet",
    "type": "superbet",
    "subcategory": "betting",
    "lat": 44.3367068,
    "lng": 23.7773725,
    "osmType": "node",
    "brand": null,
    "operator": "Superbet Betting & Gaming SA"
  },
  {
    "id": "node-8628417666",
    "name": "Superbet",
    "type": "superbet",
    "subcategory": "betting",
    "lat": 44.3370867,
    "lng": 23.7792233,
    "osmType": "node",
    "brand": null,
    "operator": "Superbet Betting & Gaming SA"
  },
  {
    "id": "node-8628417684",
    "name": "Superbet",
    "type": "superbet",
    "subcategory": "betting",
    "lat": 44.3181853,
    "lng": 23.8065818,
    "osmType": "node",
    "brand": "Superbet",
    "operator": "Superbet Betting & Gaming SA"
  },
  {
    "id": "node-8628417709",
    "name": "Superbet",
    "type": "superbet",
    "subcategory": "betting",
    "lat": 44.3100115,
    "lng": 23.821865,
    "osmType": "node",
    "brand": "Superbet",
    "operator": "Superbet Betting & Gaming SA"
  },
  {
    "id": "node-8628417735",
    "name": "Superbet",
    "type": "superbet",
    "subcategory": "betting",
    "lat": 44.305535,
    "lng": 23.813075,
    "osmType": "node",
    "brand": "Superbet",
    "operator": "Superbet Betting & Gaming SA"
  },
  {
    "id": "node-8628417778",
    "name": "Superbet",
    "type": "superbet",
    "subcategory": "betting",
    "lat": 44.3364958,
    "lng": 23.7837642,
    "osmType": "node",
    "brand": null,
    "operator": "Superbet Betting & Gaming SA"
  },
  {
    "id": "node-8628417780",
    "name": "Superbet",
    "type": "superbet",
    "subcategory": "betting",
    "lat": 44.33117,
    "lng": 23.8063431,
    "osmType": "node",
    "brand": null,
    "operator": "Superbet Betting & Gaming SA"
  },
  {
    "id": "node-8628417939",
    "name": "Superbet",
    "type": "superbet",
    "subcategory": "betting",
    "lat": 44.3195823,
    "lng": 23.8039184,
    "osmType": "node",
    "brand": "Superbet",
    "operator": "Superbet Betting & Gaming SA"
  },
  {
    "id": "node-8628417959",
    "name": "Superbet",
    "type": "superbet",
    "subcategory": "betting",
    "lat": 44.3213209,
    "lng": 23.8306037,
    "osmType": "node",
    "brand": null,
    "operator": "Superbet Betting & Gaming SA"
  },
  {
    "id": "node-8628418001",
    "name": "Superbet",
    "type": "superbet",
    "subcategory": "betting",
    "lat": 44.3307767,
    "lng": 23.8065389,
    "osmType": "node",
    "brand": null,
    "operator": "Superbet Betting & Gaming SA"
  },
  {
    "id": "node-8628418092",
    "name": "Superbet",
    "type": "superbet",
    "subcategory": "betting",
    "lat": 44.3269508,
    "lng": 23.8106051,
    "osmType": "node",
    "brand": "Superbet",
    "operator": "Superbet Betting & Gaming SA"
  },
  {
    "id": "node-8628418132",
    "name": "Superbet",
    "type": "superbet",
    "subcategory": "betting",
    "lat": 44.3261276,
    "lng": 23.7820584,
    "osmType": "node",
    "brand": null,
    "operator": "Superbet Betting & Gaming SA"
  },
  {
    "id": "node-8628418135",
    "name": "Superbet",
    "type": "superbet",
    "subcategory": "betting",
    "lat": 44.3120593,
    "lng": 23.7894049,
    "osmType": "node",
    "brand": null,
    "operator": "Superbet Betting & Gaming SA"
  },
  {
    "id": "node-8628418251",
    "name": "Superbet",
    "type": "superbet",
    "subcategory": "betting",
    "lat": 44.315606,
    "lng": 23.7949651,
    "osmType": "node",
    "brand": "Superbet",
    "operator": "Superbet Betting & Gaming SA"
  },
  {
    "id": "node-8628418269",
    "name": "Superbet",
    "type": "superbet",
    "subcategory": "betting",
    "lat": 44.3032225,
    "lng": 23.7960461,
    "osmType": "node",
    "brand": "Superbet",
    "operator": "Superbet Betting & Gaming SA"
  },
  {
    "id": "node-8628418307",
    "name": "Superbet",
    "type": "superbet",
    "subcategory": "betting",
    "lat": 44.3142185,
    "lng": 23.8360995,
    "osmType": "node",
    "brand": "Superbet",
    "operator": "Superbet Betting & Gaming SA"
  },
  {
    "id": "node-8628418308",
    "name": "Superbet",
    "type": "superbet",
    "subcategory": "betting",
    "lat": 44.336258,
    "lng": 23.784054,
    "osmType": "node",
    "brand": null,
    "operator": "Superbet Betting & Gaming SA"
  },
  {
    "id": "node-8628418323",
    "name": "Superbet",
    "type": "superbet",
    "subcategory": "betting",
    "lat": 44.3096449,
    "lng": 23.8221896,
    "osmType": "node",
    "brand": "Superbet",
    "operator": "Superbet Betting & Gaming SA"
  },
  {
    "id": "node-8628418329",
    "name": "Superbet",
    "type": "superbet",
    "subcategory": "betting",
    "lat": 44.3322118,
    "lng": 23.7992594,
    "osmType": "node",
    "brand": null,
    "operator": "Superbet Betting & Gaming SA"
  },
  {
    "id": "node-8628418336",
    "name": "Superbet",
    "type": "superbet",
    "subcategory": "betting",
    "lat": 44.320548,
    "lng": 23.794697,
    "osmType": "node",
    "brand": "Superbet",
    "operator": "Superbet Betting & Gaming SA"
  },
  {
    "id": "node-8628418381",
    "name": "Superbet",
    "type": "superbet",
    "subcategory": "betting",
    "lat": 44.3187552,
    "lng": 23.8097012,
    "osmType": "node",
    "brand": "Superbet",
    "operator": "Superbet Betting & Gaming SA"
  },
  {
    "id": "node-9047355742",
    "name": "Superbet",
    "type": "superbet",
    "subcategory": "betting",
    "lat": 44.339715,
    "lng": 23.777032,
    "osmType": "node",
    "brand": null,
    "operator": "Superbet Betting & Gaming SA"
  },
  {
    "id": "node-9424549150",
    "name": "Superbet",
    "type": "superbet",
    "subcategory": "betting",
    "lat": 44.3186631,
    "lng": 23.8102618,
    "osmType": "node",
    "brand": "Superbet",
    "operator": "Superbet Betting & Gaming SA"
  },
  {
    "id": "node-9424549153",
    "name": "Superbet",
    "type": "superbet",
    "subcategory": "betting",
    "lat": 44.3188857,
    "lng": 23.8021937,
    "osmType": "node",
    "brand": "Superbet",
    "operator": "Superbet Betting & Gaming SA"
  },
  {
    "id": "node-9552968095",
    "name": "UMF - Centrul de Imagistică",
    "type": "medical",
    "subcategory": "hospital",
    "lat": 44.3049118,
    "lng": 23.7944514,
    "osmType": "node",
    "brand": null,
    "operator": null
  },
  {
    "id": "node-9624460637",
    "name": "Scoala Gimnaziala Nicolae Romanescu nr 29",
    "type": "school",
    "subcategory": "school",
    "lat": 44.3045288,
    "lng": 23.8141741,
    "osmType": "node",
    "brand": null,
    "operator": null
  },
  {
    "id": "node-10026451263",
    "name": "Mãnãstirea Cârcea",
    "type": "church",
    "subcategory": "christian",
    "lat": 44.276429,
    "lng": 23.8892251,
    "osmType": "node",
    "brand": null,
    "operator": null
  },
  {
    "id": "node-10026481757",
    "name": "Mãnãstirea Tuturor Sfintilor - Paraclis Mitropolitan",
    "type": "church",
    "subcategory": "christian",
    "lat": 44.3148052,
    "lng": 23.7988561,
    "osmType": "node",
    "brand": null,
    "operator": null
  },
  {
    "id": "node-10026563452",
    "name": "Mănăstirea Coșuna - Bucovățul Vechi",
    "type": "church",
    "subcategory": "christian",
    "lat": 44.3010651,
    "lng": 23.7537106,
    "osmType": "node",
    "brand": null,
    "operator": null
  },
  {
    "id": "node-10026563453",
    "name": "Seminarul Teologic Ortodox Sfântul Grigorie Teologul",
    "type": "church",
    "subcategory": "christian",
    "lat": 44.3011037,
    "lng": 23.7538381,
    "osmType": "node",
    "brand": null,
    "operator": null
  },
  {
    "id": "node-10132658184",
    "name": "Oncolab",
    "type": "medical",
    "subcategory": "clinic",
    "lat": 44.3124538,
    "lng": 23.7982643,
    "osmType": "node",
    "brand": null,
    "operator": null
  },
  {
    "id": "node-10166403916",
    "name": "Biserica lui Isus Hristos a Sfintilor din Zilele din Urma",
    "type": "church",
    "subcategory": "christian",
    "lat": 44.3151717,
    "lng": 23.8005288,
    "osmType": "node",
    "brand": null,
    "operator": null
  },
  {
    "id": "node-11694763167",
    "name": "Centrul de Oncologie \"Sfântul Nectarie\"",
    "type": "medical",
    "subcategory": "hospital",
    "lat": 44.3001909,
    "lng": 23.8287155,
    "osmType": "node",
    "brand": null,
    "operator": null
  },
  {
    "id": "node-11933619971",
    "name": "After school Art",
    "type": "school",
    "subcategory": "school",
    "lat": 44.312629,
    "lng": 23.792712,
    "osmType": "node",
    "brand": null,
    "operator": null
  },
  {
    "id": "node-12132338217",
    "name": "Centrul medical HyltMED",
    "type": "medical",
    "subcategory": "clinic",
    "lat": 44.3266941,
    "lng": 23.7790374,
    "osmType": "node",
    "brand": null,
    "operator": null
  },
  {
    "id": "node-12317923640",
    "name": "Echipa inimii",
    "type": "medical",
    "subcategory": "clinic",
    "lat": 44.308118,
    "lng": 23.7934901,
    "osmType": "node",
    "brand": null,
    "operator": null
  },
  {
    "id": "node-12317923642",
    "name": "Dr. Laura David",
    "type": "medical",
    "subcategory": "doctors",
    "lat": 44.3085717,
    "lng": 23.7930515,
    "osmType": "node",
    "brand": null,
    "operator": null
  },
  {
    "id": "node-12390513907",
    "name": "Phoenix Medicover",
    "type": "medical",
    "subcategory": "clinic",
    "lat": 44.3023981,
    "lng": 23.794576,
    "osmType": "node",
    "brand": null,
    "operator": null
  },
  {
    "id": "node-12916812229",
    "name": "Dr. Vașcu Daniel-Florian",
    "type": "medical",
    "subcategory": "doctors",
    "lat": 44.327096,
    "lng": 23.8115594,
    "osmType": "node",
    "brand": null,
    "operator": null
  },
  {
    "id": "way-152792514",
    "name": "Facultatea de Automatică, Calculatoare și Electronică",
    "type": "school",
    "subcategory": "college",
    "lat": 44.3088308,
    "lng": 23.8356428,
    "osmType": "way",
    "brand": null,
    "operator": null
  },
  {
    "id": "way-172692627",
    "name": "Colegiul Național Elena Cuza",
    "type": "school",
    "subcategory": "school",
    "lat": 44.3200679,
    "lng": 23.7928275,
    "osmType": "way",
    "brand": null,
    "operator": null
  },
  {
    "id": "way-172692818",
    "name": "Colegiul Național Carol I",
    "type": "school",
    "subcategory": "school",
    "lat": 44.3187611,
    "lng": 23.7912975,
    "osmType": "way",
    "brand": null,
    "operator": null
  },
  {
    "id": "way-180239812",
    "name": "Școala Gimnazială Mircea Eliade",
    "type": "school",
    "subcategory": "school",
    "lat": 44.3137543,
    "lng": 23.8179553,
    "osmType": "way",
    "brand": null,
    "operator": null
  },
  {
    "id": "way-180239813",
    "name": "Colegiul Național Frații Buzești",
    "type": "school",
    "subcategory": "school",
    "lat": 44.3126817,
    "lng": 23.7945269,
    "osmType": "way",
    "brand": null,
    "operator": null
  },
  {
    "id": "way-197562086",
    "name": "Școala Gimnazială Gheorghe Țițeica",
    "type": "school",
    "subcategory": "school",
    "lat": 44.3184531,
    "lng": 23.8137676,
    "osmType": "way",
    "brand": null,
    "operator": null
  },
  {
    "id": "way-221069049",
    "name": "Biserica Adormirea Maicii Domnului",
    "type": "church",
    "subcategory": "christian",
    "lat": 44.2803253,
    "lng": 23.8084622,
    "osmType": "way",
    "brand": null,
    "operator": null
  },
  {
    "id": "way-221178877",
    "name": "Școala Gimnazială nr. 29 \"Nicolae Romanescu\"",
    "type": "school",
    "subcategory": "school",
    "lat": 44.3044912,
    "lng": 23.8140787,
    "osmType": "way",
    "brand": null,
    "operator": null
  },
  {
    "id": "way-221673912",
    "name": "Colegiul Economic Gheoghe Chițu",
    "type": "school",
    "subcategory": "school",
    "lat": 44.3213006,
    "lng": 23.7892314,
    "osmType": "way",
    "brand": null,
    "operator": null
  },
  {
    "id": "way-242386503",
    "name": "Universitatea de Medicină și Farmacie din Craiova - Clădirea Veche",
    "type": "school",
    "subcategory": "university",
    "lat": 44.3088289,
    "lng": 23.7977006,
    "osmType": "way",
    "brand": null,
    "operator": null
  },
  {
    "id": "way-243255997",
    "name": "Școala Gimnazială nr. 29 \"Nicolae Romanescu\" Corp B",
    "type": "school",
    "subcategory": "school",
    "lat": 44.3066466,
    "lng": 23.8162741,
    "osmType": "way",
    "brand": null,
    "operator": null
  },
  {
    "id": "way-243257127",
    "name": "Liceul Tehnologic Ștefan Odobleja",
    "type": "school",
    "subcategory": "school",
    "lat": 44.3063963,
    "lng": 23.8227525,
    "osmType": "way",
    "brand": null,
    "operator": null
  },
  {
    "id": "way-243278055",
    "name": "Spitalul Clinic de Urgență Militar \"Dr. Ștefan Odobleja\"",
    "type": "medical",
    "subcategory": "hospital",
    "lat": 44.301531,
    "lng": 23.818022,
    "osmType": "way",
    "brand": null,
    "operator": null
  },
  {
    "id": "way-243278169",
    "name": "Grup Școlar Traian Vuia",
    "type": "school",
    "subcategory": "school",
    "lat": 44.3097701,
    "lng": 23.8121585,
    "osmType": "way",
    "brand": null,
    "operator": null
  },
  {
    "id": "way-243304401",
    "name": "Spitalul Clinic de Boli Infecțioase și Pneumoftiziologie Dr. Victor Babeș",
    "type": "medical",
    "subcategory": "hospital",
    "lat": 44.3134925,
    "lng": 23.8246901,
    "osmType": "way",
    "brand": null,
    "operator": null
  },
  {
    "id": "way-244050538",
    "name": "Spitalul CFR",
    "type": "medical",
    "subcategory": "hospital",
    "lat": 44.314166,
    "lng": 23.7940743,
    "osmType": "way",
    "brand": null,
    "operator": null
  },
  {
    "id": "way-245175797",
    "name": "Școala Gimnazială Traian",
    "type": "school",
    "subcategory": "school",
    "lat": 44.3228912,
    "lng": 23.7947811,
    "osmType": "way",
    "brand": null,
    "operator": null
  },
  {
    "id": "way-247003595",
    "name": "Liceul Teoretic Henri Coandă",
    "type": "school",
    "subcategory": "school",
    "lat": 44.3110195,
    "lng": 23.8213271,
    "osmType": "way",
    "brand": null,
    "operator": null
  },
  {
    "id": "way-250972369",
    "name": "Liceul Matei Basarab",
    "type": "school",
    "subcategory": "school",
    "lat": 44.321297,
    "lng": 23.817038,
    "osmType": "way",
    "brand": null,
    "operator": null
  },
  {
    "id": "way-253346352",
    "name": "Grădinița Dumbrava Minunată",
    "type": "school",
    "subcategory": "kindergarten",
    "lat": 44.3145701,
    "lng": 23.821084,
    "osmType": "way",
    "brand": null,
    "operator": null
  },
  {
    "id": "way-255018015",
    "name": "Fără nume",
    "type": "medical",
    "subcategory": "clinic",
    "lat": 44.306152,
    "lng": 23.8176826,
    "osmType": "way",
    "brand": null,
    "operator": null
  },
  {
    "id": "way-292713534",
    "name": "Spitalul Clinic Județean de Urgență",
    "type": "medical",
    "subcategory": "hospital",
    "lat": 44.3052737,
    "lng": 23.7916386,
    "osmType": "way",
    "brand": null,
    "operator": null
  },
  {
    "id": "way-292713705",
    "name": "Campus Medicină",
    "type": "school",
    "subcategory": "university",
    "lat": 44.3048247,
    "lng": 23.7946816,
    "osmType": "way",
    "brand": null,
    "operator": null
  },
  {
    "id": "way-292714980",
    "name": "Liceul de Arte Marin Sorescu",
    "type": "school",
    "subcategory": "school",
    "lat": 44.3079526,
    "lng": 23.794362,
    "osmType": "way",
    "brand": null,
    "operator": null
  },
  {
    "id": "way-292716610",
    "name": "Universitatea de Medicină și Farmacie",
    "type": "school",
    "subcategory": "university",
    "lat": 44.3088188,
    "lng": 23.7979724,
    "osmType": "way",
    "brand": null,
    "operator": null
  },
  {
    "id": "way-292795821",
    "name": "Școala Gimnazială Gheorghe Bibescu",
    "type": "school",
    "subcategory": "school",
    "lat": 44.297307,
    "lng": 23.7969474,
    "osmType": "way",
    "brand": null,
    "operator": null
  },
  {
    "id": "way-292800393",
    "name": "Colegiul Național Ștefan Velovan",
    "type": "school",
    "subcategory": "school",
    "lat": 44.3326443,
    "lng": 23.7956779,
    "osmType": "way",
    "brand": null,
    "operator": null
  },
  {
    "id": "way-292800779",
    "name": "Liceul Energetic",
    "type": "school",
    "subcategory": "school",
    "lat": 44.332392,
    "lng": 23.7929447,
    "osmType": "way",
    "brand": null,
    "operator": null
  },
  {
    "id": "way-292801570",
    "name": "Spitalul Clinic de Neuropsihiatrie",
    "type": "medical",
    "subcategory": "hospital",
    "lat": 44.3176558,
    "lng": 23.8163887,
    "osmType": "way",
    "brand": null,
    "operator": null
  },
  {
    "id": "way-292801675",
    "name": "Campus Mecanică",
    "type": "school",
    "subcategory": "university",
    "lat": 44.3167737,
    "lng": 23.8226461,
    "osmType": "way",
    "brand": null,
    "operator": null
  },
  {
    "id": "way-292831967",
    "name": "Spitalul Clinic Nr.2 Filantropia",
    "type": "medical",
    "subcategory": "hospital",
    "lat": 44.3220257,
    "lng": 23.791897,
    "osmType": "way",
    "brand": null,
    "operator": null
  },
  {
    "id": "way-292835946",
    "name": "Clinica de Pediatrie",
    "type": "medical",
    "subcategory": "hospital",
    "lat": 44.302797,
    "lng": 23.8013596,
    "osmType": "way",
    "brand": null,
    "operator": null
  },
  {
    "id": "way-292836418",
    "name": "Clinica de Neuropsihiatrie",
    "type": "medical",
    "subcategory": "hospital",
    "lat": 44.2953362,
    "lng": 23.8046558,
    "osmType": "way",
    "brand": null,
    "operator": null
  },
  {
    "id": "way-292895318",
    "name": "Liceul Tehnologic Auto",
    "type": "school",
    "subcategory": "school",
    "lat": 44.3101057,
    "lng": 23.8359632,
    "osmType": "way",
    "brand": null,
    "operator": null
  },
  {
    "id": "way-304214094",
    "name": "Școala Gimnazială Mihai Viteazul",
    "type": "school",
    "subcategory": "school",
    "lat": 44.3361547,
    "lng": 23.780987,
    "osmType": "way",
    "brand": null,
    "operator": null
  },
  {
    "id": "way-310410601",
    "name": "Greenwich School of English",
    "type": "school",
    "subcategory": "school",
    "lat": 44.3048909,
    "lng": 23.8135636,
    "osmType": "way",
    "brand": null,
    "operator": null
  },
  {
    "id": "way-310533114",
    "name": "Grădinița nr. 41 \"Elena Farago\"",
    "type": "school",
    "subcategory": "kindergarten",
    "lat": 44.304592,
    "lng": 23.8182919,
    "osmType": "way",
    "brand": null,
    "operator": null
  },
  {
    "id": "way-313005032",
    "name": "Grădinița nr. 42 \"Ion Creangă\"",
    "type": "school",
    "subcategory": "kindergarten",
    "lat": 44.3064489,
    "lng": 23.8136454,
    "osmType": "way",
    "brand": null,
    "operator": null
  },
  {
    "id": "way-326761079",
    "name": "Stomatologie",
    "type": "medical",
    "subcategory": "clinic",
    "lat": 44.3175595,
    "lng": 23.8151126,
    "osmType": "way",
    "brand": null,
    "operator": null
  },
  {
    "id": "way-331654744",
    "name": "Liceul Tehnologic Transporturi Căi Ferate",
    "type": "school",
    "subcategory": "school",
    "lat": 44.3249749,
    "lng": 23.7953395,
    "osmType": "way",
    "brand": null,
    "operator": null
  },
  {
    "id": "way-345039618",
    "name": "Liceul Teoretic Tudor Arghezi",
    "type": "school",
    "subcategory": "school",
    "lat": 44.3249658,
    "lng": 23.8158755,
    "osmType": "way",
    "brand": null,
    "operator": null
  },
  {
    "id": "way-345041937",
    "name": "Grădinița Sfânta Lucia",
    "type": "school",
    "subcategory": "kindergarten",
    "lat": 44.3253876,
    "lng": 23.8135521,
    "osmType": "way",
    "brand": null,
    "operator": null
  },
  {
    "id": "way-345106847",
    "name": "Campus Agronomie",
    "type": "school",
    "subcategory": "university",
    "lat": 44.3191697,
    "lng": 23.7856806,
    "osmType": "way",
    "brand": null,
    "operator": null
  },
  {
    "id": "way-346364238",
    "name": "Școala Gimnazială Sfântul Dumitru",
    "type": "school",
    "subcategory": "school",
    "lat": 44.3042397,
    "lng": 23.7972659,
    "osmType": "way",
    "brand": null,
    "operator": null
  },
  {
    "id": "way-346365560",
    "name": "Școala Specială Sfântul Vasile",
    "type": "school",
    "subcategory": "school",
    "lat": 44.3004177,
    "lng": 23.7919322,
    "osmType": "way",
    "brand": null,
    "operator": null
  },
  {
    "id": "way-346369190",
    "name": "Liceul Tehnologic de Transporturi Auto",
    "type": "school",
    "subcategory": "school",
    "lat": 44.2921726,
    "lng": 23.7999769,
    "osmType": "way",
    "brand": null,
    "operator": null
  },
  {
    "id": "way-346965091",
    "name": "Liceul Tehnologic Transporturi Căi Ferate",
    "type": "school",
    "subcategory": "school",
    "lat": 44.32546,
    "lng": 23.7945315,
    "osmType": "way",
    "brand": null,
    "operator": null
  },
  {
    "id": "way-346965092",
    "name": "Liceul Tehnologic Constantin Brâncuși",
    "type": "school",
    "subcategory": "school",
    "lat": 44.3258502,
    "lng": 23.7959765,
    "osmType": "way",
    "brand": null,
    "operator": null
  },
  {
    "id": "way-346965093",
    "name": "Universitatea Spiru Haret",
    "type": "school",
    "subcategory": "college",
    "lat": 44.3264776,
    "lng": 23.7966848,
    "osmType": "way",
    "brand": null,
    "operator": null
  },
  {
    "id": "way-346965953",
    "name": "Colegiul Național Nicolae Titulescu",
    "type": "school",
    "subcategory": "school",
    "lat": 44.328764,
    "lng": 23.8000289,
    "osmType": "way",
    "brand": null,
    "operator": null
  },
  {
    "id": "way-346965954",
    "name": "Școala Gimnazială Sfântu Gheorghe",
    "type": "school",
    "subcategory": "school",
    "lat": 44.3302052,
    "lng": 23.8037336,
    "osmType": "way",
    "brand": null,
    "operator": null
  },
  {
    "id": "way-346965959",
    "name": "Grădinița Căsuța cu Povești",
    "type": "school",
    "subcategory": "kindergarten",
    "lat": 44.3305282,
    "lng": 23.801884,
    "osmType": "way",
    "brand": null,
    "operator": null
  },
  {
    "id": "way-346966600",
    "name": "Grădinița Voiniceii",
    "type": "school",
    "subcategory": "kindergarten",
    "lat": 44.3312772,
    "lng": 23.7964667,
    "osmType": "way",
    "brand": null,
    "operator": null
  },
  {
    "id": "way-347569165",
    "name": "Școala Gimnazială Mihai Eminescu",
    "type": "school",
    "subcategory": "school",
    "lat": 44.3125524,
    "lng": 23.8390072,
    "osmType": "way",
    "brand": null,
    "operator": null
  },
  {
    "id": "way-347569168",
    "name": "Școala Gimnazială Nicolae Bălcescu",
    "type": "school",
    "subcategory": "school",
    "lat": 44.3228706,
    "lng": 23.8254477,
    "osmType": "way",
    "brand": null,
    "operator": null
  },
  {
    "id": "way-347581593",
    "name": "Grădinița Petrache Poenaru",
    "type": "school",
    "subcategory": "kindergarten",
    "lat": 44.3214288,
    "lng": 23.8112104,
    "osmType": "way",
    "brand": null,
    "operator": null
  },
  {
    "id": "way-347581594",
    "name": "Grădinița Luceafărul",
    "type": "school",
    "subcategory": "kindergarten",
    "lat": 44.3196536,
    "lng": 23.8237329,
    "osmType": "way",
    "brand": null,
    "operator": null
  },
  {
    "id": "way-347581595",
    "name": "Grădinița Pinocchio",
    "type": "school",
    "subcategory": "kindergarten",
    "lat": 44.317074,
    "lng": 23.8193216,
    "osmType": "way",
    "brand": null,
    "operator": null
  },
  {
    "id": "way-347586086",
    "name": "Grădinița Tudor Vladimirescu",
    "type": "school",
    "subcategory": "kindergarten",
    "lat": 44.323362,
    "lng": 23.8034059,
    "osmType": "way",
    "brand": null,
    "operator": null
  },
  {
    "id": "way-347586090",
    "name": "Școala Gimnazială Sfântul Gheorghe",
    "type": "school",
    "subcategory": "school",
    "lat": 44.3271735,
    "lng": 23.8069826,
    "osmType": "way",
    "brand": null,
    "operator": null
  },
  {
    "id": "way-347589010",
    "name": "Școala Specială Sfântul Mina",
    "type": "school",
    "subcategory": "school",
    "lat": 44.3259836,
    "lng": 23.7895949,
    "osmType": "way",
    "brand": null,
    "operator": null
  },
  {
    "id": "way-347589011",
    "name": "Policlinica Spitalului Filantropia",
    "type": "medical",
    "subcategory": "hospital",
    "lat": 44.3255062,
    "lng": 23.7893991,
    "osmType": "way",
    "brand": null,
    "operator": null
  },
  {
    "id": "way-347594512",
    "name": "Colegiul Tehnic Costin D. Nenițescu",
    "type": "school",
    "subcategory": "school",
    "lat": 44.3299571,
    "lng": 23.7812738,
    "osmType": "way",
    "brand": null,
    "operator": null
  },
  {
    "id": "way-347594513",
    "name": "Liceul Teologic Adventist",
    "type": "school",
    "subcategory": "school",
    "lat": 44.3291258,
    "lng": 23.7798729,
    "osmType": "way",
    "brand": null,
    "operator": null
  },
  {
    "id": "way-347594514",
    "name": "Școala Gimnazială Decebal",
    "type": "school",
    "subcategory": "school",
    "lat": 44.3272378,
    "lng": 23.785407,
    "osmType": "way",
    "brand": null,
    "operator": null
  },
  {
    "id": "way-347594515",
    "name": "Grădinița Paradisul Copiilor",
    "type": "school",
    "subcategory": "kindergarten",
    "lat": 44.3255414,
    "lng": 23.7819284,
    "osmType": "way",
    "brand": null,
    "operator": null
  },
  {
    "id": "way-347597082",
    "name": "Grădinița Phoenix",
    "type": "school",
    "subcategory": "kindergarten",
    "lat": 44.3336375,
    "lng": 23.7816669,
    "osmType": "way",
    "brand": null,
    "operator": null
  },
  {
    "id": "way-347597083",
    "name": "Școala Gimnazială Alexandru Macedonski",
    "type": "school",
    "subcategory": "school",
    "lat": 44.337692,
    "lng": 23.783902,
    "osmType": "way",
    "brand": null,
    "operator": null
  },
  {
    "id": "way-347597085",
    "name": "Grădinița Floarea Soarelui",
    "type": "school",
    "subcategory": "kindergarten",
    "lat": 44.3387429,
    "lng": 23.7832989,
    "osmType": "way",
    "brand": null,
    "operator": null
  },
  {
    "id": "way-347597086",
    "name": "Grădinița Floare Albastră",
    "type": "school",
    "subcategory": "kindergarten",
    "lat": 44.3377021,
    "lng": 23.7790281,
    "osmType": "way",
    "brand": null,
    "operator": null
  },
  {
    "id": "way-347597087",
    "name": "Școala Gimnazială Elena Farago",
    "type": "school",
    "subcategory": "school",
    "lat": 44.3399751,
    "lng": 23.773956,
    "osmType": "way",
    "brand": null,
    "operator": null
  },
  {
    "id": "way-347597088",
    "name": "Școala Gimnazială Elena Farago",
    "type": "school",
    "subcategory": "school",
    "lat": 44.3372465,
    "lng": 23.7689677,
    "osmType": "way",
    "brand": null,
    "operator": null
  },
  {
    "id": "way-348362970",
    "name": "Universitatea de Medicină si Farmacie din Craiova - Clădirea Nouă",
    "type": "school",
    "subcategory": "university",
    "lat": 44.3053225,
    "lng": 23.7945307,
    "osmType": "way",
    "brand": null,
    "operator": null
  },
  {
    "id": "way-348398361",
    "name": "Liceul de Industrie Alimentară",
    "type": "school",
    "subcategory": "school",
    "lat": 44.3254464,
    "lng": 23.774153,
    "osmType": "way",
    "brand": null,
    "operator": null
  },
  {
    "id": "way-348398364",
    "name": "Facultatea de Educație Fizică și Sport",
    "type": "school",
    "subcategory": "college",
    "lat": 44.326048,
    "lng": 23.7734103,
    "osmType": "way",
    "brand": null,
    "operator": null
  },
  {
    "id": "way-352338290",
    "name": "Biserica Sfântul Ilie",
    "type": "church",
    "subcategory": "christian",
    "lat": 44.3168492,
    "lng": 23.7963438,
    "osmType": "way",
    "brand": null,
    "operator": null
  },
  {
    "id": "way-352340731",
    "name": "Liceul cu Program Sportiv Petrache Trișcu",
    "type": "school",
    "subcategory": "school",
    "lat": 44.3127809,
    "lng": 23.8045403,
    "osmType": "way",
    "brand": null,
    "operator": null
  },
  {
    "id": "way-352383223",
    "name": "Grădinița Otilia Cazimir",
    "type": "school",
    "subcategory": "kindergarten",
    "lat": 44.3122031,
    "lng": 23.7958609,
    "osmType": "way",
    "brand": null,
    "operator": null
  },
  {
    "id": "way-352882485",
    "name": "Policlinica M&M",
    "type": "medical",
    "subcategory": "clinic",
    "lat": 44.3001435,
    "lng": 23.7971961,
    "osmType": "way",
    "brand": null,
    "operator": null
  },
  {
    "id": "way-353275774",
    "name": "Biserica Sfântul Petru Movilă",
    "type": "church",
    "subcategory": "christian",
    "lat": 44.2960686,
    "lng": 23.7994455,
    "osmType": "way",
    "brand": null,
    "operator": null
  },
  {
    "id": "way-353275778",
    "name": "Biserica Eroii Neamului",
    "type": "church",
    "subcategory": "christian",
    "lat": 44.313677,
    "lng": 23.8321879,
    "osmType": "way",
    "brand": null,
    "operator": null
  },
  {
    "id": "way-353275786",
    "name": "Liceul Tehnologic Special Beethoven",
    "type": "school",
    "subcategory": "school",
    "lat": 44.3221002,
    "lng": 23.7869611,
    "osmType": "way",
    "brand": null,
    "operator": null
  },
  {
    "id": "way-353275788",
    "name": "Fără nume",
    "type": "school",
    "subcategory": "school",
    "lat": 44.3214881,
    "lng": 23.784055,
    "osmType": "way",
    "brand": null,
    "operator": null
  },
  {
    "id": "way-353275789",
    "name": "Liceul Charles Laugier",
    "type": "school",
    "subcategory": "school",
    "lat": 44.3219751,
    "lng": 23.7774088,
    "osmType": "way",
    "brand": null,
    "operator": null
  },
  {
    "id": "way-353422202",
    "name": "Grădinița Piticot",
    "type": "school",
    "subcategory": "kindergarten",
    "lat": 44.3405506,
    "lng": 23.7747351,
    "osmType": "way",
    "brand": null,
    "operator": null
  },
  {
    "id": "way-481924198",
    "name": "CM Camen 2",
    "type": "medical",
    "subcategory": "clinic",
    "lat": 44.3262384,
    "lng": 23.7874638,
    "osmType": "way",
    "brand": null,
    "operator": null
  },
  {
    "id": "way-503719153",
    "name": "CardioMed",
    "type": "medical",
    "subcategory": "clinic",
    "lat": 44.3138873,
    "lng": 23.8198149,
    "osmType": "way",
    "brand": null,
    "operator": null
  },
  {
    "id": "way-611980710",
    "name": "Școala Gimnazială Ion Creangă",
    "type": "school",
    "subcategory": "school",
    "lat": 44.3268561,
    "lng": 23.7686735,
    "osmType": "way",
    "brand": null,
    "operator": null
  },
  {
    "id": "way-654052498",
    "name": "CM Camen 1",
    "type": "medical",
    "subcategory": "clinic",
    "lat": 44.3262104,
    "lng": 23.787307,
    "osmType": "way",
    "brand": null,
    "operator": null
  },
  {
    "id": "way-671665634",
    "name": "Școala Gimnazială 25",
    "type": "school",
    "subcategory": "school",
    "lat": 44.275196,
    "lng": 23.8151504,
    "osmType": "way",
    "brand": null,
    "operator": null
  },
  {
    "id": "way-678735906",
    "name": "Fără nume",
    "type": "school",
    "subcategory": "school",
    "lat": 44.3216006,
    "lng": 23.789968,
    "osmType": "way",
    "brand": null,
    "operator": null
  },
  {
    "id": "way-681740590",
    "name": "Școala Gimnazială Ethos",
    "type": "school",
    "subcategory": "school",
    "lat": 44.2874425,
    "lng": 23.8116672,
    "osmType": "way",
    "brand": null,
    "operator": null
  },
  {
    "id": "way-685474163",
    "name": "medical center",
    "type": "medical",
    "subcategory": "hospital",
    "lat": 44.3290066,
    "lng": 23.8014418,
    "osmType": "way",
    "brand": null,
    "operator": null
  },
  {
    "id": "way-686186527",
    "name": "Liceul George Bibescu",
    "type": "school",
    "subcategory": "school",
    "lat": 44.3360561,
    "lng": 23.7910297,
    "osmType": "way",
    "brand": null,
    "operator": null
  },
  {
    "id": "way-686944874",
    "name": "Școala Gimnazială Lascăr Catargiu",
    "type": "school",
    "subcategory": "school",
    "lat": 44.306835,
    "lng": 23.7830042,
    "osmType": "way",
    "brand": null,
    "operator": null
  },
  {
    "id": "way-687645738",
    "name": "Școala Româno-Britanică",
    "type": "school",
    "subcategory": "school",
    "lat": 44.3145999,
    "lng": 23.790632,
    "osmType": "way",
    "brand": null,
    "operator": null
  },
  {
    "id": "way-687645739",
    "name": "Templul Coral",
    "type": "church",
    "subcategory": "none",
    "lat": 44.3163873,
    "lng": 23.7924982,
    "osmType": "way",
    "brand": null,
    "operator": null
  },
  {
    "id": "way-689699939",
    "name": "Centru de Imagistică Regina Maria",
    "type": "medical",
    "subcategory": "hospital",
    "lat": 44.3230022,
    "lng": 23.796208,
    "osmType": "way",
    "brand": null,
    "operator": null
  },
  {
    "id": "way-689700014",
    "name": "Casa de Tip Familial \"Emilia\"",
    "type": "school",
    "subcategory": "childcare",
    "lat": 44.3263127,
    "lng": 23.7897794,
    "osmType": "way",
    "brand": null,
    "operator": null
  },
  {
    "id": "way-692080007",
    "name": "Biserica Parcului Mureșul",
    "type": "church",
    "subcategory": "christian",
    "lat": 44.3074005,
    "lng": 23.7953292,
    "osmType": "way",
    "brand": null,
    "operator": null
  },
  {
    "id": "way-696688369",
    "name": "Vitaplus",
    "type": "medical",
    "subcategory": "clinic",
    "lat": 44.3059619,
    "lng": 23.8099621,
    "osmType": "way",
    "brand": null,
    "operator": null
  },
  {
    "id": "way-702199971",
    "name": "Fără nume",
    "type": "school",
    "subcategory": "childcare",
    "lat": 44.3335273,
    "lng": 23.7817585,
    "osmType": "way",
    "brand": null,
    "operator": null
  },
  {
    "id": "way-705667709",
    "name": "Biserica",
    "type": "church",
    "subcategory": "christian",
    "lat": 44.269498,
    "lng": 23.7241256,
    "osmType": "way",
    "brand": null,
    "operator": null
  },
  {
    "id": "way-705799901",
    "name": "Fără nume",
    "type": "school",
    "subcategory": "childcare",
    "lat": 44.3376584,
    "lng": 23.7789449,
    "osmType": "way",
    "brand": null,
    "operator": null
  },
  {
    "id": "way-727274301",
    "name": "Colegiul Economic Gheorghe Chițu - Sediul 2",
    "type": "school",
    "subcategory": "school",
    "lat": 44.3023077,
    "lng": 23.793155,
    "osmType": "way",
    "brand": null,
    "operator": null
  },
  {
    "id": "way-727274302",
    "name": "Fără nume",
    "type": "school",
    "subcategory": "kindergarten",
    "lat": 44.3022927,
    "lng": 23.7922821,
    "osmType": "way",
    "brand": null,
    "operator": null
  },
  {
    "id": "way-732585915",
    "name": "Universitatea de Medicină și Farmacie din Craiova - Corp A Extindere",
    "type": "school",
    "subcategory": "university",
    "lat": 44.3087098,
    "lng": 23.7985531,
    "osmType": "way",
    "brand": null,
    "operator": null
  },
  {
    "id": "way-732586374",
    "name": "Renamed",
    "type": "medical",
    "subcategory": "clinic",
    "lat": 44.3060891,
    "lng": 23.7981219,
    "osmType": "way",
    "brand": null,
    "operator": null
  },
  {
    "id": "way-736848167",
    "name": "Școala Gimnazială Anton Pann",
    "type": "school",
    "subcategory": "school",
    "lat": 44.3165224,
    "lng": 23.7805826,
    "osmType": "way",
    "brand": null,
    "operator": null
  },
  {
    "id": "way-737655099",
    "name": "Grădinița Casa cu Pitici",
    "type": "school",
    "subcategory": "kindergarten",
    "lat": 44.3289976,
    "lng": 23.7618076,
    "osmType": "way",
    "brand": null,
    "operator": null
  },
  {
    "id": "way-737662183",
    "name": "Biserica Greco-Catolică Buna Vestire",
    "type": "church",
    "subcategory": "christian",
    "lat": 44.3283238,
    "lng": 23.7779126,
    "osmType": "way",
    "brand": null,
    "operator": null
  },
  {
    "id": "way-738631459",
    "name": "Grădinița Sf. Stelian",
    "type": "school",
    "subcategory": "kindergarten",
    "lat": 44.3163024,
    "lng": 23.7889952,
    "osmType": "way",
    "brand": null,
    "operator": null
  },
  {
    "id": "way-739800017",
    "name": "Fără nume",
    "type": "school",
    "subcategory": "kindergarten",
    "lat": 44.3212287,
    "lng": 23.8111413,
    "osmType": "way",
    "brand": null,
    "operator": null
  },
  {
    "id": "way-739801309",
    "name": "Fără nume",
    "type": "school",
    "subcategory": "kindergarten",
    "lat": 44.3215528,
    "lng": 23.8114006,
    "osmType": "way",
    "brand": null,
    "operator": null
  },
  {
    "id": "way-746332088",
    "name": "Biserica Sfântul Anton",
    "type": "church",
    "subcategory": "christian",
    "lat": 44.3199703,
    "lng": 23.793718,
    "osmType": "way",
    "brand": null,
    "operator": null
  },
  {
    "id": "way-746340901",
    "name": "Biserica Duminica Tuturor Sfinților",
    "type": "church",
    "subcategory": "christian",
    "lat": 44.3147621,
    "lng": 23.7989464,
    "osmType": "way",
    "brand": null,
    "operator": null
  },
  {
    "id": "way-753520141",
    "name": "Biserica Sfinții Apostoli Petru și Pavel",
    "type": "church",
    "subcategory": "christian",
    "lat": 44.3154484,
    "lng": 23.8072521,
    "osmType": "way",
    "brand": null,
    "operator": null
  },
  {
    "id": "way-753520145",
    "name": "Fără nume",
    "type": "church",
    "subcategory": "christian",
    "lat": 44.3155402,
    "lng": 23.8042333,
    "osmType": "way",
    "brand": null,
    "operator": null
  },
  {
    "id": "way-753527785",
    "name": "Școala Gimnazială Ion Creangă",
    "type": "school",
    "subcategory": "school",
    "lat": 44.3367427,
    "lng": 23.7394084,
    "osmType": "way",
    "brand": null,
    "operator": null
  },
  {
    "id": "way-753659225",
    "name": "Spitalul Municipal Filantropia",
    "type": "medical",
    "subcategory": "hospital",
    "lat": 44.313386,
    "lng": 23.825172,
    "osmType": "way",
    "brand": null,
    "operator": null
  },
  {
    "id": "way-753661097",
    "name": "Biserica Madona Oota",
    "type": "church",
    "subcategory": "christian",
    "lat": 44.3092005,
    "lng": 23.8116757,
    "osmType": "way",
    "brand": null,
    "operator": null
  },
  {
    "id": "way-754057666",
    "name": "Colegiul Național Militar Tudor Vladimirescu",
    "type": "school",
    "subcategory": "school",
    "lat": 44.2793956,
    "lng": 23.809364,
    "osmType": "way",
    "brand": null,
    "operator": null
  },
  {
    "id": "way-758162612",
    "name": "Grădinița Axia",
    "type": "school",
    "subcategory": "kindergarten",
    "lat": 44.3106097,
    "lng": 23.8044953,
    "osmType": "way",
    "brand": null,
    "operator": null
  },
  {
    "id": "way-758183530",
    "name": "Școala Primară Popoveni",
    "type": "school",
    "subcategory": "school",
    "lat": 44.2897947,
    "lng": 23.7820386,
    "osmType": "way",
    "brand": null,
    "operator": null
  },
  {
    "id": "way-758185345",
    "name": "Grădinița Lascăr Catargiu",
    "type": "school",
    "subcategory": "kindergarten",
    "lat": 44.309294,
    "lng": 23.7812559,
    "osmType": "way",
    "brand": null,
    "operator": null
  },
  {
    "id": "way-758185346",
    "name": "Grădinița Floare de Colț",
    "type": "school",
    "subcategory": "kindergarten",
    "lat": 44.3099294,
    "lng": 23.8062895,
    "osmType": "way",
    "brand": null,
    "operator": null
  },
  {
    "id": "way-758185349",
    "name": "Grădinița Voinicel",
    "type": "school",
    "subcategory": "kindergarten",
    "lat": 44.3272968,
    "lng": 23.7688404,
    "osmType": "way",
    "brand": null,
    "operator": null
  },
  {
    "id": "way-758187499",
    "name": "Grădinița Sf. Ana",
    "type": "school",
    "subcategory": "kindergarten",
    "lat": 44.3132995,
    "lng": 23.8044437,
    "osmType": "way",
    "brand": null,
    "operator": null
  },
  {
    "id": "way-758682475",
    "name": "Școala Gimnazială Ion Țuculescu",
    "type": "school",
    "subcategory": "school",
    "lat": 44.3340819,
    "lng": 23.8171735,
    "osmType": "way",
    "brand": null,
    "operator": null
  },
  {
    "id": "way-793212887",
    "name": "Liceul Tehnologic Constantin Ianculescu",
    "type": "school",
    "subcategory": "school",
    "lat": 44.2747783,
    "lng": 23.8975277,
    "osmType": "way",
    "brand": null,
    "operator": null
  },
  {
    "id": "way-843619572",
    "name": "Biserica Hagi Enuș",
    "type": "church",
    "subcategory": "christian",
    "lat": 44.3181089,
    "lng": 23.8050147,
    "osmType": "way",
    "brand": null,
    "operator": null
  },
  {
    "id": "way-843620632",
    "name": "Biserica Madona Dudu",
    "type": "church",
    "subcategory": "christian",
    "lat": 44.3167237,
    "lng": 23.7900906,
    "osmType": "way",
    "brand": null,
    "operator": null
  },
  {
    "id": "way-843994105",
    "name": "Biserica Sfântul Nicolae - Dorobănția",
    "type": "church",
    "subcategory": "christian",
    "lat": 44.3161291,
    "lng": 23.7872973,
    "osmType": "way",
    "brand": null,
    "operator": null
  },
  {
    "id": "way-843994499",
    "name": "Biserica Sfântul Nicolae - Brândușa",
    "type": "church",
    "subcategory": "christian",
    "lat": 44.3179738,
    "lng": 23.7887529,
    "osmType": "way",
    "brand": null,
    "operator": null
  },
  {
    "id": "way-843995203",
    "name": "Capela Sfânta Maria",
    "type": "church",
    "subcategory": "christian",
    "lat": 44.3304126,
    "lng": 23.7875234,
    "osmType": "way",
    "brand": null,
    "operator": null
  },
  {
    "id": "way-909026548",
    "name": "Phoenix",
    "type": "medical",
    "subcategory": "clinic",
    "lat": 44.3290108,
    "lng": 23.7767416,
    "osmType": "way",
    "brand": null,
    "operator": "Medicover"
  },
  {
    "id": "way-941916181",
    "name": "Capela Sfinții Martiri Brâncoveni",
    "type": "church",
    "subcategory": "christian",
    "lat": 44.3009873,
    "lng": 23.7973047,
    "osmType": "way",
    "brand": null,
    "operator": null
  },
  {
    "id": "way-943576509",
    "name": "Biserica Sfântu Gheorghe",
    "type": "church",
    "subcategory": "christian",
    "lat": 44.3240079,
    "lng": 23.7990823,
    "osmType": "way",
    "brand": null,
    "operator": null
  },
  {
    "id": "way-952766252",
    "name": "Capela Sfinții Trei Ierarhi",
    "type": "church",
    "subcategory": "christian",
    "lat": 44.316497,
    "lng": 23.812097,
    "osmType": "way",
    "brand": null,
    "operator": null
  },
  {
    "id": "way-952766253",
    "name": "Biserica Sfinții Trei Ierarhi",
    "type": "church",
    "subcategory": "christian",
    "lat": 44.3163681,
    "lng": 23.8118922,
    "osmType": "way",
    "brand": null,
    "operator": null
  },
  {
    "id": "way-953546994",
    "name": "Biserica Sf. Grigorie Decapolitul",
    "type": "church",
    "subcategory": "christian",
    "lat": 44.3198126,
    "lng": 23.829796,
    "osmType": "way",
    "brand": null,
    "operator": null
  },
  {
    "id": "way-953561416",
    "name": "Biserica Sf. Cuvioasa Parascheva",
    "type": "church",
    "subcategory": "christian",
    "lat": 44.3318232,
    "lng": 23.8145763,
    "osmType": "way",
    "brand": null,
    "operator": null
  },
  {
    "id": "way-953806918",
    "name": "Biserica Sfântul Spiridon",
    "type": "church",
    "subcategory": "christian",
    "lat": 44.3210847,
    "lng": 23.8000599,
    "osmType": "way",
    "brand": null,
    "operator": null
  },
  {
    "id": "way-956670249",
    "name": "Spitalul Clinic Municipal Filantropia",
    "type": "medical",
    "subcategory": "hospital",
    "lat": 44.3225695,
    "lng": 23.7936556,
    "osmType": "way",
    "brand": null,
    "operator": null
  },
  {
    "id": "way-961017674",
    "name": "Centrul Medical Irina",
    "type": "medical",
    "subcategory": "clinic",
    "lat": 44.3061393,
    "lng": 23.8083073,
    "osmType": "way",
    "brand": null,
    "operator": null
  },
  {
    "id": "way-961017729",
    "name": "Biserica Sf. Nicolae - Ungureni",
    "type": "church",
    "subcategory": "christian",
    "lat": 44.3070072,
    "lng": 23.8062016,
    "osmType": "way",
    "brand": null,
    "operator": null
  },
  {
    "id": "way-974767520",
    "name": "Biserica Sfântul Grigorie Decapolitul",
    "type": "church",
    "subcategory": "christian",
    "lat": 44.2769103,
    "lng": 23.8529914,
    "osmType": "way",
    "brand": null,
    "operator": null
  },
  {
    "id": "way-976319607",
    "name": "Biserica Sfântul Nicolae",
    "type": "church",
    "subcategory": "christian",
    "lat": 44.2715286,
    "lng": 23.899706,
    "osmType": "way",
    "brand": null,
    "operator": null
  },
  {
    "id": "way-976379672",
    "name": "Biserica romano-catolică Înălțarea Sfintei Cruci Craiova",
    "type": "church",
    "subcategory": "christian",
    "lat": 44.3581862,
    "lng": 23.7499538,
    "osmType": "way",
    "brand": null,
    "operator": null
  },
  {
    "id": "way-1017427541",
    "name": "Grădinița Îngerașii",
    "type": "school",
    "subcategory": "kindergarten",
    "lat": 44.3321543,
    "lng": 23.8225154,
    "osmType": "way",
    "brand": null,
    "operator": null
  },
  {
    "id": "way-1023471956",
    "name": "Fără nume",
    "type": "medical",
    "subcategory": "hospital",
    "lat": 44.3004388,
    "lng": 23.8289909,
    "osmType": "way",
    "brand": null,
    "operator": null
  },
  {
    "id": "way-1094683164",
    "name": "Biserica Sfântul Mucenic Gheorghe",
    "type": "church",
    "subcategory": "christian",
    "lat": 44.3186297,
    "lng": 23.8632645,
    "osmType": "way",
    "brand": null,
    "operator": null
  },
  {
    "id": "way-1094712060",
    "name": "Biserica Mãnãstirii Cârcea",
    "type": "church",
    "subcategory": "christian",
    "lat": 44.2763298,
    "lng": 23.8889063,
    "osmType": "way",
    "brand": null,
    "operator": null
  },
  {
    "id": "way-1094993712",
    "name": "Biserica Sfântul Mare Mucenic Dimitrie",
    "type": "church",
    "subcategory": "christian",
    "lat": 44.2717936,
    "lng": 23.802396,
    "osmType": "way",
    "brand": null,
    "operator": null
  },
  {
    "id": "way-1116076396",
    "name": "Școala Gimnazială Bucovăț",
    "type": "school",
    "subcategory": "school",
    "lat": 44.2979944,
    "lng": 23.7422101,
    "osmType": "way",
    "brand": null,
    "operator": null
  },
  {
    "id": "way-1123313005",
    "name": "Fără nume",
    "type": "church",
    "subcategory": "christian",
    "lat": 44.2882297,
    "lng": 23.8175712,
    "osmType": "way",
    "brand": null,
    "operator": null
  },
  {
    "id": "way-1128020827",
    "name": "Școala Gimnazială Ghercești",
    "type": "school",
    "subcategory": "school",
    "lat": 44.3546108,
    "lng": 23.8955279,
    "osmType": "way",
    "brand": null,
    "operator": null
  },
  {
    "id": "way-1133515668",
    "name": "Grădiniţa Ethos",
    "type": "school",
    "subcategory": "kindergarten",
    "lat": 44.2877783,
    "lng": 23.8131581,
    "osmType": "way",
    "brand": null,
    "operator": null
  },
  {
    "id": "way-1133898130",
    "name": "Fără nume",
    "type": "church",
    "subcategory": "place_of_worship",
    "lat": 44.2888345,
    "lng": 23.8093186,
    "osmType": "way",
    "brand": null,
    "operator": null
  },
  {
    "id": "way-1160883351",
    "name": "Ateliere Liceul Tehnologic Auto",
    "type": "school",
    "subcategory": "school",
    "lat": 44.2887071,
    "lng": 23.8002343,
    "osmType": "way",
    "brand": null,
    "operator": null
  },
  {
    "id": "way-1209425621",
    "name": "Biserica Sfântul Cuvios Antonie de la Iezer",
    "type": "church",
    "subcategory": "christian",
    "lat": 44.3073287,
    "lng": 23.7624601,
    "osmType": "way",
    "brand": null,
    "operator": null
  },
  {
    "id": "way-1258141679",
    "name": "Centrul de Recuperare \"Sfântul Nectarie\"",
    "type": "medical",
    "subcategory": "hospital",
    "lat": 44.3009723,
    "lng": 23.829645,
    "osmType": "way",
    "brand": null,
    "operator": null
  },
  {
    "id": "relation-9506449",
    "name": "Universitatea din Craiova",
    "type": "school",
    "subcategory": "university",
    "lat": 44.3189859,
    "lng": 23.8008218,
    "osmType": "relation",
    "brand": null,
    "operator": null
  }
]