[
  {
    "id": "node-255657345",
    "name": "Biserica \"Sf. Arh. Mihail și Gavriil\"",
    "type": "church",
    "subcategory": "christian",
    "lat": 45.6764641,
    "lng": 25.6486558,
    "osmType": "node",
    "brand": null,
    "operator": null
  },
  {
    "id": "node-255679625",
    "name": "Școala Gimnazială Nr. 8",
    "type": "school",
    "subcategory": "school",
    "lat": 45.6525835,
    "lng": 25.6136594,
    "osmType": "node",
    "brand": null,
    "operator": null
  },
  {
    "id": "node-259528191",
    "name": "Școala Generală Nr. 5",
    "type": "school",
    "subcategory": "school",
    "lat": 45.649974,
    "lng": 25.6002105,
    "osmType": "node",
    "brand": null,
    "operator": null
  },
  {
    "id": "node-262523052",
    "name": "Spitalul Astra",
    "type": "medical",
    "subcategory": "hospital",
    "lat": 45.6495818,
    "lng": 25.6170943,
    "osmType": "node",
    "brand": null,
    "operator": null
  },
  {
    "id": "node-262897895",
    "name": "Spitalul Militar",
    "type": "medical",
    "subcategory": "hospital",
    "lat": 45.6437191,
    "lng": 25.6001061,
    "osmType": "node",
    "brand": null,
    "operator": null
  },
  {
    "id": "node-264989136",
    "name": "Biserica Sfântul Ioan",
    "type": "church",
    "subcategory": "christian",
    "lat": 45.6442598,
    "lng": 25.5915883,
    "osmType": "node",
    "brand": null,
    "operator": null
  },
  {
    "id": "node-272095224",
    "name": "Biserica Ortodoxă \"Buna Vestire\" din Brașov",
    "type": "church",
    "subcategory": "christian",
    "lat": 45.6471851,
    "lng": 25.5911482,
    "osmType": "node",
    "brand": null,
    "operator": null
  },
  {
    "id": "node-272095287",
    "name": "Spitalul de Neuro-Psihiatrie",
    "type": "medical",
    "subcategory": "hospital",
    "lat": 45.6473487,
    "lng": 25.5927496,
    "osmType": "node",
    "brand": null,
    "operator": null
  },
  {
    "id": "node-272095338",
    "name": "Biserica Evanghelică Sf. Martin",
    "type": "church",
    "subcategory": "christian",
    "lat": 45.6517556,
    "lng": 25.5884738,
    "osmType": "node",
    "brand": null,
    "operator": null
  },
  {
    "id": "node-272095462",
    "name": "Biserica Brașovul Vechi",
    "type": "church",
    "subcategory": "christian",
    "lat": 45.6542175,
    "lng": 25.5893267,
    "osmType": "node",
    "brand": null,
    "operator": null
  },
  {
    "id": "node-273500261",
    "name": "Fără nume",
    "type": "school",
    "subcategory": "kindergarten",
    "lat": 45.6351372,
    "lng": 25.6318306,
    "osmType": "node",
    "brand": null,
    "operator": null
  },
  {
    "id": "node-289753975",
    "name": "Creșa Nr. 5",
    "type": "school",
    "subcategory": "kindergarten",
    "lat": 45.6637019,
    "lng": 25.5946322,
    "osmType": "node",
    "brand": null,
    "operator": null
  },
  {
    "id": "node-289753976",
    "name": "Grădinița cu program prelungit \"Căsuța bucuriei\" Nr. 11",
    "type": "school",
    "subcategory": "kindergarten",
    "lat": 45.6633155,
    "lng": 25.5946041,
    "osmType": "node",
    "brand": null,
    "operator": null
  },
  {
    "id": "node-293743157",
    "name": "Spitalul Clinic de Copii",
    "type": "medical",
    "subcategory": "hospital",
    "lat": 45.656751,
    "lng": 25.587008,
    "osmType": "node",
    "brand": null,
    "operator": null
  },
  {
    "id": "node-293743357",
    "name": "Colegiul de Arhitectură",
    "type": "school",
    "subcategory": "college",
    "lat": 45.6580021,
    "lng": 25.5856671,
    "osmType": "node",
    "brand": null,
    "operator": null
  },
  {
    "id": "node-296300319",
    "name": "Centrul de Transfuzie Sanguină",
    "type": "medical",
    "subcategory": "hospital",
    "lat": 45.6515541,
    "lng": 25.5987234,
    "osmType": "node",
    "brand": null,
    "operator": null
  },
  {
    "id": "node-296535381",
    "name": "Grădiniță",
    "type": "school",
    "subcategory": "kindergarten",
    "lat": 45.6546238,
    "lng": 25.6314698,
    "osmType": "node",
    "brand": null,
    "operator": null
  },
  {
    "id": "node-300022020",
    "name": "Spitalul Clinic de Pneumoftiziologie, Pavilion IV adulți",
    "type": "medical",
    "subcategory": "hospital",
    "lat": 45.6458376,
    "lng": 25.5771093,
    "osmType": "node",
    "brand": null,
    "operator": null
  },
  {
    "id": "node-303080036",
    "name": "Școală",
    "type": "school",
    "subcategory": "school",
    "lat": 45.6127881,
    "lng": 25.6688992,
    "osmType": "node",
    "brand": null,
    "operator": null
  },
  {
    "id": "node-310837620",
    "name": "Dispensar Medical de Adulți Nr. 17",
    "type": "medical",
    "subcategory": "hospital",
    "lat": 45.6356997,
    "lng": 25.6365631,
    "osmType": "node",
    "brand": null,
    "operator": null
  },
  {
    "id": "node-318896944",
    "name": "Grădinița nr. 14A",
    "type": "school",
    "subcategory": "kindergarten",
    "lat": 45.6545019,
    "lng": 25.6077159,
    "osmType": "node",
    "brand": null,
    "operator": null
  },
  {
    "id": "node-440116540",
    "name": "Biserica Evanghelica Sânpetru",
    "type": "church",
    "subcategory": "christian",
    "lat": 45.712167,
    "lng": 25.6329934,
    "osmType": "node",
    "brand": null,
    "operator": null
  },
  {
    "id": "node-440347163",
    "name": "Biserica Sfinții Trei Ierarhi",
    "type": "church",
    "subcategory": "christian",
    "lat": 45.6662796,
    "lng": 25.5772765,
    "osmType": "node",
    "brand": null,
    "operator": null
  },
  {
    "id": "node-538215643",
    "name": "Universitatea Transilvania Corp T",
    "type": "school",
    "subcategory": "university",
    "lat": 45.6452058,
    "lng": 25.5923744,
    "osmType": "node",
    "brand": null,
    "operator": null
  },
  {
    "id": "node-845704148",
    "name": "Școala Nr.15 Corp B",
    "type": "school",
    "subcategory": "school",
    "lat": 45.6593823,
    "lng": 25.5929366,
    "osmType": "node",
    "brand": null,
    "operator": null
  },
  {
    "id": "node-903735896",
    "name": "Biserica Cetate",
    "type": "church",
    "subcategory": "christian",
    "lat": 45.7154778,
    "lng": 25.6848387,
    "osmType": "node",
    "brand": null,
    "operator": null
  },
  {
    "id": "node-921122033",
    "name": "Grădinița36 \"Căsuța Piticilor\"",
    "type": "school",
    "subcategory": "kindergarten",
    "lat": 45.6521406,
    "lng": 25.6239128,
    "osmType": "node",
    "brand": null,
    "operator": null
  },
  {
    "id": "node-927084147",
    "name": "Liceul Pedagogic",
    "type": "school",
    "subcategory": "college",
    "lat": 45.6367346,
    "lng": 25.5821182,
    "osmType": "node",
    "brand": null,
    "operator": null
  },
  {
    "id": "node-1206977700",
    "name": "Clinica Eva",
    "type": "medical",
    "subcategory": "hospital",
    "lat": 45.6502626,
    "lng": 25.613321,
    "osmType": "node",
    "brand": null,
    "operator": null
  },
  {
    "id": "node-1620319218",
    "name": "\"MEDO\" international medical center - 24/24",
    "type": "medical",
    "subcategory": "hospital",
    "lat": 45.6622252,
    "lng": 25.5955503,
    "osmType": "node",
    "brand": null,
    "operator": null
  },
  {
    "id": "node-1903777691",
    "name": "Biserica Mortuară",
    "type": "church",
    "subcategory": "christian",
    "lat": 45.6718982,
    "lng": 25.6355282,
    "osmType": "node",
    "brand": null,
    "operator": null
  },
  {
    "id": "node-2088403627",
    "name": "Școala Gimnazială ,, Mihai Eminescu\" Hărman",
    "type": "school",
    "subcategory": "school",
    "lat": 45.7163328,
    "lng": 25.6839669,
    "osmType": "node",
    "brand": null,
    "operator": null
  },
  {
    "id": "node-2088403995",
    "name": "Fără nume",
    "type": "school",
    "subcategory": "kindergarten",
    "lat": 45.7166095,
    "lng": 25.6845803,
    "osmType": "node",
    "brand": null,
    "operator": null
  },
  {
    "id": "node-2088448229",
    "name": "Biserica Ortodoxă Hărman",
    "type": "church",
    "subcategory": "christian",
    "lat": 45.721544,
    "lng": 25.6849692,
    "osmType": "node",
    "brand": null,
    "operator": null
  },
  {
    "id": "node-2094254987",
    "name": "Biserica Sfânta Treime",
    "type": "church",
    "subcategory": "christian",
    "lat": 45.6313087,
    "lng": 25.5753218,
    "osmType": "node",
    "brand": null,
    "operator": null
  },
  {
    "id": "node-2094254988",
    "name": "Biserica Cuvioasa Parascheva",
    "type": "church",
    "subcategory": "christian",
    "lat": 45.636879,
    "lng": 25.5862347,
    "osmType": "node",
    "brand": null,
    "operator": null
  },
  {
    "id": "node-2335446870",
    "name": "Biserica Ortodoxă -Cetate-",
    "type": "church",
    "subcategory": "christian",
    "lat": 45.6409723,
    "lng": 25.5865356,
    "osmType": "node",
    "brand": null,
    "operator": null
  },
  {
    "id": "node-2376395169",
    "name": "Grădinița 23",
    "type": "school",
    "subcategory": "kindergarten",
    "lat": 45.6408124,
    "lng": 25.629512,
    "osmType": "node",
    "brand": null,
    "operator": null
  },
  {
    "id": "node-2376396286",
    "name": "Gradinița nr. 22 \"Micul Prinț\"",
    "type": "school",
    "subcategory": "kindergarten",
    "lat": 45.640953,
    "lng": 25.6328057,
    "osmType": "node",
    "brand": null,
    "operator": null
  },
  {
    "id": "node-2534688470",
    "name": "Biserica Ortodoxă",
    "type": "church",
    "subcategory": "christian",
    "lat": 45.6080777,
    "lng": 25.6738562,
    "osmType": "node",
    "brand": null,
    "operator": null
  },
  {
    "id": "node-2534690718",
    "name": "Capela Mortuală",
    "type": "church",
    "subcategory": "christian",
    "lat": 45.609635,
    "lng": 25.6671775,
    "osmType": "node",
    "brand": null,
    "operator": null
  },
  {
    "id": "node-2639477755",
    "name": "Spital Clinicco",
    "type": "medical",
    "subcategory": "hospital",
    "lat": 45.6573522,
    "lng": 25.585149,
    "osmType": "node",
    "brand": null,
    "operator": null
  },
  {
    "id": "node-2769774435",
    "name": "Biserica Ortodoxă",
    "type": "church",
    "subcategory": "christian",
    "lat": 45.6083778,
    "lng": 25.6767725,
    "osmType": "node",
    "brand": null,
    "operator": null
  },
  {
    "id": "node-2907876692",
    "name": "Biserica Ortodoxă \"Sfânta Treime - Cetate\" din Brașov",
    "type": "church",
    "subcategory": "christian",
    "lat": 45.6414786,
    "lng": 25.5875315,
    "osmType": "node",
    "brand": null,
    "operator": null
  },
  {
    "id": "node-3118857686",
    "name": "Biserica Sfântul Nicolae",
    "type": "church",
    "subcategory": "christian",
    "lat": 45.6126735,
    "lng": 25.6804189,
    "osmType": "node",
    "brand": null,
    "operator": null
  },
  {
    "id": "node-3220369338",
    "name": "Dr. Claudia Ulieru",
    "type": "medical",
    "subcategory": "doctors",
    "lat": 45.64495,
    "lng": 25.6221244,
    "osmType": "node",
    "brand": null,
    "operator": null
  },
  {
    "id": "node-3258728666",
    "name": "Capela Militară Ortodoxă \"Sf. Gheorghe\"",
    "type": "church",
    "subcategory": "christian",
    "lat": 45.6484129,
    "lng": 25.6080414,
    "osmType": "node",
    "brand": null,
    "operator": null
  },
  {
    "id": "node-3273906097",
    "name": "Spitalul Sf. Constantin",
    "type": "medical",
    "subcategory": "hospital",
    "lat": 45.6076953,
    "lng": 25.6530705,
    "osmType": "node",
    "brand": null,
    "operator": null
  },
  {
    "id": "node-3359383069",
    "name": "Grădinița Nr.14 PP",
    "type": "school",
    "subcategory": "kindergarten",
    "lat": 45.6502471,
    "lng": 25.608235,
    "osmType": "node",
    "brand": null,
    "operator": null
  },
  {
    "id": "node-3457117393",
    "name": "Colegiul Economic Andrei Bârseanu",
    "type": "school",
    "subcategory": "school",
    "lat": 45.6598269,
    "lng": 25.5812915,
    "osmType": "node",
    "brand": null,
    "operator": null
  },
  {
    "id": "node-3565754532",
    "name": "Facultatea de Silvicultură",
    "type": "school",
    "subcategory": "university",
    "lat": 45.6399128,
    "lng": 25.5857568,
    "osmType": "node",
    "brand": null,
    "operator": "Universitatea Transilvania"
  },
  {
    "id": "node-3589322111",
    "name": "DERMAMED S.R.L.",
    "type": "medical",
    "subcategory": "doctors",
    "lat": 45.6498115,
    "lng": 25.6240639,
    "osmType": "node",
    "brand": null,
    "operator": null
  },
  {
    "id": "node-3610456085",
    "name": "Dispensar policlinic Predeal",
    "type": "medical",
    "subcategory": "hospital",
    "lat": 45.5088504,
    "lng": 25.5740897,
    "osmType": "node",
    "brand": null,
    "operator": null
  },
  {
    "id": "node-3637225122",
    "name": "Facultatea de Muzică",
    "type": "school",
    "subcategory": "university",
    "lat": 45.6386774,
    "lng": 25.5833441,
    "osmType": "node",
    "brand": null,
    "operator": null
  },
  {
    "id": "node-3637225136",
    "name": "Inspectoratul Școlar Județean",
    "type": "school",
    "subcategory": "school",
    "lat": 45.6394613,
    "lng": 25.5833534,
    "osmType": "node",
    "brand": null,
    "operator": "MEC"
  },
  {
    "id": "node-3758553339",
    "name": "Cabinet Doctor Antonya Livia",
    "type": "medical",
    "subcategory": "doctors",
    "lat": 45.653744,
    "lng": 25.6224782,
    "osmType": "node",
    "brand": null,
    "operator": null
  },
  {
    "id": "node-4382675291",
    "name": "Grădinița PP Nr. 26 \"Junior\"",
    "type": "school",
    "subcategory": "kindergarten",
    "lat": 45.6484048,
    "lng": 25.6300114,
    "osmType": "node",
    "brand": null,
    "operator": null
  },
  {
    "id": "node-4392343890",
    "name": "Johannes Honterus",
    "type": "school",
    "subcategory": "school",
    "lat": 45.6405327,
    "lng": 25.5878998,
    "osmType": "node",
    "brand": null,
    "operator": null
  },
  {
    "id": "node-4475365990",
    "name": "liceul teoretic Johannes Honterus",
    "type": "school",
    "subcategory": "school",
    "lat": 45.6409185,
    "lng": 25.5888176,
    "osmType": "node",
    "brand": null,
    "operator": null
  },
  {
    "id": "node-4483312094",
    "name": "Școala Primară Liberă Waldorf Sophia",
    "type": "school",
    "subcategory": "school",
    "lat": 45.650625,
    "lng": 25.6128139,
    "osmType": "node",
    "brand": null,
    "operator": null
  },
  {
    "id": "node-4689578359",
    "name": "Capela Ortodoxă Adormirea Maicii Domnului",
    "type": "church",
    "subcategory": "christian",
    "lat": 45.6338313,
    "lng": 25.6312484,
    "osmType": "node",
    "brand": null,
    "operator": null
  },
  {
    "id": "node-5334759626",
    "name": "Grădinița cu Program Prelungit Snow White",
    "type": "school",
    "subcategory": "kindergarten",
    "lat": 45.6536719,
    "lng": 25.5926112,
    "osmType": "node",
    "brand": null,
    "operator": null
  },
  {
    "id": "node-5368451506",
    "name": "Spitalul Clinic de Psihiatrie si Neurologie Brasov",
    "type": "medical",
    "subcategory": "hospital",
    "lat": 45.6381442,
    "lng": 25.5848518,
    "osmType": "node",
    "brand": null,
    "operator": null
  },
  {
    "id": "node-5369747256",
    "name": "Unitatea de Asistență Medico-Socială de Pneumoftiziologie Sânpetru",
    "type": "medical",
    "subcategory": "hospital",
    "lat": 45.7220405,
    "lng": 25.6481657,
    "osmType": "node",
    "brand": null,
    "operator": null
  },
  {
    "id": "node-5394362322",
    "name": "Cabinet medicina de familie",
    "type": "medical",
    "subcategory": "doctors",
    "lat": 45.6396598,
    "lng": 25.6270123,
    "osmType": "node",
    "brand": null,
    "operator": null
  },
  {
    "id": "node-6231368485",
    "name": "Școală",
    "type": "school",
    "subcategory": "school",
    "lat": 45.6360306,
    "lng": 25.6310127,
    "osmType": "node",
    "brand": null,
    "operator": null
  },
  {
    "id": "node-6614650195",
    "name": "Medivers",
    "type": "medical",
    "subcategory": "clinic",
    "lat": 45.6458714,
    "lng": 25.6206979,
    "osmType": "node",
    "brand": null,
    "operator": null
  },
  {
    "id": "node-6948577287",
    "name": "Superbet",
    "type": "superbet",
    "subcategory": "betting",
    "lat": 45.6520753,
    "lng": 25.6046184,
    "osmType": "node",
    "brand": "Superbet",
    "operator": "Superbet Betting & Gaming SA"
  },
  {
    "id": "node-6948590595",
    "name": "Dr. Doina Șuteu",
    "type": "medical",
    "subcategory": "doctors",
    "lat": 45.6473327,
    "lng": 25.602651,
    "osmType": "node",
    "brand": null,
    "operator": null
  },
  {
    "id": "node-6948591997",
    "name": "Biserica Unitariană",
    "type": "church",
    "subcategory": "christian",
    "lat": 45.6510232,
    "lng": 25.5964411,
    "osmType": "node",
    "brand": null,
    "operator": null
  },
  {
    "id": "node-7040241925",
    "name": "Colegiul Nicolae Titulescu",
    "type": "school",
    "subcategory": "college",
    "lat": 45.6693897,
    "lng": 25.6102623,
    "osmType": "node",
    "brand": null,
    "operator": null
  },
  {
    "id": "node-7772824585",
    "name": "ProctoLine",
    "type": "medical",
    "subcategory": "doctors",
    "lat": 45.6467114,
    "lng": 25.592963,
    "osmType": "node",
    "brand": null,
    "operator": null
  },
  {
    "id": "node-8509337165",
    "name": "Biserica Sfinții Arhangheli Mihail și Gavril",
    "type": "church",
    "subcategory": "christian",
    "lat": 45.6462495,
    "lng": 25.62406,
    "osmType": "node",
    "brand": null,
    "operator": null
  },
  {
    "id": "node-8628401612",
    "name": "Superbet",
    "type": "superbet",
    "subcategory": "betting",
    "lat": 45.6383536,
    "lng": 25.6361236,
    "osmType": "node",
    "brand": "Superbet",
    "operator": "Superbet Betting & Gaming SA"
  },
  {
    "id": "node-8628417585",
    "name": "Superbet",
    "type": "superbet",
    "subcategory": "betting",
    "lat": 45.668325,
    "lng": 25.6155243,
    "osmType": "node",
    "brand": "Superbet",
    "operator": "Superbet Betting & Gaming SA"
  },
  {
    "id": "node-8628417718",
    "name": "Superbet",
    "type": "superbet",
    "subcategory": "betting",
    "lat": 45.6657872,
    "lng": 25.6004645,
    "osmType": "node",
    "brand": "Superbet",
    "operator": "Superbet Betting & Gaming SA"
  },
  {
    "id": "node-8628417719",
    "name": "Superbet",
    "type": "superbet",
    "subcategory": "betting",
    "lat": 45.6401645,
    "lng": 25.6271419,
    "osmType": "node",
    "brand": "Superbet",
    "operator": "Superbet Betting & Gaming SA"
  },
  {
    "id": "node-8628417956",
    "name": "Superbet",
    "type": "superbet",
    "subcategory": "betting",
    "lat": 45.650851,
    "lng": 25.625342,
    "osmType": "node",
    "brand": "Superbet",
    "operator": "Superbet Betting & Gaming SA"
  },
  {
    "id": "node-8628417974",
    "name": "Superbet",
    "type": "superbet",
    "subcategory": "betting",
    "lat": 45.6215379,
    "lng": 25.6360522,
    "osmType": "node",
    "brand": "Superbet",
    "operator": "Superbet Betting & Gaming SA"
  },
  {
    "id": "node-8628418051",
    "name": "Superbet",
    "type": "superbet",
    "subcategory": "betting",
    "lat": 45.6633594,
    "lng": 25.5786671,
    "osmType": "node",
    "brand": "Superbet",
    "operator": "Superbet Betting & Gaming SA"
  },
  {
    "id": "node-8628418062",
    "name": "Superbet",
    "type": "superbet",
    "subcategory": "betting",
    "lat": 45.6751448,
    "lng": 25.6460944,
    "osmType": "node",
    "brand": "Superbet",
    "operator": "Superbet Betting & Gaming SA"
  },
  {
    "id": "node-8628418090",
    "name": "Superbet",
    "type": "superbet",
    "subcategory": "betting",
    "lat": 45.6628,
    "lng": 25.629376,
    "osmType": "node",
    "brand": "Superbet",
    "operator": "Superbet Betting & Gaming SA"
  },
  {
    "id": "node-8628418122",
    "name": "Superbet",
    "type": "superbet",
    "subcategory": "betting",
    "lat": 45.6569835,
    "lng": 25.5983966,
    "osmType": "node",
    "brand": "Superbet",
    "operator": "Superbet Betting & Gaming SA"
  },
  {
    "id": "node-8628418126",
    "name": "Superbet",
    "type": "superbet",
    "subcategory": "betting",
    "lat": 45.6658414,
    "lng": 25.599727,
    "osmType": "node",
    "brand": "Superbet",
    "operator": "Superbet Betting & Gaming SA"
  },
  {
    "id": "node-8628418163",
    "name": "Superbet",
    "type": "superbet",
    "subcategory": "betting",
    "lat": 45.658958,
    "lng": 25.6190608,
    "osmType": "node",
    "brand": "Superbet",
    "operator": "Superbet Betting & Gaming SA"
  },
  {
    "id": "node-8628418195",
    "name": "Superbet",
    "type": "superbet",
    "subcategory": "betting",
    "lat": 45.665091,
    "lng": 25.571483,
    "osmType": "node",
    "brand": "Superbet",
    "operator": "Superbet Betting & Gaming SA"
  },
  {
    "id": "node-8628418272",
    "name": "Superbet",
    "type": "superbet",
    "subcategory": "betting",
    "lat": 45.6423006,
    "lng": 25.6158179,
    "osmType": "node",
    "brand": "Superbet",
    "operator": "Superbet Betting & Gaming SA"
  },
  {
    "id": "node-8628418342",
    "name": "Superbet",
    "type": "superbet",
    "subcategory": "betting",
    "lat": 45.6495516,
    "lng": 25.6260395,
    "osmType": "node",
    "brand": "Superbet",
    "operator": "Superbet Betting & Gaming SA"
  },
  {
    "id": "node-8628418369",
    "name": "Superbet",
    "type": "superbet",
    "subcategory": "betting",
    "lat": 45.6515615,
    "lng": 25.6153241,
    "osmType": "node",
    "brand": "Superbet",
    "operator": "Superbet Betting & Gaming SA"
  },
  {
    "id": "node-8628418376",
    "name": "Superbet",
    "type": "superbet",
    "subcategory": "betting",
    "lat": 45.643947,
    "lng": 25.590345,
    "osmType": "node",
    "brand": "Superbet",
    "operator": "Superbet Betting & Gaming SA"
  },
  {
    "id": "node-8628418392",
    "name": "Superbet",
    "type": "superbet",
    "subcategory": "betting",
    "lat": 45.6414847,
    "lng": 25.6273323,
    "osmType": "node",
    "brand": "Superbet",
    "operator": "Superbet Betting & Gaming SA"
  },
  {
    "id": "node-9238678603",
    "name": "Fără nume",
    "type": "medical",
    "subcategory": "doctors",
    "lat": 45.668138,
    "lng": 25.5964869,
    "osmType": "node",
    "brand": null,
    "operator": null
  },
  {
    "id": "node-9465612717",
    "name": "ORTOKINETIC",
    "type": "medical",
    "subcategory": "clinic",
    "lat": 45.6694541,
    "lng": 25.5994999,
    "osmType": "node",
    "brand": null,
    "operator": null
  },
  {
    "id": "node-9587824293",
    "name": "CMI Dr. Neculau Andrea",
    "type": "medical",
    "subcategory": "doctors",
    "lat": 45.6443006,
    "lng": 25.6198339,
    "osmType": "node",
    "brand": null,
    "operator": null
  },
  {
    "id": "node-9730771232",
    "name": "Grădinița Bucuria Copiilor",
    "type": "school",
    "subcategory": "kindergarten",
    "lat": 45.6627524,
    "lng": 25.5055052,
    "osmType": "node",
    "brand": null,
    "operator": null
  },
  {
    "id": "node-9730771245",
    "name": "Casa Prichindel",
    "type": "school",
    "subcategory": "kindergarten",
    "lat": 45.6631814,
    "lng": 25.5074478,
    "osmType": "node",
    "brand": null,
    "operator": null
  },
  {
    "id": "node-9832583337",
    "name": "Grădinița Dragonel",
    "type": "school",
    "subcategory": "kindergarten",
    "lat": 45.700287,
    "lng": 25.6106188,
    "osmType": "node",
    "brand": null,
    "operator": null
  },
  {
    "id": "node-9981475889",
    "name": "Gradinita cu program prelungit Nr. 2",
    "type": "school",
    "subcategory": "childcare",
    "lat": 45.7048883,
    "lng": 25.6841623,
    "osmType": "node",
    "brand": null,
    "operator": null
  },
  {
    "id": "node-9981502986",
    "name": "Grădinița cu Program Normal Nr. 1",
    "type": "school",
    "subcategory": "childcare",
    "lat": 45.7163072,
    "lng": 25.686119,
    "osmType": "node",
    "brand": null,
    "operator": null
  },
  {
    "id": "node-9999553694",
    "name": "Cabinet Medical",
    "type": "medical",
    "subcategory": "doctors",
    "lat": 45.7127974,
    "lng": 25.6803394,
    "osmType": "node",
    "brand": null,
    "operator": null
  },
  {
    "id": "node-10036168019",
    "name": "CMI Dr. Daniela Jecu",
    "type": "medical",
    "subcategory": "doctors",
    "lat": 45.6442833,
    "lng": 25.6198482,
    "osmType": "node",
    "brand": null,
    "operator": null
  },
  {
    "id": "node-10036172930",
    "name": "Dr. Anca Lăcătuș",
    "type": "medical",
    "subcategory": "doctors",
    "lat": 45.64426,
    "lng": 25.6198623,
    "osmType": "node",
    "brand": null,
    "operator": null
  },
  {
    "id": "node-10039434894",
    "name": "Biserica Timișul de Sus",
    "type": "church",
    "subcategory": "christian",
    "lat": 45.5338899,
    "lng": 25.5814842,
    "osmType": "node",
    "brand": null,
    "operator": null
  },
  {
    "id": "node-10075254590",
    "name": "Medical Work Center",
    "type": "medical",
    "subcategory": "clinic",
    "lat": 45.653786,
    "lng": 25.623714,
    "osmType": "node",
    "brand": null,
    "operator": null
  },
  {
    "id": "node-10127703077",
    "name": "RMN Diagnostica",
    "type": "medical",
    "subcategory": "clinic",
    "lat": 45.642836,
    "lng": 25.6279921,
    "osmType": "node",
    "brand": null,
    "operator": null
  },
  {
    "id": "node-10631235008",
    "name": "Gral Medical",
    "type": "medical",
    "subcategory": "clinic",
    "lat": 45.6567159,
    "lng": 25.5987648,
    "osmType": "node",
    "brand": null,
    "operator": null
  },
  {
    "id": "node-10657023125",
    "name": "Kamiva Med",
    "type": "medical",
    "subcategory": "clinic",
    "lat": 45.641291,
    "lng": 25.6127287,
    "osmType": "node",
    "brand": null,
    "operator": null
  },
  {
    "id": "node-10732672923",
    "name": "CMI Dr. Cristian Liana - Centru permanentă Coresi",
    "type": "medical",
    "subcategory": "doctors",
    "lat": 45.6695234,
    "lng": 25.6186892,
    "osmType": "node",
    "brand": null,
    "operator": null
  },
  {
    "id": "node-10805629257",
    "name": "Cabinet Medical  Comsulea Mihaela",
    "type": "medical",
    "subcategory": "doctors",
    "lat": 45.6408893,
    "lng": 25.6375844,
    "osmType": "node",
    "brand": null,
    "operator": null
  },
  {
    "id": "node-10814239854",
    "name": "Synevo",
    "type": "medical",
    "subcategory": "clinic",
    "lat": 45.6426303,
    "lng": 25.6282436,
    "osmType": "node",
    "brand": "Synevo",
    "operator": null
  },
  {
    "id": "node-10889534324",
    "name": "Superbet",
    "type": "superbet",
    "subcategory": "betting",
    "lat": 45.6589397,
    "lng": 25.6191836,
    "osmType": "node",
    "brand": null,
    "operator": null
  },
  {
    "id": "node-11076403247",
    "name": "Vivamed",
    "type": "medical",
    "subcategory": "clinic",
    "lat": 45.6463921,
    "lng": 25.6260982,
    "osmType": "node",
    "brand": null,
    "operator": null
  },
  {
    "id": "node-11119183769",
    "name": "Centrul de Permanență MEDFAM Astra",
    "type": "medical",
    "subcategory": "hospital",
    "lat": 45.6451144,
    "lng": 25.6279128,
    "osmType": "node",
    "brand": null,
    "operator": null
  },
  {
    "id": "node-11205312091",
    "name": "Afrodite",
    "type": "medical",
    "subcategory": "doctors",
    "lat": 45.6752351,
    "lng": 25.6024051,
    "osmType": "node",
    "brand": null,
    "operator": null
  },
  {
    "id": "node-11251075554",
    "name": "Grădinița Waldorf Sophia Cartierul Tractorul",
    "type": "school",
    "subcategory": "kindergarten",
    "lat": 45.6769256,
    "lng": 25.6003769,
    "osmType": "node",
    "brand": null,
    "operator": null
  },
  {
    "id": "node-11254642050",
    "name": "Affidea",
    "type": "medical",
    "subcategory": "clinic",
    "lat": 45.6480984,
    "lng": 25.6079773,
    "osmType": "node",
    "brand": null,
    "operator": null
  },
  {
    "id": "node-11259358213",
    "name": "TIP TOP MInI CLuB",
    "type": "school",
    "subcategory": "kindergarten",
    "lat": 45.6746033,
    "lng": 25.6029244,
    "osmType": "node",
    "brand": null,
    "operator": null
  },
  {
    "id": "node-11335252899",
    "name": "Biserica Penticostală Filadelfia",
    "type": "church",
    "subcategory": "christian",
    "lat": 45.6702489,
    "lng": 25.5956173,
    "osmType": "node",
    "brand": null,
    "operator": null
  },
  {
    "id": "node-11505349715",
    "name": "Regina Maria",
    "type": "medical",
    "subcategory": "clinic",
    "lat": 45.6516778,
    "lng": 25.6082389,
    "osmType": "node",
    "brand": null,
    "operator": null
  },
  {
    "id": "node-11586576851",
    "name": "Affidea",
    "type": "medical",
    "subcategory": "clinic",
    "lat": 45.6378991,
    "lng": 25.584645,
    "osmType": "node",
    "brand": null,
    "operator": null
  },
  {
    "id": "node-11629669202",
    "name": "Moldovan Eva",
    "type": "medical",
    "subcategory": "doctors",
    "lat": 45.6354347,
    "lng": 25.6105731,
    "osmType": "node",
    "brand": null,
    "operator": null
  },
  {
    "id": "node-11644925496",
    "name": "Neomed",
    "type": "medical",
    "subcategory": "clinic",
    "lat": 45.6418896,
    "lng": 25.6160349,
    "osmType": "node",
    "brand": null,
    "operator": null
  },
  {
    "id": "node-11653857585",
    "name": "Fără nume",
    "type": "medical",
    "subcategory": "doctors",
    "lat": 45.6423608,
    "lng": 25.6159963,
    "osmType": "node",
    "brand": null,
    "operator": null
  },
  {
    "id": "node-11799648402",
    "name": "Cartier Hub",
    "type": "school",
    "subcategory": "childcare",
    "lat": 45.6695284,
    "lng": 25.6167686,
    "osmType": "node",
    "brand": null,
    "operator": null
  },
  {
    "id": "node-11822673129",
    "name": "Fără nume",
    "type": "medical",
    "subcategory": "doctors",
    "lat": 45.6525128,
    "lng": 25.62614,
    "osmType": "node",
    "brand": null,
    "operator": null
  },
  {
    "id": "node-11868716779",
    "name": "Clinical de Podologie Julia",
    "type": "medical",
    "subcategory": "clinic",
    "lat": 45.6615688,
    "lng": 25.5790646,
    "osmType": "node",
    "brand": null,
    "operator": "Iulia Catana"
  },
  {
    "id": "node-11900394578",
    "name": "Școala Gimnazială nr. 1 Municipiul Săcele",
    "type": "school",
    "subcategory": "school",
    "lat": 45.6125441,
    "lng": 25.6686683,
    "osmType": "node",
    "brand": null,
    "operator": null
  },
  {
    "id": "node-11913724501",
    "name": "Centrul Medical Gemenii",
    "type": "medical",
    "subcategory": "doctors",
    "lat": 45.6494684,
    "lng": 25.6264154,
    "osmType": "node",
    "brand": null,
    "operator": null
  },
  {
    "id": "node-11917510459",
    "name": "Cabinet psihologic",
    "type": "medical",
    "subcategory": "doctors",
    "lat": 45.64144,
    "lng": 25.6220621,
    "osmType": "node",
    "brand": null,
    "operator": null
  },
  {
    "id": "node-11917520712",
    "name": "Poliana",
    "type": "medical",
    "subcategory": "clinic",
    "lat": 45.6393682,
    "lng": 25.6228178,
    "osmType": "node",
    "brand": null,
    "operator": null
  },
  {
    "id": "node-11917726114",
    "name": "Biserica Baptistă Metanoia Brașov",
    "type": "church",
    "subcategory": "christian",
    "lat": 45.638669,
    "lng": 25.620207,
    "osmType": "node",
    "brand": null,
    "operator": null
  },
  {
    "id": "node-11917782826",
    "name": "Bioclinica",
    "type": "medical",
    "subcategory": "clinic",
    "lat": 45.642232,
    "lng": 25.6283801,
    "osmType": "node",
    "brand": null,
    "operator": null
  },
  {
    "id": "node-11917782835",
    "name": "Clinica Sante",
    "type": "medical",
    "subcategory": "clinic",
    "lat": 45.6419618,
    "lng": 25.6269072,
    "osmType": "node",
    "brand": "Clinica Sante",
    "operator": null
  },
  {
    "id": "node-11918410236",
    "name": "Cabinet ORL",
    "type": "medical",
    "subcategory": "clinic",
    "lat": 45.651216,
    "lng": 25.6058794,
    "osmType": "node",
    "brand": null,
    "operator": null
  },
  {
    "id": "node-11924630669",
    "name": "Clinica Sante",
    "type": "medical",
    "subcategory": "clinic",
    "lat": 45.6634892,
    "lng": 25.5790824,
    "osmType": "node",
    "brand": "Clinica Sante",
    "operator": null
  },
  {
    "id": "node-11926947082",
    "name": "Beauty's Amy",
    "type": "medical",
    "subcategory": "doctors",
    "lat": 45.6505724,
    "lng": 25.6043874,
    "osmType": "node",
    "brand": null,
    "operator": null
  },
  {
    "id": "node-11926947088",
    "name": "Psihioterapeut Dolghier Doina",
    "type": "medical",
    "subcategory": "doctors",
    "lat": 45.6507112,
    "lng": 25.6043223,
    "osmType": "node",
    "brand": null,
    "operator": null
  },
  {
    "id": "node-11926947100",
    "name": "Tara Centru de terapii ayurvedice de recuperare avansata",
    "type": "medical",
    "subcategory": "doctors",
    "lat": 45.6506336,
    "lng": 25.6042214,
    "osmType": "node",
    "brand": null,
    "operator": null
  },
  {
    "id": "node-11952133822",
    "name": "Cabinet Dr Nițu Ovidiu",
    "type": "medical",
    "subcategory": "doctors",
    "lat": 45.646352,
    "lng": 25.6014602,
    "osmType": "node",
    "brand": null,
    "operator": null
  },
  {
    "id": "node-11952133823",
    "name": "Cabinet Psihiatrie Stefan Dinca",
    "type": "medical",
    "subcategory": "doctors",
    "lat": 45.6463329,
    "lng": 25.601427,
    "osmType": "node",
    "brand": null,
    "operator": null
  },
  {
    "id": "node-11952133824",
    "name": "Cabinet Medic familie Manole Alexandra",
    "type": "medical",
    "subcategory": "doctors",
    "lat": 45.6463642,
    "lng": 25.6014392,
    "osmType": "node",
    "brand": null,
    "operator": null
  },
  {
    "id": "node-11952211607",
    "name": "Gradinita cu program normal Nr 12A",
    "type": "school",
    "subcategory": "kindergarten",
    "lat": 45.6463368,
    "lng": 25.6021212,
    "osmType": "node",
    "brand": null,
    "operator": null
  },
  {
    "id": "node-11999527870",
    "name": "Fără nume",
    "type": "church",
    "subcategory": "christian",
    "lat": 45.6427104,
    "lng": 25.5894102,
    "osmType": "node",
    "brand": null,
    "operator": null
  },
  {
    "id": "node-12011732863",
    "name": "Ocusan",
    "type": "medical",
    "subcategory": "doctor",
    "lat": 45.6519931,
    "lng": 25.5872585,
    "osmType": "node",
    "brand": null,
    "operator": null
  },
  {
    "id": "node-12051383415",
    "name": "Premium Derma",
    "type": "medical",
    "subcategory": "doctors",
    "lat": 45.6381278,
    "lng": 25.6186282,
    "osmType": "node",
    "brand": null,
    "operator": null
  },
  {
    "id": "node-12064862171",
    "name": "Scoala Generala Nr 9 Nicolae Orghidan",
    "type": "school",
    "subcategory": "school",
    "lat": 45.6160299,
    "lng": 25.6393191,
    "osmType": "node",
    "brand": null,
    "operator": null
  },
  {
    "id": "node-12064862172",
    "name": "Cabinet Medical MF Dr. Matache Florin",
    "type": "medical",
    "subcategory": "doctors",
    "lat": 45.6165027,
    "lng": 25.639405,
    "osmType": "node",
    "brand": null,
    "operator": null
  },
  {
    "id": "node-12064862195",
    "name": "Gradinita 18",
    "type": "school",
    "subcategory": "kindergarten",
    "lat": 45.6214788,
    "lng": 25.6350772,
    "osmType": "node",
    "brand": null,
    "operator": null
  },
  {
    "id": "node-12064862196",
    "name": "Cresa Nr 3",
    "type": "school",
    "subcategory": "kindergarten",
    "lat": 45.6214928,
    "lng": 25.6351684,
    "osmType": "node",
    "brand": null,
    "operator": null
  },
  {
    "id": "node-12066292478",
    "name": "Superbet",
    "type": "superbet",
    "subcategory": "betting",
    "lat": 45.6347245,
    "lng": 25.6330776,
    "osmType": "node",
    "brand": null,
    "operator": null
  },
  {
    "id": "node-12066292484",
    "name": "Superbet",
    "type": "superbet",
    "subcategory": "betting",
    "lat": 45.6342969,
    "lng": 25.6333787,
    "osmType": "node",
    "brand": null,
    "operator": null
  },
  {
    "id": "node-12087060737",
    "name": "Dermakron Laser Clinic",
    "type": "medical",
    "subcategory": "doctors",
    "lat": 45.6518969,
    "lng": 25.6047181,
    "osmType": "node",
    "brand": null,
    "operator": null
  },
  {
    "id": "node-12258117671",
    "name": "Grandclinic Alegro",
    "type": "medical",
    "subcategory": "doctors",
    "lat": 45.6487935,
    "lng": 25.6194337,
    "osmType": "node",
    "brand": null,
    "operator": null
  },
  {
    "id": "node-12516965134",
    "name": "Fără nume",
    "type": "church",
    "subcategory": "christian",
    "lat": 45.7078927,
    "lng": 25.6783152,
    "osmType": "node",
    "brand": null,
    "operator": null
  },
  {
    "id": "node-13026657592",
    "name": "Serviciul Județean de Medicină Legală",
    "type": "medical",
    "subcategory": "clinic",
    "lat": 45.6520547,
    "lng": 25.5989005,
    "osmType": "node",
    "brand": null,
    "operator": null
  },
  {
    "id": "node-13240904883",
    "name": "Biserica Română unită cu Roma Greco-catolică II",
    "type": "church",
    "subcategory": "christian",
    "lat": 45.6546461,
    "lng": 25.6279072,
    "osmType": "node",
    "brand": null,
    "operator": null
  },
  {
    "id": "node-13277367660",
    "name": "Regina Maria",
    "type": "medical",
    "subcategory": "clinic",
    "lat": 45.6472054,
    "lng": 25.6227588,
    "osmType": "node",
    "brand": null,
    "operator": "Regina Maria"
  },
  {
    "id": "node-13607750913",
    "name": "PoliAna",
    "type": "medical",
    "subcategory": "clinic",
    "lat": 45.6507632,
    "lng": 25.6195588,
    "osmType": "node",
    "brand": null,
    "operator": null
  },
  {
    "id": "node-13607750923",
    "name": "Fără nume",
    "type": "medical",
    "subcategory": "doctors",
    "lat": 45.6518809,
    "lng": 25.6161928,
    "osmType": "node",
    "brand": null,
    "operator": null
  },
  {
    "id": "node-13680620665",
    "name": "Fără nume",
    "type": "medical",
    "subcategory": "clinic",
    "lat": 45.6496001,
    "lng": 25.6012746,
    "osmType": "node",
    "brand": null,
    "operator": null
  },
  {
    "id": "node-13742846062",
    "name": "CentroKinetic",
    "type": "medical",
    "subcategory": "clinic",
    "lat": 45.6381014,
    "lng": 25.6193174,
    "osmType": "node",
    "brand": null,
    "operator": null
  },
  {
    "id": "node-13752934871",
    "name": "Copii Si Povești",
    "type": "school",
    "subcategory": "childcare",
    "lat": 45.6561341,
    "lng": 25.6265449,
    "osmType": "node",
    "brand": null,
    "operator": null
  },
  {
    "id": "node-13752934873",
    "name": "Fără nume",
    "type": "church",
    "subcategory": "christian",
    "lat": 45.6572634,
    "lng": 25.6262281,
    "osmType": "node",
    "brand": null,
    "operator": null
  },
  {
    "id": "node-13752934875",
    "name": "Dr Anca Elena Olaru",
    "type": "medical",
    "subcategory": "doctors",
    "lat": 45.6582888,
    "lng": 25.6254002,
    "osmType": "node",
    "brand": null,
    "operator": null
  },
  {
    "id": "way-24381515",
    "name": "Capela fostului cimitir catolic",
    "type": "church",
    "subcategory": "christian",
    "lat": 45.6458296,
    "lng": 25.597726,
    "osmType": "way",
    "brand": null,
    "operator": null
  },
  {
    "id": "way-31554916",
    "name": "Școala 25",
    "type": "school",
    "subcategory": "school",
    "lat": 45.6343436,
    "lng": 25.6054173,
    "osmType": "way",
    "brand": null,
    "operator": null
  },
  {
    "id": "way-32685088",
    "name": "Școala Generală Nr. 11 \"Ștefan Octavian Iosif\"",
    "type": "school",
    "subcategory": "school",
    "lat": 45.6551111,
    "lng": 25.6304232,
    "osmType": "way",
    "brand": null,
    "operator": null
  },
  {
    "id": "way-39022538",
    "name": "Biserica Preasfântă Inimă a lui Iisus",
    "type": "church",
    "subcategory": "christian",
    "lat": 45.6513008,
    "lng": 25.6172458,
    "osmType": "way",
    "brand": null,
    "operator": null
  },
  {
    "id": "way-44500459",
    "name": "Biserica Sf. Ap. Petru și Pavel",
    "type": "church",
    "subcategory": "christian",
    "lat": 45.6595558,
    "lng": 25.5083188,
    "osmType": "way",
    "brand": null,
    "operator": null
  },
  {
    "id": "way-70957923",
    "name": "Școala Gimnazială Nr.15",
    "type": "school",
    "subcategory": "school",
    "lat": 45.658412,
    "lng": 25.5954069,
    "osmType": "way",
    "brand": null,
    "operator": null
  },
  {
    "id": "way-167226023",
    "name": "Facultatea de Psihologie și Științele Educației",
    "type": "school",
    "subcategory": "university",
    "lat": 45.6426208,
    "lng": 25.5957019,
    "osmType": "way",
    "brand": null,
    "operator": "Universitatea Transilvania din Brasov"
  },
  {
    "id": "way-175881119",
    "name": "Palatul Copiilor și Elevilor",
    "type": "school",
    "subcategory": "school",
    "lat": 45.6428911,
    "lng": 25.6356198,
    "osmType": "way",
    "brand": null,
    "operator": null
  },
  {
    "id": "way-179362011",
    "name": "Biserica fortificată din Ghimbav",
    "type": "church",
    "subcategory": "christian",
    "lat": 45.6634897,
    "lng": 25.5058791,
    "osmType": "way",
    "brand": null,
    "operator": null
  },
  {
    "id": "way-180758150",
    "name": "Biserica Sfinții Împărați Constantin și Elena",
    "type": "church",
    "subcategory": "christian",
    "lat": 45.5061043,
    "lng": 25.5737959,
    "osmType": "way",
    "brand": null,
    "operator": null
  },
  {
    "id": "way-194713208",
    "name": "Biserica lui Isus Hristos a Sfinților din Zilele din Urma",
    "type": "church",
    "subcategory": "christian",
    "lat": 45.6346027,
    "lng": 25.6370954,
    "osmType": "way",
    "brand": null,
    "operator": null
  },
  {
    "id": "way-199807437",
    "name": "Biserica ortodoxă Sf. Gheorghe",
    "type": "church",
    "subcategory": "christian",
    "lat": 45.7083189,
    "lng": 25.634257,
    "osmType": "way",
    "brand": null,
    "operator": null
  },
  {
    "id": "way-217686525",
    "name": "Școala Gimnazială nr. 11 - Corpul C",
    "type": "school",
    "subcategory": "school",
    "lat": 45.6626623,
    "lng": 25.6320891,
    "osmType": "way",
    "brand": null,
    "operator": null
  },
  {
    "id": "way-217784854",
    "name": "Biserica Sf. Ioachim și Ana",
    "type": "church",
    "subcategory": "christian",
    "lat": 45.593637,
    "lng": 25.637462,
    "osmType": "way",
    "brand": null,
    "operator": null
  },
  {
    "id": "way-220456544",
    "name": "Biserica catolică „Înălțarea Sf. Cruci”",
    "type": "church",
    "subcategory": "christian",
    "lat": 45.6401892,
    "lng": 25.630203,
    "osmType": "way",
    "brand": null,
    "operator": null
  },
  {
    "id": "way-220457903",
    "name": "Grădinița 25 - Lumea Copiilor",
    "type": "school",
    "subcategory": "kindergarten",
    "lat": 45.6393444,
    "lng": 25.6388178,
    "osmType": "way",
    "brand": null,
    "operator": null
  },
  {
    "id": "way-220462729",
    "name": "Biserica Baptistă Speranța",
    "type": "church",
    "subcategory": "christian",
    "lat": 45.635088,
    "lng": 25.6363031,
    "osmType": "way",
    "brand": null,
    "operator": null
  },
  {
    "id": "way-221894527",
    "name": "Biserica Creștină Evanghelică Brașov",
    "type": "church",
    "subcategory": "christian",
    "lat": 45.6570708,
    "lng": 25.6321998,
    "osmType": "way",
    "brand": null,
    "operator": null
  },
  {
    "id": "way-222189428",
    "name": "Facultatea de Construcții",
    "type": "school",
    "subcategory": "university",
    "lat": 45.6627831,
    "lng": 25.6195477,
    "osmType": "way",
    "brand": null,
    "operator": null
  },
  {
    "id": "way-222189430",
    "name": "Spitalul Tractorul",
    "type": "medical",
    "subcategory": "hospital",
    "lat": 45.6654548,
    "lng": 25.6079899,
    "osmType": "way",
    "brand": null,
    "operator": null
  },
  {
    "id": "way-222189438",
    "name": "Policlinica Medlife",
    "type": "medical",
    "subcategory": "clinic",
    "lat": 45.6653011,
    "lng": 25.610259,
    "osmType": "way",
    "brand": null,
    "operator": null
  },
  {
    "id": "way-222665824",
    "name": "Corp P, Universitatea Transilvania",
    "type": "school",
    "subcategory": "university",
    "lat": 45.6493028,
    "lng": 25.6015057,
    "osmType": "way",
    "brand": null,
    "operator": null
  },
  {
    "id": "way-222701537",
    "name": "Colegiul Tehnic Transilvania",
    "type": "school",
    "subcategory": "college",
    "lat": 45.6494297,
    "lng": 25.6022792,
    "osmType": "way",
    "brand": null,
    "operator": null
  },
  {
    "id": "way-222918981",
    "name": "Biserica Ortodoxă „Schimbarea la Față”",
    "type": "church",
    "subcategory": "christian",
    "lat": 45.6407678,
    "lng": 25.6370205,
    "osmType": "way",
    "brand": null,
    "operator": null
  },
  {
    "id": "way-224623411",
    "name": "Școala Gimnazială nr. 27 \"Anatol Ghermanschi\"",
    "type": "school",
    "subcategory": "school",
    "lat": 45.6552679,
    "lng": 25.6245828,
    "osmType": "way",
    "brand": null,
    "operator": null
  },
  {
    "id": "way-224839635",
    "name": "Universitatea Transilvania Rectorat",
    "type": "school",
    "subcategory": "university",
    "lat": 45.6452482,
    "lng": 25.5891492,
    "osmType": "way",
    "brand": null,
    "operator": null
  },
  {
    "id": "way-235728194",
    "name": "Spitalul Clinic de Pneumoftiziologie Brașov - Pavilionul I",
    "type": "medical",
    "subcategory": "hospital",
    "lat": 45.6430099,
    "lng": 25.5738039,
    "osmType": "way",
    "brand": null,
    "operator": null
  },
  {
    "id": "way-235735083",
    "name": "Spitalul clinic de ginecologie Dr. Ioan Aurel Sbârcea - Brașov",
    "type": "medical",
    "subcategory": "hospital",
    "lat": 45.6408175,
    "lng": 25.5848056,
    "osmType": "way",
    "brand": null,
    "operator": null
  },
  {
    "id": "way-243032367",
    "name": "Spitalul de Boli Infecțioase",
    "type": "medical",
    "subcategory": "hospital",
    "lat": 45.6566636,
    "lng": 25.5975395,
    "osmType": "way",
    "brand": null,
    "operator": null
  },
  {
    "id": "way-243033485",
    "name": "Spitalul MedLife Brașov",
    "type": "medical",
    "subcategory": "hospital",
    "lat": 45.6650403,
    "lng": 25.6126414,
    "osmType": "way",
    "brand": null,
    "operator": null
  },
  {
    "id": "way-243038292",
    "name": "Liceul Sportiv",
    "type": "school",
    "subcategory": "college",
    "lat": 45.6383502,
    "lng": 25.5871585,
    "osmType": "way",
    "brand": null,
    "operator": null
  },
  {
    "id": "way-247777631",
    "name": "HyperClinica MedLife Vulturului",
    "type": "medical",
    "subcategory": "clinic",
    "lat": 45.6410921,
    "lng": 25.6233758,
    "osmType": "way",
    "brand": null,
    "operator": null
  },
  {
    "id": "way-255191211",
    "name": "Universitatea Spiru Haret",
    "type": "school",
    "subcategory": "university",
    "lat": 45.6646516,
    "lng": 25.6149118,
    "osmType": "way",
    "brand": null,
    "operator": null
  },
  {
    "id": "way-256435594",
    "name": "Grădinița cu program normal nr. 32",
    "type": "school",
    "subcategory": "kindergarten",
    "lat": 45.6649506,
    "lng": 25.6083832,
    "osmType": "way",
    "brand": null,
    "operator": null
  },
  {
    "id": "way-260121098",
    "name": "Biserica Greco-Catolică \"Sfântul Petru\"",
    "type": "church",
    "subcategory": "christian",
    "lat": 45.6498142,
    "lng": 25.6211547,
    "osmType": "way",
    "brand": null,
    "operator": null
  },
  {
    "id": "way-262069411",
    "name": "Colegiul de Științe \"Grigore Antipa\"",
    "type": "school",
    "subcategory": "school",
    "lat": 45.6477234,
    "lng": 25.6218671,
    "osmType": "way",
    "brand": null,
    "operator": null
  },
  {
    "id": "way-264558523",
    "name": "Centrul de Permanență Medfam Astra Grup Brașov",
    "type": "medical",
    "subcategory": "hospital",
    "lat": 45.6450576,
    "lng": 25.6280195,
    "osmType": "way",
    "brand": null,
    "operator": null
  },
  {
    "id": "way-270789225",
    "name": "Sinagoga Beth Israel",
    "type": "church",
    "subcategory": "jewish",
    "lat": 45.6393128,
    "lng": 25.5878457,
    "osmType": "way",
    "brand": null,
    "operator": null
  },
  {
    "id": "way-271149984",
    "name": "Biserica Sfântul Apostol Toma",
    "type": "church",
    "subcategory": "christian",
    "lat": 45.6400394,
    "lng": 25.6087191,
    "osmType": "way",
    "brand": null,
    "operator": null
  },
  {
    "id": "way-271149989",
    "name": "Grădinița 1",
    "type": "school",
    "subcategory": "kindergarten",
    "lat": 45.6397141,
    "lng": 25.6085675,
    "osmType": "way",
    "brand": null,
    "operator": null
  },
  {
    "id": "way-271171426",
    "name": "Affidea",
    "type": "medical",
    "subcategory": "clinic",
    "lat": 45.6477596,
    "lng": 25.620107,
    "osmType": "way",
    "brand": null,
    "operator": null
  },
  {
    "id": "way-271183479",
    "name": "Spitalul Sfântul Constantin",
    "type": "medical",
    "subcategory": "hospital",
    "lat": 45.6509555,
    "lng": 25.60649,
    "osmType": "way",
    "brand": null,
    "operator": "Regina Maria"
  },
  {
    "id": "way-271183485",
    "name": "Aula Universității “Transilvania”",
    "type": "school",
    "subcategory": "university",
    "lat": 45.6510203,
    "lng": 25.6028669,
    "osmType": "way",
    "brand": null,
    "operator": null
  },
  {
    "id": "way-271375971",
    "name": "Biserica de lemn Nașterea Maicii Domnului",
    "type": "church",
    "subcategory": "christian",
    "lat": 45.6344662,
    "lng": 25.6232268,
    "osmType": "way",
    "brand": null,
    "operator": null
  },
  {
    "id": "way-271380699",
    "name": "Biserica Ortodoxă din cartierul Zizinului",
    "type": "church",
    "subcategory": "christian",
    "lat": 45.648348,
    "lng": 25.6463099,
    "osmType": "way",
    "brand": null,
    "operator": null
  },
  {
    "id": "way-271476824",
    "name": "Biserica Romano-Catolică Sfinții Petru și Pavel",
    "type": "church",
    "subcategory": "christian",
    "lat": 45.6445695,
    "lng": 25.5890383,
    "osmType": "way",
    "brand": null,
    "operator": null
  },
  {
    "id": "way-272568333",
    "name": "Școala Generală Nr. 9 \"Nicolae Orghidan\" Brașov Corpurile A-B",
    "type": "school",
    "subcategory": "school",
    "lat": 45.6150315,
    "lng": 25.6312294,
    "osmType": "way",
    "brand": null,
    "operator": null
  },
  {
    "id": "way-272568603",
    "name": "Biserica Ortodoxă Stupini (1905)",
    "type": "church",
    "subcategory": "christian",
    "lat": 45.6984672,
    "lng": 25.5578117,
    "osmType": "way",
    "brand": null,
    "operator": null
  },
  {
    "id": "way-272569191",
    "name": "Biserica Sfânta Treime",
    "type": "church",
    "subcategory": "christian",
    "lat": 45.6167781,
    "lng": 25.653289,
    "osmType": "way",
    "brand": null,
    "operator": null
  },
  {
    "id": "way-272570948",
    "name": "Biserica ortodoxă Sfântul Ioan Botezătorul",
    "type": "church",
    "subcategory": "christian",
    "lat": 45.6183576,
    "lng": 25.6317941,
    "osmType": "way",
    "brand": null,
    "operator": null
  },
  {
    "id": "way-272602976",
    "name": "Biserica Sfântul Ioan Botezătorul",
    "type": "church",
    "subcategory": "christian",
    "lat": 45.6607694,
    "lng": 25.633483,
    "osmType": "way",
    "brand": null,
    "operator": null
  },
  {
    "id": "way-272733389",
    "name": "Medlife",
    "type": "medical",
    "subcategory": "doctors",
    "lat": 45.6568559,
    "lng": 25.6074086,
    "osmType": "way",
    "brand": null,
    "operator": null
  },
  {
    "id": "way-272733394",
    "name": "Fără nume",
    "type": "school",
    "subcategory": "childcare",
    "lat": 45.6584581,
    "lng": 25.6110722,
    "osmType": "way",
    "brand": null,
    "operator": null
  },
  {
    "id": "way-272733409",
    "name": "Biserica evanghelică",
    "type": "church",
    "subcategory": "christian",
    "lat": 45.6381164,
    "lng": 25.5856459,
    "osmType": "way",
    "brand": null,
    "operator": null
  },
  {
    "id": "way-272733929",
    "name": "Synevo",
    "type": "medical",
    "subcategory": "clinic",
    "lat": 45.6600465,
    "lng": 25.595888,
    "osmType": "way",
    "brand": "Synevo",
    "operator": null
  },
  {
    "id": "way-272734938",
    "name": "Gradinita 28 PP",
    "type": "school",
    "subcategory": "kindergarten",
    "lat": 45.6581835,
    "lng": 25.6249555,
    "osmType": "way",
    "brand": null,
    "operator": null
  },
  {
    "id": "way-272857805",
    "name": "Pavilionul III",
    "type": "medical",
    "subcategory": "hospital",
    "lat": 45.6444713,
    "lng": 25.5738498,
    "osmType": "way",
    "brand": null,
    "operator": "Spitalul Clinic de Pneumoftiziologie Brașov"
  },
  {
    "id": "way-272858695",
    "name": "Biserica Sfinții Apostoli Petru și Pavel",
    "type": "church",
    "subcategory": "christian",
    "lat": 45.6618704,
    "lng": 25.5884378,
    "osmType": "way",
    "brand": null,
    "operator": null
  },
  {
    "id": "way-272859039",
    "name": "Grădinița 8",
    "type": "school",
    "subcategory": "kindergarten",
    "lat": 45.6496287,
    "lng": 25.5983858,
    "osmType": "way",
    "brand": null,
    "operator": null
  },
  {
    "id": "way-272860661",
    "name": "Sala Regatului a Martorilor lui Iehova",
    "type": "church",
    "subcategory": "christian",
    "lat": 45.6479575,
    "lng": 25.5975381,
    "osmType": "way",
    "brand": null,
    "operator": null
  },
  {
    "id": "way-272860747",
    "name": "Hipocrat",
    "type": "medical",
    "subcategory": "doctors",
    "lat": 45.6526486,
    "lng": 25.599739,
    "osmType": "way",
    "brand": null,
    "operator": null
  },
  {
    "id": "way-272861163",
    "name": "Greater Grace International School",
    "type": "school",
    "subcategory": "school",
    "lat": 45.657309,
    "lng": 25.5931564,
    "osmType": "way",
    "brand": null,
    "operator": null
  },
  {
    "id": "way-272862539",
    "name": "Biserica reformată Belvárosi",
    "type": "church",
    "subcategory": "christian",
    "lat": 45.6391292,
    "lng": 25.5835091,
    "osmType": "way",
    "brand": null,
    "operator": null
  },
  {
    "id": "way-272862589",
    "name": "Școala Gimnazială Allgemeinschule Nr. 12",
    "type": "school",
    "subcategory": "school",
    "lat": 45.6540162,
    "lng": 25.5865977,
    "osmType": "way",
    "brand": null,
    "operator": null
  },
  {
    "id": "way-272863896",
    "name": "Biserica Baptistă Maghiară",
    "type": "church",
    "subcategory": "christian",
    "lat": 45.6527212,
    "lng": 25.615135,
    "osmType": "way",
    "brand": null,
    "operator": null
  },
  {
    "id": "way-272864080",
    "name": "Újvárosi református templom",
    "type": "church",
    "subcategory": "christian",
    "lat": 45.6463907,
    "lng": 25.6220121,
    "osmType": "way",
    "brand": null,
    "operator": null
  },
  {
    "id": "way-272864289",
    "name": "American Hotel Academy",
    "type": "school",
    "subcategory": "university",
    "lat": 45.6464817,
    "lng": 25.5989521,
    "osmType": "way",
    "brand": null,
    "operator": null
  },
  {
    "id": "way-272864819",
    "name": "Biserica Unitariană",
    "type": "church",
    "subcategory": "christian",
    "lat": 45.6509693,
    "lng": 25.5965081,
    "osmType": "way",
    "brand": null,
    "operator": null
  },
  {
    "id": "way-272865097",
    "name": "Biserica Adventistă de ziua a șaptea Betel",
    "type": "church",
    "subcategory": "christian",
    "lat": 45.651126,
    "lng": 25.5998432,
    "osmType": "way",
    "brand": null,
    "operator": null
  },
  {
    "id": "way-272865256",
    "name": "Biserica Înălțarea Domnului",
    "type": "church",
    "subcategory": "christian",
    "lat": 45.6520841,
    "lng": 25.6123948,
    "osmType": "way",
    "brand": null,
    "operator": null
  },
  {
    "id": "way-272865686",
    "name": "Spitalul Mârzescu Secția de Oncologie",
    "type": "medical",
    "subcategory": "hospital",
    "lat": 45.6523576,
    "lng": 25.5977044,
    "osmType": "way",
    "brand": null,
    "operator": null
  },
  {
    "id": "way-272866306",
    "name": "Casa Speranței",
    "type": "church",
    "subcategory": "christian",
    "lat": 45.656967,
    "lng": 25.6066251,
    "osmType": "way",
    "brand": null,
    "operator": null
  },
  {
    "id": "way-272866325",
    "name": "Biserica Sfinții Constantin și Elena",
    "type": "church",
    "subcategory": "christian",
    "lat": 45.6379376,
    "lng": 25.6167916,
    "osmType": "way",
    "brand": null,
    "operator": null
  },
  {
    "id": "way-272866440",
    "name": "Pavilionul VI",
    "type": "medical",
    "subcategory": "hospital",
    "lat": 45.6443917,
    "lng": 25.5758716,
    "osmType": "way",
    "brand": null,
    "operator": "Spitalul Clinic de Pneumoftiziologie Brașov"
  },
  {
    "id": "way-272866448",
    "name": "Biserica Ortodoxă Șprenghi",
    "type": "church",
    "subcategory": "christian",
    "lat": 45.654855,
    "lng": 25.576592,
    "osmType": "way",
    "brand": null,
    "operator": null
  },
  {
    "id": "way-272866488",
    "name": "Biserica Sfântul Gheorghe",
    "type": "church",
    "subcategory": "christian",
    "lat": 45.6478518,
    "lng": 25.6028638,
    "osmType": "way",
    "brand": null,
    "operator": null
  },
  {
    "id": "way-272866500",
    "name": "Biserica Ortodoxă Sfinții Petru și Pavel",
    "type": "church",
    "subcategory": "christian",
    "lat": 45.6608042,
    "lng": 25.6013222,
    "osmType": "way",
    "brand": null,
    "operator": null
  },
  {
    "id": "way-272866518",
    "name": "UniTBv corpul V",
    "type": "school",
    "subcategory": "university",
    "lat": 45.655435,
    "lng": 25.5992633,
    "osmType": "way",
    "brand": null,
    "operator": null
  },
  {
    "id": "way-272867129",
    "name": "Sala Regatului",
    "type": "church",
    "subcategory": "christian",
    "lat": 45.6683432,
    "lng": 25.6000103,
    "osmType": "way",
    "brand": null,
    "operator": null
  },
  {
    "id": "way-272867334",
    "name": "Spitalul de Pneumoftiziologie",
    "type": "medical",
    "subcategory": "hospital",
    "lat": 45.6522644,
    "lng": 25.5984743,
    "osmType": "way",
    "brand": null,
    "operator": null
  },
  {
    "id": "way-272868840",
    "name": "Sala Regatului",
    "type": "church",
    "subcategory": "christian",
    "lat": 45.64354,
    "lng": 25.626325,
    "osmType": "way",
    "brand": null,
    "operator": null
  },
  {
    "id": "way-272869394",
    "name": "Fără nume",
    "type": "school",
    "subcategory": "school",
    "lat": 45.6593046,
    "lng": 25.5929598,
    "osmType": "way",
    "brand": null,
    "operator": null
  },
  {
    "id": "way-272869478",
    "name": "Pavilionul II",
    "type": "medical",
    "subcategory": "hospital",
    "lat": 45.6436414,
    "lng": 25.5731142,
    "osmType": "way",
    "brand": null,
    "operator": "Spitalul Clinic de Pneumoftiziologie Brașov"
  },
  {
    "id": "way-272870897",
    "name": "Spitalul Mârzescu",
    "type": "medical",
    "subcategory": "hospital",
    "lat": 45.6519937,
    "lng": 25.5966845,
    "osmType": "way",
    "brand": null,
    "operator": null
  },
  {
    "id": "way-272872913",
    "name": "Pavilionul V",
    "type": "medical",
    "subcategory": "hospital",
    "lat": 45.644676,
    "lng": 25.5759996,
    "osmType": "way",
    "brand": null,
    "operator": "Spitalul Clinic de Pneumoftiziologie Brașov"
  },
  {
    "id": "way-272875667",
    "name": "Policlinica Studențească",
    "type": "medical",
    "subcategory": "clinic",
    "lat": 45.6558961,
    "lng": 25.5803374,
    "osmType": "way",
    "brand": null,
    "operator": null
  },
  {
    "id": "way-272878559",
    "name": "Biserica Sfântul Mare Mucenic Dimitrie",
    "type": "church",
    "subcategory": "christian",
    "lat": 45.6675088,
    "lng": 25.6040741,
    "osmType": "way",
    "brand": null,
    "operator": null
  },
  {
    "id": "way-272880865",
    "name": "Opticristal",
    "type": "medical",
    "subcategory": "clinic",
    "lat": 45.6479351,
    "lng": 25.6103556,
    "osmType": "way",
    "brand": null,
    "operator": null
  },
  {
    "id": "way-272882595",
    "name": "Biserica Sf. Nicolae",
    "type": "church",
    "subcategory": "christian",
    "lat": 45.6356511,
    "lng": 25.581606,
    "osmType": "way",
    "brand": null,
    "operator": null
  },
  {
    "id": "way-272882670",
    "name": "Medlife - OncoCard",
    "type": "medical",
    "subcategory": "hospital",
    "lat": 45.6560435,
    "lng": 25.575738,
    "osmType": "way",
    "brand": null,
    "operator": null
  },
  {
    "id": "way-272885900",
    "name": "My Kinetic",
    "type": "medical",
    "subcategory": "clinic",
    "lat": 45.6562091,
    "lng": 25.5871736,
    "osmType": "way",
    "brand": null,
    "operator": null
  },
  {
    "id": "way-272886100",
    "name": "Biserica Bartolomeu",
    "type": "church",
    "subcategory": "christian",
    "lat": 45.6627144,
    "lng": 25.5773961,
    "osmType": "way",
    "brand": null,
    "operator": null
  },
  {
    "id": "way-272887674",
    "name": "Biserica Adventistă de ziua a șaptea",
    "type": "church",
    "subcategory": "christian",
    "lat": 45.6543863,
    "lng": 25.5860462,
    "osmType": "way",
    "brand": null,
    "operator": null
  },
  {
    "id": "way-272913008",
    "name": "Biserica Evanghelică Maghiară",
    "type": "church",
    "subcategory": "christian",
    "lat": 45.6460269,
    "lng": 25.596582,
    "osmType": "way",
    "brand": null,
    "operator": null
  },
  {
    "id": "way-273137771",
    "name": "Colegiul Tehnic Remus Răduleț",
    "type": "school",
    "subcategory": "college",
    "lat": 45.6466846,
    "lng": 25.6421483,
    "osmType": "way",
    "brand": null,
    "operator": null
  },
  {
    "id": "way-287509453",
    "name": "Colegiul Național „Unirea” Brașov",
    "type": "school",
    "subcategory": "college",
    "lat": 45.6438953,
    "lng": 25.5962037,
    "osmType": "way",
    "brand": null,
    "operator": null
  },
  {
    "id": "way-314123034",
    "name": "Universitatea Transilvania Corp N",
    "type": "school",
    "subcategory": "university",
    "lat": 45.644117,
    "lng": 25.5953557,
    "osmType": "way",
    "brand": null,
    "operator": null
  },
  {
    "id": "way-314375354",
    "name": "Catedrala Adormirea Maicii Domnului",
    "type": "church",
    "subcategory": "christian",
    "lat": 45.6430308,
    "lng": 25.5895983,
    "osmType": "way",
    "brand": null,
    "operator": null
  },
  {
    "id": "way-319605859",
    "name": "Mănăstirea Sfânta Teresa",
    "type": "church",
    "subcategory": "christian",
    "lat": 45.5269124,
    "lng": 25.5761116,
    "osmType": "way",
    "brand": null,
    "operator": null
  },
  {
    "id": "way-328743419",
    "name": "Biserica „Sf. Nicolae”",
    "type": "church",
    "subcategory": "christian",
    "lat": 45.7160464,
    "lng": 25.627627,
    "osmType": "way",
    "brand": null,
    "operator": null
  },
  {
    "id": "way-338800130",
    "name": "Academia Forțelor Aeriene \"Henri Coandă\"",
    "type": "school",
    "subcategory": "school",
    "lat": 45.6628264,
    "lng": 25.5898172,
    "osmType": "way",
    "brand": null,
    "operator": null
  },
  {
    "id": "way-381785930",
    "name": "Biserica Romano-Catolică Sfântul Arhanghel Mihail",
    "type": "church",
    "subcategory": "christian",
    "lat": 45.6118377,
    "lng": 25.6751819,
    "osmType": "way",
    "brand": null,
    "operator": null
  },
  {
    "id": "way-448826835",
    "name": "Nașterea Maicii Domnului",
    "type": "church",
    "subcategory": "christian",
    "lat": 45.6346767,
    "lng": 25.623701,
    "osmType": "way",
    "brand": null,
    "operator": null
  },
  {
    "id": "way-468167546",
    "name": "Liceul de Arte HMT Corp B (Școala Gimnazială nr. 4)",
    "type": "school",
    "subcategory": "school",
    "lat": 45.6364675,
    "lng": 25.6121941,
    "osmType": "way",
    "brand": null,
    "operator": null
  },
  {
    "id": "way-468177274",
    "name": "Martinică",
    "type": "school",
    "subcategory": "kindergarten",
    "lat": 45.6325178,
    "lng": 25.6066511,
    "osmType": "way",
    "brand": null,
    "operator": null
  },
  {
    "id": "way-468179886",
    "name": "Liceul de Arte Plastice „Hans Mattis Teutsch\"",
    "type": "school",
    "subcategory": "school",
    "lat": 45.6368195,
    "lng": 25.6080625,
    "osmType": "way",
    "brand": null,
    "operator": null
  },
  {
    "id": "way-512318244",
    "name": "Mănăstirea Poiana Brașov",
    "type": "church",
    "subcategory": "christian",
    "lat": 45.5925118,
    "lng": 25.5528398,
    "osmType": "way",
    "brand": null,
    "operator": null
  },
  {
    "id": "way-605007204",
    "name": "Fără nume",
    "type": "church",
    "subcategory": "christian",
    "lat": 45.5194721,
    "lng": 25.5199709,
    "osmType": "way",
    "brand": null,
    "operator": null
  },
  {
    "id": "way-700782127",
    "name": "Biserica Adormirea Maicii Domnului",
    "type": "church",
    "subcategory": "christian",
    "lat": 45.5029255,
    "lng": 25.5707438,
    "osmType": "way",
    "brand": null,
    "operator": null
  },
  {
    "id": "way-713589565",
    "name": "Spitalul de Psihiatrie Sânpetru",
    "type": "medical",
    "subcategory": "hospital",
    "lat": 45.7286814,
    "lng": 25.6261694,
    "osmType": "way",
    "brand": null,
    "operator": null
  },
  {
    "id": "way-720885175",
    "name": "Biserica Sf. Vasile și Sf. Mare Mucenic Mina",
    "type": "church",
    "subcategory": "christian",
    "lat": 45.6655609,
    "lng": 25.6087567,
    "osmType": "way",
    "brand": null,
    "operator": null
  },
  {
    "id": "way-758020871",
    "name": "Colegiul Naţional de Informatică \"Grigore Moisil\"",
    "type": "school",
    "subcategory": "school",
    "lat": 45.6442755,
    "lng": 25.6252088,
    "osmType": "way",
    "brand": null,
    "operator": null
  },
  {
    "id": "way-866090450",
    "name": "Biserica Neagră",
    "type": "church",
    "subcategory": "christian",
    "lat": 45.6409929,
    "lng": 25.5881867,
    "osmType": "way",
    "brand": null,
    "operator": null
  },
  {
    "id": "way-913265683",
    "name": "Colegiul Național Áprily Lajos",
    "type": "school",
    "subcategory": "college",
    "lat": 45.6446047,
    "lng": 25.5883732,
    "osmType": "way",
    "brand": null,
    "operator": null
  },
  {
    "id": "way-994060907",
    "name": "Colegiul Tehnic de Transporturi",
    "type": "school",
    "subcategory": "school",
    "lat": 45.6729614,
    "lng": 25.6470014,
    "osmType": "way",
    "brand": null,
    "operator": null
  },
  {
    "id": "way-996261191",
    "name": "Colegiul Tehnic Mircea Cristea",
    "type": "school",
    "subcategory": "college",
    "lat": 45.6665295,
    "lng": 25.6120722,
    "osmType": "way",
    "brand": null,
    "operator": null
  },
  {
    "id": "way-1000811534",
    "name": "Gradinita 29 PP",
    "type": "school",
    "subcategory": "kindergarten",
    "lat": 45.6528516,
    "lng": 25.6279233,
    "osmType": "way",
    "brand": null,
    "operator": null
  },
  {
    "id": "way-1006814718",
    "name": "Universitatea Transilvania - Campus Colina Universității",
    "type": "school",
    "subcategory": "university",
    "lat": 45.6552822,
    "lng": 25.5973883,
    "osmType": "way",
    "brand": null,
    "operator": null
  },
  {
    "id": "way-1018444704",
    "name": "Spitalul General C.F.Brasov",
    "type": "medical",
    "subcategory": "hospital",
    "lat": 45.649016,
    "lng": 25.6063561,
    "osmType": "way",
    "brand": null,
    "operator": null
  },
  {
    "id": "way-1047794853",
    "name": "Școala Gimnazială Nr. 2 \"Diaconu Coresi\" Brașov",
    "type": "school",
    "subcategory": "school",
    "lat": 45.6427809,
    "lng": 25.6328923,
    "osmType": "way",
    "brand": null,
    "operator": null
  },
  {
    "id": "way-1047797745",
    "name": "Școala Generală Nr. 3 \"Gheorghe Lazăr\"",
    "type": "school",
    "subcategory": "school",
    "lat": 45.6461734,
    "lng": 25.6329619,
    "osmType": "way",
    "brand": null,
    "operator": null
  },
  {
    "id": "way-1058906464",
    "name": "Biserica Sfânta Treime",
    "type": "church",
    "subcategory": "christian",
    "lat": 45.660894,
    "lng": 25.5069768,
    "osmType": "way",
    "brand": null,
    "operator": null
  },
  {
    "id": "way-1059148108",
    "name": "Medlife",
    "type": "medical",
    "subcategory": "doctors",
    "lat": 45.6640139,
    "lng": 25.5066214,
    "osmType": "way",
    "brand": null,
    "operator": "Medlife"
  },
  {
    "id": "way-1059148115",
    "name": "Fără nume",
    "type": "school",
    "subcategory": "kindergarten",
    "lat": 45.6642585,
    "lng": 25.5051493,
    "osmType": "way",
    "brand": null,
    "operator": null
  },
  {
    "id": "way-1061815051",
    "name": "Mănăstirea Sfântul Efrem cel Nou",
    "type": "church",
    "subcategory": "christian",
    "lat": 45.6277448,
    "lng": 25.5118448,
    "osmType": "way",
    "brand": null,
    "operator": null
  },
  {
    "id": "way-1064267337",
    "name": "Scoala Gimnazială Ghimbav",
    "type": "school",
    "subcategory": "school",
    "lat": 45.6638423,
    "lng": 25.508315,
    "osmType": "way",
    "brand": null,
    "operator": null
  },
  {
    "id": "way-1065117709",
    "name": "Scoala Gimnaziala 31 Brasov",
    "type": "school",
    "subcategory": "school",
    "lat": 45.6763117,
    "lng": 25.6449252,
    "osmType": "way",
    "brand": null,
    "operator": null
  },
  {
    "id": "way-1065881411",
    "name": "Școala Generală Ghimbav",
    "type": "school",
    "subcategory": "school",
    "lat": 45.6639741,
    "lng": 25.5040688,
    "osmType": "way",
    "brand": null,
    "operator": null
  },
  {
    "id": "way-1070380455",
    "name": "Creșa nr.10",
    "type": "school",
    "subcategory": "kindergarten",
    "lat": 45.6674871,
    "lng": 25.6179394,
    "osmType": "way",
    "brand": null,
    "operator": null
  },
  {
    "id": "way-1090391745",
    "name": "Biserica Sf. Nicolae",
    "type": "church",
    "subcategory": "christian",
    "lat": 45.5815766,
    "lng": 25.6209051,
    "osmType": "way",
    "brand": null,
    "operator": null
  },
  {
    "id": "way-1090391754",
    "name": "Biserica Sf. Ioan Nepomuc",
    "type": "church",
    "subcategory": "christian",
    "lat": 45.5838008,
    "lng": 25.6211821,
    "osmType": "way",
    "brand": null,
    "operator": null
  },
  {
    "id": "way-1097901761",
    "name": "Școala Gimnazială Nr. 8",
    "type": "school",
    "subcategory": "school",
    "lat": 45.652687,
    "lng": 25.613586,
    "osmType": "way",
    "brand": null,
    "operator": null
  },
  {
    "id": "way-1132414856",
    "name": "Grădinița cu pp nr.8 Brașov/Grădinița cu pn nr.12A Brașov",
    "type": "school",
    "subcategory": "school",
    "lat": 45.6538119,
    "lng": 25.6160338,
    "osmType": "way",
    "brand": null,
    "operator": null
  },
  {
    "id": "way-1154018581",
    "name": "Grădiniță cu PP Nr. 34",
    "type": "school",
    "subcategory": "kindergarten",
    "lat": 45.6642483,
    "lng": 25.6117432,
    "osmType": "way",
    "brand": null,
    "operator": null
  },
  {
    "id": "way-1210029275",
    "name": "Fără nume",
    "type": "school",
    "subcategory": "kindergarten",
    "lat": 45.6739063,
    "lng": 25.606028,
    "osmType": "way",
    "brand": null,
    "operator": null
  },
  {
    "id": "way-1212764590",
    "name": "Maica Domnului Prodromița",
    "type": "church",
    "subcategory": "christian",
    "lat": 45.673384,
    "lng": 25.6097966,
    "osmType": "way",
    "brand": null,
    "operator": null
  },
  {
    "id": "way-1216181874",
    "name": "Școala Gimnazială nr. 30",
    "type": "school",
    "subcategory": "school",
    "lat": 45.6647413,
    "lng": 25.599785,
    "osmType": "way",
    "brand": null,
    "operator": null
  },
  {
    "id": "way-1216181877",
    "name": "Școala Gimnazială Nr. 13",
    "type": "school",
    "subcategory": "school",
    "lat": 45.6656156,
    "lng": 25.6052584,
    "osmType": "way",
    "brand": null,
    "operator": null
  },
  {
    "id": "way-1220492771",
    "name": "Școala 1",
    "type": "school",
    "subcategory": "school",
    "lat": 45.6379253,
    "lng": 25.6270482,
    "osmType": "way",
    "brand": null,
    "operator": null
  },
  {
    "id": "way-1220492772",
    "name": "Grădinița 19",
    "type": "school",
    "subcategory": "kindergarten",
    "lat": 45.6374209,
    "lng": 25.6263828,
    "osmType": "way",
    "brand": null,
    "operator": null
  },
  {
    "id": "way-1224030291",
    "name": "Colegiul Nicolae Titulescu",
    "type": "school",
    "subcategory": "school",
    "lat": 45.669415,
    "lng": 25.6092741,
    "osmType": "way",
    "brand": null,
    "operator": null
  },
  {
    "id": "way-1225447193",
    "name": "Școala Profesională Germană Kronstadt",
    "type": "school",
    "subcategory": "college",
    "lat": 45.6824283,
    "lng": 25.6141472,
    "osmType": "way",
    "brand": null,
    "operator": null
  },
  {
    "id": "way-1226139023",
    "name": "Școala Generală Nr. 19",
    "type": "school",
    "subcategory": "school",
    "lat": 45.6576832,
    "lng": 25.6155532,
    "osmType": "way",
    "brand": null,
    "operator": null
  },
  {
    "id": "way-1272706319",
    "name": "Fără nume",
    "type": "school",
    "subcategory": "kindergarten",
    "lat": 45.6680362,
    "lng": 25.5980592,
    "osmType": "way",
    "brand": null,
    "operator": null
  },
  {
    "id": "way-1296273906",
    "name": "Școala Gimnazială Nr.12",
    "type": "school",
    "subcategory": "school",
    "lat": 45.6540276,
    "lng": 25.5861968,
    "osmType": "way",
    "brand": null,
    "operator": null
  },
  {
    "id": "way-1301512298",
    "name": "Școala Generală Nr. 6 \"Iacob Mureșianu\"",
    "type": "school",
    "subcategory": "school",
    "lat": 45.6452885,
    "lng": 25.5884094,
    "osmType": "way",
    "brand": null,
    "operator": null
  },
  {
    "id": "way-1301949972",
    "name": "Liceul Doctor Ioan Meșotă",
    "type": "school",
    "subcategory": "college",
    "lat": 45.6542056,
    "lng": 25.6092247,
    "osmType": "way",
    "brand": null,
    "operator": null
  },
  {
    "id": "way-1301951436",
    "name": "Colegiul Național \"Andrei Șaguna\"",
    "type": "school",
    "subcategory": "college",
    "lat": 45.6385298,
    "lng": 25.5844539,
    "osmType": "way",
    "brand": null,
    "operator": null
  },
  {
    "id": "way-1303210134",
    "name": "Fără nume",
    "type": "school",
    "subcategory": "school",
    "lat": 45.6994785,
    "lng": 25.5595364,
    "osmType": "way",
    "brand": null,
    "operator": null
  },
  {
    "id": "way-1305200247",
    "name": "Fără nume",
    "type": "school",
    "subcategory": "kindergarten",
    "lat": 45.6484713,
    "lng": 25.6297741,
    "osmType": "way",
    "brand": null,
    "operator": null
  },
  {
    "id": "way-1319431194",
    "name": "Grădinița Dragonel",
    "type": "school",
    "subcategory": "kindergarten",
    "lat": 45.7003128,
    "lng": 25.6104857,
    "osmType": "way",
    "brand": null,
    "operator": null
  },
  {
    "id": "way-1481565668",
    "name": "Spitalul Clinic Județean de Urgență Brașov",
    "type": "medical",
    "subcategory": "hospital",
    "lat": 45.6484567,
    "lng": 25.6207447,
    "osmType": "way",
    "brand": null,
    "operator": null
  },
  {
    "id": "way-1482818547",
    "name": "Școala Gimnazială Nr. 6 \"Iacob Mureșianu\" - Corp B",
    "type": "school",
    "subcategory": "school",
    "lat": 45.6601009,
    "lng": 25.5978049,
    "osmType": "way",
    "brand": null,
    "operator": null
  },
  {
    "id": "way-1482819415",
    "name": "Grădinița cu program prelungit Nr. 9",
    "type": "school",
    "subcategory": "school",
    "lat": 45.6598811,
    "lng": 25.5988073,
    "osmType": "way",
    "brand": null,
    "operator": null
  },
  {
    "id": "way-1482837283",
    "name": "Colegiul Emil Racoviță",
    "type": "school",
    "subcategory": "college",
    "lat": 45.659111,
    "lng": 25.6035788,
    "osmType": "way",
    "brand": null,
    "operator": null
  },
  {
    "id": "way-1500143928",
    "name": "Biserica Sfintii Transilvaneni - Bartolomeu Nord Avantgarden",
    "type": "church",
    "subcategory": "christian",
    "lat": 45.6674284,
    "lng": 25.549796,
    "osmType": "way",
    "brand": null,
    "operator": null
  },
  {
    "id": "relation-3285112",
    "name": "Centrul medical Astra",
    "type": "medical",
    "subcategory": "clinic",
    "lat": 45.6354618,
    "lng": 25.6366733,
    "osmType": "relation",
    "brand": null,
    "operator": null
  },
  {
    "id": "relation-3621867",
    "name": "Colegiul Tehnic Maria Baiulescu",
    "type": "school",
    "subcategory": "school",
    "lat": 45.6376943,
    "lng": 25.5887242,
    "osmType": "relation",
    "brand": null,
    "operator": null
  },
  {
    "id": "relation-19796130",
    "name": "Biserica Pentecostala",
    "type": "church",
    "subcategory": "christian",
    "lat": 45.6518928,
    "lng": 25.6189316,
    "osmType": "relation",
    "brand": null,
    "operator": null
  }
]