[
  {
    "id": "node-469928963",
    "name": "Grupul Școlar Industrial de Transporturi Auto Baia Sprie",
    "type": "school",
    "subcategory": "school",
    "lat": 47.6608976,
    "lng": 23.6988415,
    "osmType": "node",
    "brand": null,
    "operator": null
  },
  {
    "id": "node-560454072",
    "name": "Fără nume",
    "type": "medical",
    "subcategory": "hospital",
    "lat": 47.6611589,
    "lng": 23.5902518,
    "osmType": "node",
    "brand": null,
    "operator": null
  },
  {
    "id": "node-1879400072",
    "name": "Biserica Unguraș",
    "type": "church",
    "subcategory": "christian",
    "lat": 47.6287119,
    "lng": 23.6765936,
    "osmType": "node",
    "brand": null,
    "operator": null
  },
  {
    "id": "node-1879413100",
    "name": "Biserica Ortodoxă Șișești",
    "type": "church",
    "subcategory": "christian",
    "lat": 47.6298271,
    "lng": 23.7020015,
    "osmType": "node",
    "brand": null,
    "operator": null
  },
  {
    "id": "node-2672648237",
    "name": "Biserica Ortodoxă Sfinții Împărați Constantin și Elena",
    "type": "church",
    "subcategory": "christian",
    "lat": 47.6605689,
    "lng": 23.6818398,
    "osmType": "node",
    "brand": null,
    "operator": null
  },
  {
    "id": "node-2962819907",
    "name": "Biserica Ortodoxă Ferneziu",
    "type": "church",
    "subcategory": "christian",
    "lat": 47.6913306,
    "lng": 23.6271627,
    "osmType": "node",
    "brand": null,
    "operator": null
  },
  {
    "id": "node-2962820138",
    "name": "Biserica Penticostală Ferneziu",
    "type": "church",
    "subcategory": "christian",
    "lat": 47.6924428,
    "lng": 23.6277011,
    "osmType": "node",
    "brand": null,
    "operator": null
  },
  {
    "id": "node-3729397482",
    "name": "RXCT - Radiologie și Tomografie Dentară 3D, Baia Mare",
    "type": "medical",
    "subcategory": "clinic",
    "lat": 47.647324,
    "lng": 23.5714748,
    "osmType": "node",
    "brand": null,
    "operator": null
  },
  {
    "id": "node-4247494504",
    "name": "Sala Regatului a Martorilor lui Iehova",
    "type": "church",
    "subcategory": "christian",
    "lat": 47.6637896,
    "lng": 23.5466129,
    "osmType": "node",
    "brand": null,
    "operator": null
  },
  {
    "id": "node-4469614693",
    "name": "Biserica Credinței",
    "type": "church",
    "subcategory": "christian",
    "lat": 47.6618895,
    "lng": 23.5744644,
    "osmType": "node",
    "brand": null,
    "operator": null
  },
  {
    "id": "node-6183606463",
    "name": "Biserica Catolică",
    "type": "church",
    "subcategory": "christian",
    "lat": 47.6523655,
    "lng": 23.5597113,
    "osmType": "node",
    "brand": null,
    "operator": null
  },
  {
    "id": "node-6926328085",
    "name": "medic de familie",
    "type": "medical",
    "subcategory": "hospital",
    "lat": 47.6531542,
    "lng": 23.5763419,
    "osmType": "node",
    "brand": null,
    "operator": null
  },
  {
    "id": "node-7010952741",
    "name": "parohia inaltarea Sfintei Cruci",
    "type": "church",
    "subcategory": "christian",
    "lat": 47.6458319,
    "lng": 23.4968753,
    "osmType": "node",
    "brand": null,
    "operator": null
  },
  {
    "id": "node-8484857150",
    "name": "Capela Sfântului Francisc de Assisi",
    "type": "church",
    "subcategory": "christian",
    "lat": 47.6416766,
    "lng": 23.5805195,
    "osmType": "node",
    "brand": null,
    "operator": null
  },
  {
    "id": "node-8628417767",
    "name": "Superbet",
    "type": "superbet",
    "subcategory": "betting",
    "lat": 47.6531009,
    "lng": 23.5683078,
    "osmType": "node",
    "brand": null,
    "operator": "Superbet Betting & Gaming SA"
  },
  {
    "id": "node-8628417768",
    "name": "Superbet",
    "type": "superbet",
    "subcategory": "betting",
    "lat": 47.648047,
    "lng": 23.5544568,
    "osmType": "node",
    "brand": null,
    "operator": "Superbet Betting & Gaming SA"
  },
  {
    "id": "node-8628417867",
    "name": "Superbet",
    "type": "superbet",
    "subcategory": "betting",
    "lat": 47.659112,
    "lng": 23.55635,
    "osmType": "node",
    "brand": null,
    "operator": "Superbet Betting & Gaming SA"
  },
  {
    "id": "node-8628417999",
    "name": "Superbet",
    "type": "superbet",
    "subcategory": "betting",
    "lat": 47.6546149,
    "lng": 23.5663444,
    "osmType": "node",
    "brand": null,
    "operator": "Superbet Betting & Gaming SA"
  },
  {
    "id": "node-8628418057",
    "name": "Superbet",
    "type": "superbet",
    "subcategory": "betting",
    "lat": 47.6511152,
    "lng": 23.569327,
    "osmType": "node",
    "brand": null,
    "operator": "Superbet Betting & Gaming SA"
  },
  {
    "id": "node-8628418138",
    "name": "Superbet",
    "type": "superbet",
    "subcategory": "betting",
    "lat": 47.657143,
    "lng": 23.5706479,
    "osmType": "node",
    "brand": "Superbet",
    "operator": "Superbet Betting & Gaming SA"
  },
  {
    "id": "node-8628418354",
    "name": "Superbet",
    "type": "superbet",
    "subcategory": "betting",
    "lat": 47.6515,
    "lng": 23.5548162,
    "osmType": "node",
    "brand": "Superbet",
    "operator": "Superbet Betting & Gaming SA"
  },
  {
    "id": "node-8628418356",
    "name": "Superbet",
    "type": "superbet",
    "subcategory": "betting",
    "lat": 47.6497365,
    "lng": 23.5606806,
    "osmType": "node",
    "brand": "Superbet",
    "operator": "Superbet Betting & Gaming SA"
  },
  {
    "id": "node-9047355728",
    "name": "Superbet",
    "type": "superbet",
    "subcategory": "betting",
    "lat": 47.6517674,
    "lng": 23.5493205,
    "osmType": "node",
    "brand": "Superbet",
    "operator": "Superbet Betting & Gaming SA"
  },
  {
    "id": "node-11904042588",
    "name": "Colegiul Tehnic Anghel Saligny",
    "type": "school",
    "subcategory": "college",
    "lat": 47.6517085,
    "lng": 23.5724726,
    "osmType": "node",
    "brand": null,
    "operator": null
  },
  {
    "id": "node-11904042589",
    "name": "Liceul Internațional Baia Mare - gimnaziu & liceu",
    "type": "school",
    "subcategory": "school",
    "lat": 47.650856,
    "lng": 23.5714603,
    "osmType": "node",
    "brand": null,
    "operator": null
  },
  {
    "id": "node-12582241026",
    "name": "INTERCARDIO - Cabinet Medical Dr. Mihai Schiopu",
    "type": "medical",
    "subcategory": "clinic",
    "lat": 47.6485548,
    "lng": 23.5621682,
    "osmType": "node",
    "brand": null,
    "operator": "Dr. Mihai Schiopu"
  },
  {
    "id": "node-12582241036",
    "name": "Bioclinica",
    "type": "medical",
    "subcategory": "clinic",
    "lat": 47.6497311,
    "lng": 23.5613126,
    "osmType": "node",
    "brand": null,
    "operator": null
  },
  {
    "id": "node-12602313512",
    "name": "Creșa Nr. 10",
    "type": "school",
    "subcategory": "childcare",
    "lat": 47.6469041,
    "lng": 23.5568547,
    "osmType": "node",
    "brand": null,
    "operator": null
  },
  {
    "id": "node-12602313513",
    "name": "Grădinița cu program prelungit \"Floare de colț\" Nr. 34",
    "type": "school",
    "subcategory": "kindergarten",
    "lat": 47.6467207,
    "lng": 23.5562861,
    "osmType": "node",
    "brand": null,
    "operator": null
  },
  {
    "id": "way-186213580",
    "name": "Biserica Romano-Catolică",
    "type": "church",
    "subcategory": "christian",
    "lat": 47.662937,
    "lng": 23.7000187,
    "osmType": "way",
    "brand": null,
    "operator": null
  },
  {
    "id": "way-186218008",
    "name": "Biserica Reformată",
    "type": "church",
    "subcategory": "christian",
    "lat": 47.6632218,
    "lng": 23.6988275,
    "osmType": "way",
    "brand": null,
    "operator": null
  },
  {
    "id": "way-249951606",
    "name": "Creșa Nr. 3",
    "type": "school",
    "subcategory": "childcare",
    "lat": 47.6561478,
    "lng": 23.5680787,
    "osmType": "way",
    "brand": null,
    "operator": null
  },
  {
    "id": "way-308739727",
    "name": "Spitalul Județean de Urgență Dr. Constantin Opriș",
    "type": "medical",
    "subcategory": "hospital",
    "lat": 47.6548519,
    "lng": 23.5544485,
    "osmType": "way",
    "brand": null,
    "operator": null
  },
  {
    "id": "way-387596057",
    "name": "Biserica Sfânta Elisabeta",
    "type": "church",
    "subcategory": "christian",
    "lat": 47.6740798,
    "lng": 23.6200511,
    "osmType": "way",
    "brand": null,
    "operator": null
  },
  {
    "id": "way-443633385",
    "name": "Biserica „Soborul Sfinților 12 Apostoli”",
    "type": "church",
    "subcategory": "christian",
    "lat": 47.6487185,
    "lng": 23.5545555,
    "osmType": "way",
    "brand": null,
    "operator": null
  },
  {
    "id": "way-443642534",
    "name": "Catedrala Sfânta Maria",
    "type": "church",
    "subcategory": "christian",
    "lat": 47.64982,
    "lng": 23.5715499,
    "osmType": "way",
    "brand": null,
    "operator": null
  },
  {
    "id": "way-443642540",
    "name": "Catedrala Ortodoxă Episcopală \"Sfânta Treime\"",
    "type": "church",
    "subcategory": "christian",
    "lat": 47.6463482,
    "lng": 23.5729137,
    "osmType": "way",
    "brand": null,
    "operator": null
  },
  {
    "id": "way-443958250",
    "name": "Colegiul Național Vasile Lucaciu",
    "type": "school",
    "subcategory": "school",
    "lat": 47.6579494,
    "lng": 23.5691308,
    "osmType": "way",
    "brand": null,
    "operator": null
  },
  {
    "id": "way-443958854",
    "name": "Grădinița cu program prelungit Nr. 25",
    "type": "school",
    "subcategory": "kindergarten",
    "lat": 47.6492191,
    "lng": 23.5530343,
    "osmType": "way",
    "brand": null,
    "operator": null
  },
  {
    "id": "way-443958889",
    "name": "Școala Gimnazială Ion Luca Caragiale",
    "type": "school",
    "subcategory": "school",
    "lat": 47.6496922,
    "lng": 23.5550331,
    "osmType": "way",
    "brand": null,
    "operator": null
  },
  {
    "id": "way-445138569",
    "name": "Biserica Cristos Regele Universului",
    "type": "church",
    "subcategory": "christian",
    "lat": 47.6647816,
    "lng": 23.5739283,
    "osmType": "way",
    "brand": null,
    "operator": null
  },
  {
    "id": "way-454674091",
    "name": "Facultatea de Științe și Litere - Centrul Universitar Nord din Baia Mare",
    "type": "school",
    "subcategory": "university",
    "lat": 47.660241,
    "lng": 23.5645302,
    "osmType": "way",
    "brand": null,
    "operator": null
  },
  {
    "id": "way-463402373",
    "name": "Facultatea de Inginerie - Centrul Universitar Nord din Baia Mare",
    "type": "school",
    "subcategory": "university",
    "lat": 47.6601183,
    "lng": 23.5445103,
    "osmType": "way",
    "brand": null,
    "operator": null
  },
  {
    "id": "way-463402374",
    "name": "Biserica Ortodoxă Sfântul Ilie Săsar",
    "type": "church",
    "subcategory": "christian",
    "lat": 47.6619033,
    "lng": 23.5448967,
    "osmType": "way",
    "brand": null,
    "operator": null
  },
  {
    "id": "way-463402375",
    "name": "Spitalul de Pneumoftiziologie",
    "type": "medical",
    "subcategory": "hospital",
    "lat": 47.6626892,
    "lng": 23.552112,
    "osmType": "way",
    "brand": null,
    "operator": null
  },
  {
    "id": "way-463402935",
    "name": "Grup Școlar Gheorghe Lazăr",
    "type": "school",
    "subcategory": "school",
    "lat": 47.6587726,
    "lng": 23.5451099,
    "osmType": "way",
    "brand": null,
    "operator": null
  },
  {
    "id": "way-463406313",
    "name": "Liceul Teoretic Emil Racoviță",
    "type": "school",
    "subcategory": "school",
    "lat": 47.6535908,
    "lng": 23.5567006,
    "osmType": "way",
    "brand": null,
    "operator": null
  },
  {
    "id": "way-463406319",
    "name": "Biserica Nașterea Domnului",
    "type": "church",
    "subcategory": "christian",
    "lat": 47.6568184,
    "lng": 23.5556735,
    "osmType": "way",
    "brand": null,
    "operator": null
  },
  {
    "id": "way-463406320",
    "name": "Școala Gimnazială Nicolae Iorga",
    "type": "school",
    "subcategory": "school",
    "lat": 47.6563716,
    "lng": 23.55984,
    "osmType": "way",
    "brand": null,
    "operator": null
  },
  {
    "id": "way-463406323",
    "name": "Centrul de Transfuzii Sanguine",
    "type": "medical",
    "subcategory": "clinic",
    "lat": 47.6576768,
    "lng": 23.5611077,
    "osmType": "way",
    "brand": null,
    "operator": null
  },
  {
    "id": "way-463407711",
    "name": "Liceul de Artă",
    "type": "school",
    "subcategory": "school",
    "lat": 47.6643963,
    "lng": 23.5759088,
    "osmType": "way",
    "brand": null,
    "operator": null
  },
  {
    "id": "way-463408087",
    "name": "Școala Gimnazială Alexandru Ioan Cuza",
    "type": "school",
    "subcategory": "school",
    "lat": 47.6539679,
    "lng": 23.5521419,
    "osmType": "way",
    "brand": null,
    "operator": null
  },
  {
    "id": "way-463408091",
    "name": "Grădinița cu program prelungit Micul Prinț",
    "type": "school",
    "subcategory": "school",
    "lat": 47.6530299,
    "lng": 23.5526012,
    "osmType": "way",
    "brand": null,
    "operator": null
  },
  {
    "id": "way-463415313",
    "name": "FÎPCM Spiru Haret",
    "type": "school",
    "subcategory": "school",
    "lat": 47.6675956,
    "lng": 23.5687839,
    "osmType": "way",
    "brand": null,
    "operator": null
  },
  {
    "id": "way-467723690",
    "name": "Biserica Ortodoxă Sfântul Ierarh Nicolae",
    "type": "church",
    "subcategory": "christian",
    "lat": 47.658372,
    "lng": 23.5825015,
    "osmType": "way",
    "brand": null,
    "operator": null
  },
  {
    "id": "way-467723691",
    "name": "Biserica Sfânta Treime",
    "type": "church",
    "subcategory": "christian",
    "lat": 47.6584354,
    "lng": 23.5831668,
    "osmType": "way",
    "brand": null,
    "operator": null
  },
  {
    "id": "way-475585306",
    "name": "Colegiul Național Mihai Eminescu",
    "type": "school",
    "subcategory": "college",
    "lat": 47.6552513,
    "lng": 23.5721877,
    "osmType": "way",
    "brand": null,
    "operator": null
  },
  {
    "id": "way-549905362",
    "name": "Biserica Greco-catolica Bunavestire",
    "type": "church",
    "subcategory": "christian",
    "lat": 47.6537833,
    "lng": 23.5748175,
    "osmType": "way",
    "brand": null,
    "operator": null
  },
  {
    "id": "way-584687479",
    "name": "JW.ORG",
    "type": "church",
    "subcategory": "christian",
    "lat": 47.6418518,
    "lng": 23.6252677,
    "osmType": "way",
    "brand": null,
    "operator": null
  },
  {
    "id": "way-632440607",
    "name": "Biserica Ortodoxă Pogorârea Sfântului Duh",
    "type": "church",
    "subcategory": "christian",
    "lat": 47.6608563,
    "lng": 23.6998191,
    "osmType": "way",
    "brand": null,
    "operator": null
  },
  {
    "id": "way-632440608",
    "name": "Biserica Ortodoxă Adormirea Maicii Domnului",
    "type": "church",
    "subcategory": "christian",
    "lat": 47.6610181,
    "lng": 23.699765,
    "osmType": "way",
    "brand": null,
    "operator": null
  },
  {
    "id": "way-653543679",
    "name": "Biserica Greco-Catolică Sfânta Cruce",
    "type": "church",
    "subcategory": "christian",
    "lat": 47.6583673,
    "lng": 23.5571702,
    "osmType": "way",
    "brand": null,
    "operator": null
  },
  {
    "id": "way-654452230",
    "name": "Biserica Ortodoxă Sfinții Arhangheli Mihail și Gavril",
    "type": "church",
    "subcategory": "christian",
    "lat": 47.6451549,
    "lng": 23.5786613,
    "osmType": "way",
    "brand": null,
    "operator": null
  },
  {
    "id": "way-660168078",
    "name": "Biserica Ortodoxă de lemn Sfântul Andrei",
    "type": "church",
    "subcategory": "christian",
    "lat": 47.6520321,
    "lng": 23.5651104,
    "osmType": "way",
    "brand": null,
    "operator": null
  },
  {
    "id": "way-660168079",
    "name": "Biserica Ortodoxă Sfântul Andrei",
    "type": "church",
    "subcategory": "christian",
    "lat": 47.6518516,
    "lng": 23.5652048,
    "osmType": "way",
    "brand": null,
    "operator": null
  },
  {
    "id": "way-660263710",
    "name": "Casa de Rugaciune si Studiu Biblic",
    "type": "church",
    "subcategory": "christian",
    "lat": 47.6655853,
    "lng": 23.5714474,
    "osmType": "way",
    "brand": null,
    "operator": null
  },
  {
    "id": "way-665567571",
    "name": "B Braun - Centru de Dializă",
    "type": "medical",
    "subcategory": "clinic",
    "lat": 47.6545047,
    "lng": 23.5571566,
    "osmType": "way",
    "brand": null,
    "operator": null
  },
  {
    "id": "way-706567238",
    "name": "Biserica Ortodoxă Chiuzbaia",
    "type": "church",
    "subcategory": "christian",
    "lat": 47.6998912,
    "lng": 23.6790677,
    "osmType": "way",
    "brand": null,
    "operator": null
  },
  {
    "id": "way-728199552",
    "name": "Capela Rozália",
    "type": "church",
    "subcategory": "christian",
    "lat": 47.6558241,
    "lng": 23.5855683,
    "osmType": "way",
    "brand": null,
    "operator": null
  },
  {
    "id": "way-728202385",
    "name": "Biserica Militară",
    "type": "church",
    "subcategory": "christian",
    "lat": 47.641165,
    "lng": 23.5684947,
    "osmType": "way",
    "brand": null,
    "operator": null
  },
  {
    "id": "way-728205027",
    "name": "Fără nume",
    "type": "school",
    "subcategory": "school",
    "lat": 47.6599589,
    "lng": 23.5618051,
    "osmType": "way",
    "brand": null,
    "operator": null
  },
  {
    "id": "way-729130165",
    "name": "Policlinica Sfânta Maria",
    "type": "medical",
    "subcategory": "clinic",
    "lat": 47.6533215,
    "lng": 23.5592509,
    "osmType": "way",
    "brand": null,
    "operator": null
  },
  {
    "id": "way-729130167",
    "name": "Policlinica Sfânta Maria",
    "type": "medical",
    "subcategory": "clinic",
    "lat": 47.6535124,
    "lng": 23.5599163,
    "osmType": "way",
    "brand": null,
    "operator": null
  },
  {
    "id": "way-729130698",
    "name": "Circa sanitară",
    "type": "medical",
    "subcategory": "clinic",
    "lat": 47.6554607,
    "lng": 23.5640101,
    "osmType": "way",
    "brand": null,
    "operator": null
  },
  {
    "id": "way-729149805",
    "name": "Biserica de lemn „Sfântul Iosif Mărturisitorul”",
    "type": "church",
    "subcategory": "christian",
    "lat": 47.6542439,
    "lng": 23.5578407,
    "osmType": "way",
    "brand": null,
    "operator": null
  },
  {
    "id": "way-729150506",
    "name": "Biserica Reformată",
    "type": "church",
    "subcategory": "christian",
    "lat": 47.6612684,
    "lng": 23.5805601,
    "osmType": "way",
    "brand": null,
    "operator": null
  },
  {
    "id": "way-729181363",
    "name": "Biserica Sfântul Iosif",
    "type": "church",
    "subcategory": "christian",
    "lat": 47.6555513,
    "lng": 23.5488497,
    "osmType": "way",
    "brand": null,
    "operator": null
  },
  {
    "id": "way-729181366",
    "name": "Clinica Cosmedica",
    "type": "medical",
    "subcategory": "clinic",
    "lat": 47.6557232,
    "lng": 23.5497855,
    "osmType": "way",
    "brand": null,
    "operator": null
  },
  {
    "id": "way-729181367",
    "name": "Clinica Euromedica",
    "type": "medical",
    "subcategory": "clinic",
    "lat": 47.6556059,
    "lng": 23.5502741,
    "osmType": "way",
    "brand": null,
    "operator": null
  },
  {
    "id": "way-729950001",
    "name": "Biserica Ortodoxă Înălțarea Domnului",
    "type": "church",
    "subcategory": "christian",
    "lat": 47.6618755,
    "lng": 23.554648,
    "osmType": "way",
    "brand": null,
    "operator": null
  },
  {
    "id": "way-729952818",
    "name": "Spital & Policlinica Sfântul Ioan",
    "type": "medical",
    "subcategory": "clinic",
    "lat": 47.6592772,
    "lng": 23.5571843,
    "osmType": "way",
    "brand": null,
    "operator": null
  },
  {
    "id": "way-729959538",
    "name": "Biserica „Buna Vestire\"",
    "type": "church",
    "subcategory": "christian",
    "lat": 47.6471808,
    "lng": 23.5602441,
    "osmType": "way",
    "brand": null,
    "operator": null
  },
  {
    "id": "way-729961075",
    "name": "Fără nume",
    "type": "school",
    "subcategory": "childcare",
    "lat": 47.6468928,
    "lng": 23.5568645,
    "osmType": "way",
    "brand": null,
    "operator": null
  },
  {
    "id": "way-730006730",
    "name": "Biserica Penticostală \"Muntele Sionului\"",
    "type": "church",
    "subcategory": "place_of_worship",
    "lat": 47.6484322,
    "lng": 23.5660289,
    "osmType": "way",
    "brand": null,
    "operator": null
  },
  {
    "id": "way-730011993",
    "name": "Fără nume",
    "type": "church",
    "subcategory": "christian",
    "lat": 47.6464948,
    "lng": 23.5506243,
    "osmType": "way",
    "brand": null,
    "operator": null
  },
  {
    "id": "way-730224982",
    "name": "Catedrala Adormirea Maicii Domnului",
    "type": "church",
    "subcategory": "christian",
    "lat": 47.6616537,
    "lng": 23.5881475,
    "osmType": "way",
    "brand": null,
    "operator": null
  },
  {
    "id": "way-731148929",
    "name": "Policlinica Sfânta Maria",
    "type": "medical",
    "subcategory": "clinic",
    "lat": 47.6571626,
    "lng": 23.5362831,
    "osmType": "way",
    "brand": null,
    "operator": null
  },
  {
    "id": "way-732380333",
    "name": "sala",
    "type": "church",
    "subcategory": "christian",
    "lat": 47.6637676,
    "lng": 23.5465323,
    "osmType": "way",
    "brand": null,
    "operator": null
  },
  {
    "id": "way-734712717",
    "name": "Fără nume",
    "type": "church",
    "subcategory": "christian",
    "lat": 47.7126876,
    "lng": 23.7046008,
    "osmType": "way",
    "brand": null,
    "operator": null
  },
  {
    "id": "way-916428816",
    "name": "Biserica Romano-Catolică",
    "type": "church",
    "subcategory": "christian",
    "lat": 47.7052165,
    "lng": 23.4906861,
    "osmType": "way",
    "brand": null,
    "operator": null
  },
  {
    "id": "way-927083156",
    "name": "Biserica greco-catolică Schimbarea la Față Ferneziu",
    "type": "church",
    "subcategory": "christian",
    "lat": 47.6927324,
    "lng": 23.6265769,
    "osmType": "way",
    "brand": null,
    "operator": null
  },
  {
    "id": "way-939294018",
    "name": "Biserica Romano-Catolică Tăuții de Sus",
    "type": "church",
    "subcategory": "christian",
    "lat": 47.6580019,
    "lng": 23.6414903,
    "osmType": "way",
    "brand": null,
    "operator": null
  },
  {
    "id": "way-1161716839",
    "name": "Fără nume",
    "type": "church",
    "subcategory": "christian",
    "lat": 47.8216369,
    "lng": 23.5153846,
    "osmType": "way",
    "brand": null,
    "operator": null
  },
  {
    "id": "way-1161991185",
    "name": "Biserica Băița",
    "type": "church",
    "subcategory": "christian",
    "lat": 47.7017297,
    "lng": 23.4905494,
    "osmType": "way",
    "brand": null,
    "operator": null
  },
  {
    "id": "way-1326331325",
    "name": "Sinagoga Baia Mare",
    "type": "church",
    "subcategory": "jewish",
    "lat": 47.6585525,
    "lng": 23.585373,
    "osmType": "way",
    "brand": null,
    "operator": null
  },
  {
    "id": "way-1357878986",
    "name": "Școala Gimnazială Dimitrie Cantemir",
    "type": "school",
    "subcategory": "school",
    "lat": 47.6476848,
    "lng": 23.5594604,
    "osmType": "way",
    "brand": null,
    "operator": null
  },
  {
    "id": "way-1357898767",
    "name": "Grădinița cu program prelungit \"Floare de colț\" Nr. 36",
    "type": "school",
    "subcategory": "kindergarten",
    "lat": 47.646614,
    "lng": 23.559132,
    "osmType": "way",
    "brand": null,
    "operator": null
  },
  {
    "id": "way-1357898771",
    "name": "Școala Gimnazială Alexandru Ivasiuc",
    "type": "school",
    "subcategory": "school",
    "lat": 47.6469088,
    "lng": 23.5595922,
    "osmType": "way",
    "brand": null,
    "operator": null
  },
  {
    "id": "way-1358109978",
    "name": "Liceul cu Program Sportiv",
    "type": "school",
    "subcategory": "school",
    "lat": 47.646764,
    "lng": 23.5651215,
    "osmType": "way",
    "brand": null,
    "operator": null
  },
  {
    "id": "way-1390053258",
    "name": "Școala Gimnazială Nr. 18",
    "type": "school",
    "subcategory": "school",
    "lat": 47.6525044,
    "lng": 23.5474045,
    "osmType": "way",
    "brand": null,
    "operator": null
  },
  {
    "id": "way-1390135971",
    "name": "Liceul Teologic Penticostal",
    "type": "school",
    "subcategory": "school",
    "lat": 47.652661,
    "lng": 23.5439122,
    "osmType": "way",
    "brand": null,
    "operator": null
  },
  {
    "id": "way-1390135974",
    "name": "Grădinița cu program prelungit Nr. 28",
    "type": "school",
    "subcategory": "kindergarten",
    "lat": 47.6526824,
    "lng": 23.5462097,
    "osmType": "way",
    "brand": null,
    "operator": null
  },
  {
    "id": "way-1390775202",
    "name": "Centrul de Servicii de Reabilitare Neutomotorie",
    "type": "medical",
    "subcategory": "clinic",
    "lat": 47.6531009,
    "lng": 23.5521912,
    "osmType": "way",
    "brand": null,
    "operator": null
  },
  {
    "id": "way-1392322777",
    "name": "Grădinița cu program prelungit Nr. 9",
    "type": "school",
    "subcategory": "kindergarten",
    "lat": 47.6546575,
    "lng": 23.5601604,
    "osmType": "way",
    "brand": null,
    "operator": null
  },
  {
    "id": "way-1393235397",
    "name": "Școala Gimnazială George Coșbuc",
    "type": "school",
    "subcategory": "school",
    "lat": 47.6563797,
    "lng": 23.5649098,
    "osmType": "way",
    "brand": null,
    "operator": null
  },
  {
    "id": "way-1393403523",
    "name": "Grădinița cu program normal Nr. 20",
    "type": "school",
    "subcategory": "kindergarten",
    "lat": 47.6534921,
    "lng": 23.5596167,
    "osmType": "way",
    "brand": null,
    "operator": null
  },
  {
    "id": "way-1409719450",
    "name": "Colegiul Tehnic George Barițiu",
    "type": "school",
    "subcategory": "college",
    "lat": 47.6553816,
    "lng": 23.5708363,
    "osmType": "way",
    "brand": null,
    "operator": null
  },
  {
    "id": "way-1409783284",
    "name": "Școala Gimnazială Nichita Stănescu",
    "type": "school",
    "subcategory": "school",
    "lat": 47.6594477,
    "lng": 23.5551036,
    "osmType": "way",
    "brand": null,
    "operator": null
  },
  {
    "id": "way-1412481494",
    "name": "Școala Gimnazială Lucian Blaga",
    "type": "school",
    "subcategory": "school",
    "lat": 47.6536893,
    "lng": 23.5741747,
    "osmType": "way",
    "brand": null,
    "operator": null
  },
  {
    "id": "way-1412481497",
    "name": "Colegiul Economic Nicolae Titulescu",
    "type": "school",
    "subcategory": "college",
    "lat": 47.6527223,
    "lng": 23.5730841,
    "osmType": "way",
    "brand": null,
    "operator": null
  },
  {
    "id": "way-1412503764",
    "name": "Creșa Nr. 5",
    "type": "school",
    "subcategory": "kindergarten",
    "lat": 47.6585418,
    "lng": 23.549443,
    "osmType": "way",
    "brand": null,
    "operator": null
  },
  {
    "id": "way-1412503765",
    "name": "Școala Gimnazială Dr. Victor Babeș",
    "type": "school",
    "subcategory": "school",
    "lat": 47.6585053,
    "lng": 23.5481281,
    "osmType": "way",
    "brand": null,
    "operator": null
  },
  {
    "id": "way-1412513755",
    "name": "Grădinița cu program prelungit Otilia Cazimir",
    "type": "school",
    "subcategory": "kindergarten",
    "lat": 47.6435932,
    "lng": 23.5769105,
    "osmType": "way",
    "brand": null,
    "operator": null
  },
  {
    "id": "way-1412513758",
    "name": "Școala Gimnazială Vasile Alecsandri",
    "type": "school",
    "subcategory": "school",
    "lat": 47.6441879,
    "lng": 23.5762257,
    "osmType": "way",
    "brand": null,
    "operator": null
  },
  {
    "id": "way-1412513759",
    "name": "Școala Gimnazială Simion Bărnuţiu",
    "type": "school",
    "subcategory": "school",
    "lat": 47.6481283,
    "lng": 23.5884522,
    "osmType": "way",
    "brand": null,
    "operator": null
  },
  {
    "id": "way-1421753712",
    "name": "Szent Miklós minorita templom",
    "type": "church",
    "subcategory": "christian",
    "lat": 47.6583543,
    "lng": 23.5811358,
    "osmType": "way",
    "brand": null,
    "operator": null
  }
]