[
  {
    "id": "node-218092022",
    "name": "Grădinița nr. 23",
    "type": "school",
    "subcategory": "kindergarten",
    "lat": 44.4421989,
    "lng": 26.1783617,
    "osmType": "node",
    "tags": {
      "amenity": "kindergarten",
      "name": "Grădinița nr. 23"
    }
  },
  {
    "id": "node-256669045",
    "name": "Biserica Mărcuța",
    "type": "church",
    "subcategory": "christian",
    "lat": 44.4441433,
    "lng": 26.1716382,
    "osmType": "node",
    "tags": {
      "addr:city": "București",
      "addr:housenumber": "8",
      "addr:postcode": "022373",
      "addr:postcode:source": "Date de la Poșta Română, publicate sub Licența pentru Guvernare Deschisă v1.0 la http://date.gov.ro/organization/posta-romana",
      "addr:street": "Strada Biserica Mărcuța",
      "amenity": "place_of_worship",
      "check_date": "2025-09-27",
      "denomination": "romanian_orthodox",
      "name": "Biserica Mărcuța",
      "religion": "christian",
      "start_date": "1586",
      "wikidata": "Q4682370",
      "wikipedia": "en:Mărcuța Church"
    }
  },
  {
    "id": "node-256699692",
    "name": "Biserica Izvorul Nou",
    "type": "church",
    "subcategory": "christian",
    "lat": 44.4216454,
    "lng": 26.1375743,
    "osmType": "node",
    "tags": {
      "addr:city": "București",
      "addr:housenumber": "311",
      "addr:postcode": "030309",
      "addr:postcode:source": "Date de la Poșta Română, publicate sub Licența pentru Guvernare Deschisă v1.0 la http://date.gov.ro/organization/posta-romana",
      "addr:street": "Șoseaua Mihai Bravu",
      "amenity": "place_of_worship",
      "denomination": "romanian_orthodox",
      "name": "Biserica Izvorul Nou",
      "religion": "christian",
      "start_date": "1823",
      "wheelchair": "limited"
    }
  },
  {
    "id": "node-256878622",
    "name": "Biserica Ortodoxă \"Toți Sfinții Români\"",
    "type": "church",
    "subcategory": "christian",
    "lat": 44.4067705,
    "lng": 26.0734964,
    "osmType": "node",
    "tags": {
      "addr:city": "București",
      "addr:housenumber": "4",
      "addr:postcode": "051909",
      "addr:postcode:source": "Date de la Poșta Română, publicate sub Licența pentru Guvernare Deschisă v1.0 la http://date.gov.ro/organization/posta-romana",
      "addr:street": "Aleea Sălaj",
      "amenity": "place_of_worship",
      "denomination": "romanian_orthodox",
      "name": "Biserica Ortodoxă \"Toți Sfinții Români\"",
      "religion": "christian",
      "source:addr:housenumber": "survey",
      "source:addr:street": "survey"
    }
  },
  {
    "id": "node-257587205",
    "name": "Biserica Ortodoxă „Sfântul Silvestru”",
    "type": "church",
    "subcategory": "christian",
    "lat": 44.4429427,
    "lng": 26.115406,
    "osmType": "node",
    "tags": {
      "addr:city": "București",
      "addr:housenumber": "36",
      "addr:postcode": "020737",
      "addr:postcode:source": "Date de la Poșta Română, publicate sub Licența pentru Guvernare Deschisă v1.0 la http://date.gov.ro/organization/posta-romana",
      "addr:street": "Strada Silvestru",
      "amenity": "place_of_worship",
      "check_date": "2025-04-11",
      "denomination": "romanian_orthodox",
      "name": "Biserica Ortodoxă „Sfântul Silvestru”",
      "religion": "christian",
      "start_date": "1743",
      "wheelchair": "limited"
    }
  },
  {
    "id": "node-268246356",
    "name": "Școala nr.158 Liceul Tehnologic \"Doamna Chiajna\"",
    "type": "school",
    "subcategory": "school",
    "lat": 44.4511825,
    "lng": 26.0123467,
    "osmType": "node",
    "tags": {
      "addr:city": "Roșu, Chiajna, Ilfov",
      "addr:housenumber": "90",
      "addr:postcode": "077042",
      "addr:street": "Strada 1 Decembrie 1918",
      "amenity": "school",
      "int_name": "School no. 158",
      "name": "Școala nr.158 Liceul Tehnologic \"Doamna Chiajna\""
    }
  },
  {
    "id": "node-271285333",
    "name": "Liceul Teoretic \"Ion Barbu\"",
    "type": "school",
    "subcategory": "school",
    "lat": 44.4208153,
    "lng": 26.0614585,
    "osmType": "node",
    "tags": {
      "addr:city": "București",
      "addr:housenumber": "18",
      "addr:street": "Strada Năbucului",
      "amenity": "school",
      "grades": "0-12",
      "name": "Liceul Teoretic \"Ion Barbu\"",
      "website": "https://www.ltib.ro/"
    }
  },
  {
    "id": "node-286674396",
    "name": "Biserica Sf. Vasile cel Mare și Sf. Ilie",
    "type": "church",
    "subcategory": "christian",
    "lat": 44.4107993,
    "lng": 26.0166439,
    "osmType": "node",
    "tags": {
      "addr:city": "București",
      "addr:housenumber": "1",
      "addr:postcode": "052834",
      "addr:postcode:source": "Date de la Poșta Română, publicate sub Licența pentru Guvernare Deschisă v1.0 la http://date.gov.ro/organization/posta-romana",
      "addr:street": "Strada Floare de Gheață",
      "amenity": "place_of_worship",
      "denomination": "romanian_orthodox",
      "name": "Biserica Sf. Vasile cel Mare și Sf. Ilie",
      "religion": "christian",
      "start_date": "1989"
    }
  },
  {
    "id": "node-304915993",
    "name": "Biserica catolică „Sfinții Petru și Pavel”",
    "type": "church",
    "subcategory": "christian",
    "lat": 44.4904317,
    "lng": 26.0917094,
    "osmType": "node",
    "tags": {
      "addr:city": "București",
      "addr:housenumber": "16",
      "addr:postcode": "013982",
      "addr:street": "Strada Pechea",
      "amenity": "place_of_worship",
      "check_date": "2024-05-26",
      "denomination": "roman_catholic",
      "name": "Biserica catolică „Sfinții Petru și Pavel”",
      "religion": "christian"
    }
  },
  {
    "id": "node-304916537",
    "name": "Biserica Floreasca - Sf Nicolae",
    "type": "church",
    "subcategory": "christian",
    "lat": 44.4701197,
    "lng": 26.1046611,
    "osmType": "node",
    "tags": {
      "addr:city": "București",
      "addr:housenumber": "166",
      "addr:postcode": "014472",
      "addr:postcode:source": "Date de la Poșta Română, publicate sub Licența pentru Guvernare Deschisă v1.0 la http://date.gov.ro/organization/posta-romana",
      "addr:street": "Calea Floreasca",
      "amenity": "place_of_worship",
      "check_date": "2025-04-07",
      "denomination": "romanian_orthodox",
      "name": "Biserica Floreasca - Sf Nicolae",
      "religion": "christian",
      "start_date": "1912"
    }
  },
  {
    "id": "node-306343402",
    "name": "Biserica Ortodoxă „Doamna Oltea”",
    "type": "church",
    "subcategory": "christian",
    "lat": 44.4574215,
    "lng": 26.1063257,
    "osmType": "node",
    "tags": {
      "addr:city": "București",
      "addr:street": "Strada Barbu Văcărescu",
      "amenity": "place_of_worship",
      "check_date": "2023-10-26",
      "denomination": "romanian_orthodox",
      "name": "Biserica Ortodoxă „Doamna Oltea”",
      "religion": "christian",
      "wheelchair": "limited"
    }
  },
  {
    "id": "node-408171603",
    "name": "Dr. Daniela Ersch",
    "type": "medical",
    "subcategory": "doctors",
    "lat": 44.4875288,
    "lng": 26.0966392,
    "osmType": "node",
    "tags": {
      "amenity": "doctors",
      "healthcare": "doctor",
      "healthcare:speciality": "general",
      "name": "Dr. Daniela Ersch"
    }
  },
  {
    "id": "node-440160978",
    "name": "Biserica Ortodoxă „Sfântul Gheorghe - Capră”",
    "type": "church",
    "subcategory": "christian",
    "lat": 44.4445627,
    "lng": 26.1462276,
    "osmType": "node",
    "tags": {
      "addr:city": "București",
      "addr:housenumber": "131",
      "addr:postcode": "021804",
      "addr:street": "Șoseaua Pantelimon",
      "amenity": "place_of_worship",
      "check_date": "2024-11-17",
      "denomination": "romanian_orthodox",
      "name": "Biserica Ortodoxă „Sfântul Gheorghe - Capră”",
      "religion": "christian",
      "start_date": "1877",
      "wheelchair": "limited"
    }
  },
  {
    "id": "node-444361321",
    "name": "School no. 178",
    "type": "school",
    "subcategory": "school",
    "lat": 44.4842108,
    "lng": 26.0553224,
    "osmType": "node",
    "tags": {
      "amenity": "school",
      "name": "School no. 178"
    }
  },
  {
    "id": "node-445621098",
    "name": "Dispensarul Trei Scaune",
    "type": "medical",
    "subcategory": "doctors",
    "lat": 44.4603264,
    "lng": 26.1337484,
    "osmType": "node",
    "tags": {
      "addr:city": "București",
      "amenity": "doctors",
      "healthcare": "doctor",
      "name": "Dispensarul Trei Scaune",
      "source": "survey"
    }
  },
  {
    "id": "node-445630265",
    "name": "Biserica Sfântul Antonie - Colentina",
    "type": "church",
    "subcategory": "christian",
    "lat": 44.4601104,
    "lng": 26.1335943,
    "osmType": "node",
    "tags": {
      "addr:city": "București",
      "addr:housenumber": "20",
      "addr:postcode": "021212",
      "addr:postcode:source": "Date de la Poșta Română, publicate sub Licența pentru Guvernare Deschisă v1.0 la http://date.gov.ro/organization/posta-romana",
      "addr:street": "Strada Trei Scaune",
      "amenity": "place_of_worship",
      "denomination": "romanian_orthodox",
      "name": "Biserica Sfântul Antonie - Colentina",
      "religion": "christian",
      "wheelchair": "no"
    }
  },
  {
    "id": "node-450603563",
    "name": "Dispensarul Băneasa",
    "type": "medical",
    "subcategory": "doctor",
    "lat": 44.4912193,
    "lng": 26.0812714,
    "osmType": "node",
    "tags": {
      "addr:city": "București",
      "addr:housenumber": "3-5",
      "addr:postcode": "013941",
      "addr:street": "Strada Neagoe Vodă",
      "healthcare": "doctor",
      "name": "Dispensarul Băneasa"
    }
  },
  {
    "id": "node-462347535",
    "name": "Biserica Ortodoxă Schitu Măgureanu",
    "type": "church",
    "subcategory": "christian",
    "lat": 44.439188,
    "lng": 26.087344,
    "osmType": "node",
    "tags": {
      "addr:city": "București",
      "addr:housenumber": "14",
      "addr:postcode": "010186",
      "addr:postcode:source": "Date de la Poșta Română, publicate sub Licența pentru Guvernare Deschisă v1.0 la http://date.gov.ro/organization/posta-romana",
      "addr:street": "Bulevardul Schitu Măgureanu",
      "amenity": "place_of_worship",
      "check_date": "2023-11-13",
      "denomination": "romanian_orthodox",
      "name": "Biserica Ortodoxă Schitu Măgureanu",
      "religion": "christian"
    }
  },
  {
    "id": "node-483544085",
    "name": "Biserica Ortodoxă Sf. Alexandru",
    "type": "church",
    "subcategory": "christian",
    "lat": 44.4566275,
    "lng": 26.1412016,
    "osmType": "node",
    "tags": {
      "addr:city": "București",
      "addr:housenumber": "125",
      "addr:postcode": "022824",
      "addr:postcode:source": "Date de la Poșta Română, publicate sub Licența pentru Guvernare Deschisă v1.0 la http://date.gov.ro/organization/posta-romana",
      "addr:street": "Strada Doamna Ghica",
      "amenity": "place_of_worship",
      "check_date": "2024-12-30",
      "denomination": "romanian_orthodox",
      "is_in:city": "București",
      "name": "Biserica Ortodoxă Sf. Alexandru",
      "religion": "christian"
    }
  },
  {
    "id": "node-493727263",
    "name": "Biserica Ortodoxă \"Sfânta Treime - Dudești\"",
    "type": "church",
    "subcategory": "christian",
    "lat": 44.4224012,
    "lng": 26.1321784,
    "osmType": "node",
    "tags": {
      "addr:city": "București",
      "amenity": "place_of_worship",
      "denomination": "romanian_orthodox",
      "name": "Biserica Ortodoxă \"Sfânta Treime - Dudești\"",
      "religion": "christian",
      "wheelchair": "limited"
    }
  },
  {
    "id": "node-493732507",
    "name": "Biserica Ortodoxă \"Delea Nouă - Calist\"",
    "type": "church",
    "subcategory": "christian",
    "lat": 44.4313839,
    "lng": 26.1305134,
    "osmType": "node",
    "tags": {
      "addr:city": "București",
      "addr:housenumber": "1",
      "addr:postcode": "030924",
      "addr:postcode:source": "Date de la Poșta Română, publicate sub Licența pentru Guvernare Deschisă v1.0 la http://date.gov.ro/organization/posta-romana",
      "addr:street": "Strada Delea Nouă",
      "amenity": "place_of_worship",
      "denomination": "romanian_orthodox",
      "name": "Biserica Ortodoxă \"Delea Nouă - Calist\"",
      "religion": "christian",
      "start_date": "1798",
      "wheelchair": "yes"
    }
  },
  {
    "id": "node-493892409",
    "name": "Biserica Ortodoxă „Dichiu”",
    "type": "church",
    "subcategory": "christian",
    "lat": 44.4476107,
    "lng": 26.1107163,
    "osmType": "node",
    "tags": {
      "addr:city": "București",
      "addr:housenumber": "73",
      "addr:postcode": "020454",
      "addr:postcode:source": "Date de la Poșta Română, publicate sub Licența pentru Guvernare Deschisă v1.0 la http://date.gov.ro/organization/posta-romana",
      "addr:street": "Strada Icoanei",
      "amenity": "place_of_worship",
      "denomination": "romanian_orthodox",
      "name": "Biserica Ortodoxă „Dichiu”",
      "religion": "christian",
      "start_date": "1775",
      "wheelchair": "yes"
    }
  },
  {
    "id": "node-494791040",
    "name": "Colegiul Economic \"Hermes\"",
    "type": "school",
    "subcategory": "school",
    "lat": 44.4371396,
    "lng": 26.1132579,
    "osmType": "node",
    "tags": {
      "addr:city": "București",
      "addr:country": "RO",
      "addr:housenumber": "152",
      "addr:postcode": "020882",
      "addr:street": "Calea Moșilor",
      "amenity": "school",
      "name": "Colegiul Economic \"Hermes\""
    }
  },
  {
    "id": "node-501932616",
    "name": "Grădinița Prikindel",
    "type": "school",
    "subcategory": "kindergarten",
    "lat": 44.4260609,
    "lng": 26.0982821,
    "osmType": "node",
    "tags": {
      "amenity": "kindergarten",
      "name": "Grădinița Prikindel"
    }
  },
  {
    "id": "node-509347116",
    "name": "Congregația Surorilor Oblate Asumpționiste „Mănăstirea Sfânta Treime”",
    "type": "church",
    "subcategory": "christian",
    "lat": 44.4904479,
    "lng": 26.0922645,
    "osmType": "node",
    "tags": {
      "addr:city": "București",
      "addr:country": "RO",
      "addr:housenumber": "13",
      "addr:postcode": "013984",
      "addr:street": "Strada Zeletin",
      "amenity": "place_of_worship",
      "check_date": "2026-03-08",
      "denomination": "roman_catholic",
      "name": "Congregația Surorilor Oblate Asumpționiste „Mănăstirea Sfânta Treime”",
      "religion": "christian"
    }
  },
  {
    "id": "node-509599998",
    "name": "Million",
    "type": "gaming",
    "subcategory": "Million",
    "lat": 44.4941107,
    "lng": 26.0797245,
    "osmType": "node",
    "tags": {
      "amenity": "casino",
      "check_date:opening_hours": "2024-05-13",
      "name": "Million",
      "opening_hours": "Mo-Su 00:00-24:00",
      "wheelchair": "no"
    }
  },
  {
    "id": "node-529233923",
    "name": "Grădinița nr. 217 \"Fluturașul\"",
    "type": "school",
    "subcategory": "kindergarten",
    "lat": 44.4242473,
    "lng": 26.0323751,
    "osmType": "node",
    "tags": {
      "amenity": "kindergarten",
      "name": "Grădinița nr. 217 \"Fluturașul\""
    }
  },
  {
    "id": "node-535066423",
    "name": "Grădinița 238 București",
    "type": "school",
    "subcategory": "kindergarten",
    "lat": 44.4930028,
    "lng": 26.0845488,
    "osmType": "node",
    "tags": {
      "addr:city": "București",
      "addr:country": "RO",
      "addr:housenumber": "39",
      "addr:postcode": "013952",
      "addr:street": "Strada Băneasa",
      "amenity": "kindergarten",
      "check_date": "2023-12-10",
      "name": "Grădinița 238 București"
    }
  },
  {
    "id": "node-559958651",
    "name": "Biserica Ortodoxă „Iancu Vechi”",
    "type": "church",
    "subcategory": "christian",
    "lat": 44.4400149,
    "lng": 26.1290681,
    "osmType": "node",
    "tags": {
      "addr:city": "București",
      "addr:housenumber": "39",
      "addr:postcode": "021425",
      "addr:street": "Strada Mătăsari",
      "amenity": "place_of_worship",
      "check_date": "2023-11-07",
      "denomination": "romanian_orthodox",
      "name": "Biserica Ortodoxă „Iancu Vechi”",
      "religion": "christian",
      "start_date": "1774",
      "wheelchair": "yes"
    }
  },
  {
    "id": "node-581132183",
    "name": "Centrul medical NATURALIA",
    "type": "medical",
    "subcategory": "hospital",
    "lat": 44.4981209,
    "lng": 26.1744422,
    "osmType": "node",
    "tags": {
      "addr:city": "Voluntari",
      "addr:country": "RO",
      "addr:housenumber": "8",
      "addr:interpolation": "even",
      "addr:postcode": "077190",
      "addr:street": "Strada Erou Mircea Marinescu",
      "amenity": "hospital",
      "name": "Centrul medical NATURALIA"
    }
  },
  {
    "id": "node-581138389",
    "name": "Biserica „Sfânta Irina”",
    "type": "church",
    "subcategory": "christian",
    "lat": 44.4983275,
    "lng": 26.1738736,
    "osmType": "node",
    "tags": {
      "addr:city": "Voluntari",
      "addr:housenumber": "10",
      "addr:interpolation": "even",
      "addr:postcode": "077190",
      "addr:street": "Strada Erou Mircea Marinescu",
      "amenity": "place_of_worship",
      "denomination": "romanian_orthodox",
      "email": "parohiasfantairina@yahoo.com",
      "name": "Biserica „Sfânta Irina”",
      "phone": "0788.202.640",
      "religion": "christian"
    }
  },
  {
    "id": "node-597152973",
    "name": "Fostul Lic. Ind. 13",
    "type": "school",
    "subcategory": "school",
    "lat": 44.424829,
    "lng": 26.0243144,
    "osmType": "node",
    "tags": {
      "amenity": "school",
      "name": "Fostul Lic. Ind. 13"
    }
  },
  {
    "id": "node-599008479",
    "name": "Biserica Ortodoxă „Sfântul Andrei”",
    "type": "church",
    "subcategory": "christian",
    "lat": 44.4176039,
    "lng": 26.0163558,
    "osmType": "node",
    "tags": {
      "addr:city": "București",
      "addr:street": "Aleea Parva",
      "amenity": "place_of_worship",
      "denomination": "romanian_orthodox",
      "is_in:city": "București",
      "is_in:country": "România",
      "name": "Biserica Ortodoxă „Sfântul Andrei”",
      "religion": "christian"
    }
  },
  {
    "id": "node-599019565",
    "name": "Speed Vet",
    "type": "medical",
    "subcategory": "veterinary",
    "lat": 44.425001,
    "lng": 26.0475715,
    "osmType": "node",
    "tags": {
      "addr:city": "București",
      "addr:housenumber": "22",
      "addr:postcode": "061544",
      "addr:postcode:source": "Date de la Poșta Română, publicate sub Licența pentru Guvernare Deschisă v1.0 la http://date.gov.ro/organization/posta-romana",
      "addr:street": "Drumul Taberei",
      "amenity": "veterinary",
      "email": "office@speedvet.ro",
      "healthcare": "hospital",
      "name": "Speed Vet",
      "opening_hours": "Mo-Su 09:00-21:00; Sat 10:00-14:00; Sun Closed",
      "phone": "+40 371 306 308",
      "source:addr:housenumber": "survey",
      "source:addr:street": "survey"
    }
  },
  {
    "id": "node-601723683",
    "name": "Școala Gimnazială George Bacovia",
    "type": "school",
    "subcategory": "school",
    "lat": 44.395864,
    "lng": 26.0993999,
    "osmType": "node",
    "tags": {
      "addr:city": "București",
      "addr:housenumber": "72",
      "addr:street": "Strada Stoian Militaru",
      "amenity": "school",
      "building": "yes",
      "name": "Școala Gimnazială George Bacovia"
    }
  },
  {
    "id": "node-619936742",
    "name": "Facultatea de Jurnalism și Științele Comunicării",
    "type": "school",
    "subcategory": "university",
    "lat": 44.4340346,
    "lng": 26.058091,
    "osmType": "node",
    "tags": {
      "addr:city": "București",
      "addr:housenumber": "1-3",
      "addr:postcode": "060117",
      "addr:street": "Bulevardul Iuliu Maniu",
      "amenity": "university",
      "name": "Facultatea de Jurnalism și Științele Comunicării",
      "source:addr:housenumber": "survey",
      "source:addr:street": "survey"
    }
  },
  {
    "id": "node-622331840",
    "name": "Facultatea de Știința și Ingineria Materialelor",
    "type": "school",
    "subcategory": "university",
    "lat": 44.439628,
    "lng": 26.052754,
    "osmType": "node",
    "tags": {
      "amenity": "university",
      "education": "university",
      "faculty": "engineering",
      "internet_access": "yes",
      "internet_access:fee": "no",
      "name": "Facultatea de Știința și Ingineria Materialelor",
      "operator": "Universitatea Politehnica București"
    }
  },
  {
    "id": "node-622334142",
    "name": "Facultatea de Energetică",
    "type": "school",
    "subcategory": "university",
    "lat": 44.4374461,
    "lng": 26.048606,
    "osmType": "node",
    "tags": {
      "amenity": "university",
      "education": "university",
      "faculty": "power_engineering",
      "internet_access": "yes",
      "internet_access:fee": "no",
      "name": "Facultatea de Energetică",
      "name:ro": "Facultatea de Energetică",
      "operator": "Universitatea Politehnica București",
      "website": "https://energ.upb.ro/"
    }
  },
  {
    "id": "node-623620886",
    "name": "Școala Generală nr. 89 \"Nicolae Labiș\"",
    "type": "school",
    "subcategory": "school",
    "lat": 44.4150524,
    "lng": 26.160886,
    "osmType": "node",
    "tags": {
      "amenity": "school",
      "check_date": "2025-06-18",
      "name": "Școala Generală nr. 89 \"Nicolae Labiș\""
    }
  },
  {
    "id": "node-623681949",
    "name": "Școala Gimnazială nr. 195 \"Hamburg\"",
    "type": "school",
    "subcategory": "school",
    "lat": 44.4216158,
    "lng": 26.1614689,
    "osmType": "node",
    "tags": {
      "addr:city": "București",
      "addr:housenumber": "2",
      "addr:street": "Strada Lunca Bradului",
      "amenity": "school",
      "check_date": "2025-12-07",
      "name": "Școala Gimnazială nr. 195 \"Hamburg\"",
      "source:addr:housenumber": "survey"
    }
  },
  {
    "id": "node-627329481",
    "name": "Dispensar Herăstrău",
    "type": "medical",
    "subcategory": "doctors",
    "lat": 44.4789357,
    "lng": 26.0945704,
    "osmType": "node",
    "tags": {
      "addr:city": "București",
      "addr:housenumber": "16",
      "addr:postcode": "014262",
      "addr:postcode:source": "Date de la Poșta Română, publicate sub Licența pentru Guvernare Deschisă v1.0 la http://date.gov.ro/organization/posta-romana",
      "addr:street": "Strada Zăgazului",
      "amenity": "doctors",
      "name": "Dispensar Herăstrău",
      "source:addr:housenumber": "survey"
    }
  },
  {
    "id": "node-628598192",
    "name": "Institutul Național de Recuperare, Medicină Fizică și Balneoclimatologie",
    "type": "medical",
    "subcategory": "clinic",
    "lat": 44.4310894,
    "lng": 26.0986545,
    "osmType": "node",
    "tags": {
      "addr:city": "București",
      "addr:housenumber": "2",
      "addr:postcode": "030101",
      "addr:street": "Strada Sfântul Dumitru",
      "amenity": "clinic",
      "healthcare": "clinic",
      "healthcare:speciality": "physiotherapy",
      "name": "Institutul Național de Recuperare, Medicină Fizică și Balneoclimatologie",
      "source:addr:street": "survey"
    }
  },
  {
    "id": "node-630643251",
    "name": "Biserica Ortodoxă Sfântul Calinic",
    "type": "church",
    "subcategory": "christian",
    "lat": 44.4268897,
    "lng": 26.1491417,
    "osmType": "node",
    "tags": {
      "addr:city": "București",
      "amenity": "place_of_worship",
      "check_date": "2023-11-05",
      "denomination": "romanian_orthodox",
      "name": "Biserica Ortodoxă Sfântul Calinic",
      "religion": "christian"
    }
  },
  {
    "id": "node-631271408",
    "name": "Grădinița de copii nr. 232",
    "type": "school",
    "subcategory": "kindergarten",
    "lat": 44.4111775,
    "lng": 26.1660512,
    "osmType": "node",
    "tags": {
      "addr:city": "București",
      "amenity": "kindergarten",
      "education": "kindergarten",
      "name": "Grădinița de copii nr. 232"
    }
  },
  {
    "id": "node-631272510",
    "name": "Școala Generală nr.92",
    "type": "school",
    "subcategory": "school",
    "lat": 44.4103889,
    "lng": 26.1692083,
    "osmType": "node",
    "tags": {
      "amenity": "school",
      "name": "Școala Generală nr.92"
    }
  },
  {
    "id": "node-631279952",
    "name": "Grădinița nr. 211",
    "type": "school",
    "subcategory": "kindergarten",
    "lat": 44.409297,
    "lng": 26.1736259,
    "osmType": "node",
    "tags": {
      "amenity": "kindergarten",
      "name": "Grădinița nr. 211"
    }
  },
  {
    "id": "node-631302979",
    "name": "Școala Generală nr. 20 „Simion Mehedinți”",
    "type": "school",
    "subcategory": "school",
    "lat": 44.4083249,
    "lng": 26.1748663,
    "osmType": "node",
    "tags": {
      "amenity": "school",
      "name": "Școala Generală nr. 20 „Simion Mehedinți”"
    }
  },
  {
    "id": "node-635951494",
    "name": "Eldorado",
    "type": "gaming",
    "subcategory": "Eldorado",
    "lat": 44.4129212,
    "lng": 26.1632016,
    "osmType": "node",
    "tags": {
      "amenity": "casino",
      "name": "Eldorado"
    }
  },
  {
    "id": "node-637696068",
    "name": "Grădinița nr. 240",
    "type": "school",
    "subcategory": "kindergarten",
    "lat": 44.4169494,
    "lng": 26.1604245,
    "osmType": "node",
    "tags": {
      "amenity": "kindergarten",
      "check_date": "2025-06-18",
      "name": "Grădinița nr. 240"
    }
  },
  {
    "id": "node-639027997",
    "name": "Biserica Adventistă Balta Albă",
    "type": "church",
    "subcategory": "christian",
    "lat": 44.4112149,
    "lng": 26.1625572,
    "osmType": "node",
    "tags": {
      "addr:city": "București",
      "amenity": "place_of_worship",
      "denomination": "seventh_day_adventist",
      "name": "Biserica Adventistă Balta Albă",
      "religion": "christian"
    }
  },
  {
    "id": "node-640391847",
    "name": "Școala nr. 199",
    "type": "school",
    "subcategory": "school",
    "lat": 44.430716,
    "lng": 26.1600592,
    "osmType": "node",
    "tags": {
      "amenity": "school",
      "name": "Școala nr. 199"
    }
  },
  {
    "id": "node-647192186",
    "name": "Universitatea \"Dimitrie Cantemir\"",
    "type": "school",
    "subcategory": "university",
    "lat": 44.4145789,
    "lng": 26.1154205,
    "osmType": "node",
    "tags": {
      "amenity": "university",
      "check_date": "2026-02-01",
      "is_in:city": "București",
      "name": "Universitatea \"Dimitrie Cantemir\""
    }
  },
  {
    "id": "node-656547587",
    "name": "Grădinița nr. 192 (Pisicile aristocrate)",
    "type": "school",
    "subcategory": "kindergarten",
    "lat": 44.4251395,
    "lng": 26.0969363,
    "osmType": "node",
    "tags": {
      "amenity": "kindergarten",
      "check_date": "2023-04-23",
      "name": "Grădinița nr. 192 (Pisicile aristocrate)"
    }
  },
  {
    "id": "node-659008908",
    "name": "Fortuna",
    "type": "betting",
    "subcategory": "Fortuna",
    "lat": 44.4280077,
    "lng": 26.1474445,
    "osmType": "node",
    "tags": {
      "addr:city": "București",
      "brand": "Fortuna",
      "brand:wikidata": "Q12016781",
      "name": "Fortuna",
      "opening_hours": "Mo-Su 10:00-22:00",
      "shop": "bookmaker"
    }
  },
  {
    "id": "node-662296416",
    "name": "Școala Generală nr. 22 \"Mexic\"",
    "type": "school",
    "subcategory": "school",
    "lat": 44.4249731,
    "lng": 26.1775908,
    "osmType": "node",
    "tags": {
      "amenity": "school",
      "education": "school",
      "name": "Școala Generală nr. 22 \"Mexic\""
    }
  },
  {
    "id": "node-678837400",
    "name": "Gral Medical",
    "type": "medical",
    "subcategory": "clinic",
    "lat": 44.4227538,
    "lng": 26.1333309,
    "osmType": "node",
    "tags": {
      "amenity": "clinic",
      "contact:phone": "+40 21 323 0000",
      "contact:website": "https://www.gralmedical.ro/",
      "healthcare": "clinic",
      "name": "Gral Medical",
      "opening_hours": "Mo-Fr 08:00-20:00"
    }
  },
  {
    "id": "node-678906906",
    "name": "Redseven",
    "type": "gaming",
    "subcategory": "Redseven",
    "lat": 44.4432166,
    "lng": 26.1193714,
    "osmType": "node",
    "tags": {
      "addr:city": "București",
      "addr:housenumber": "284",
      "addr:postcode": "020894",
      "addr:street": "Calea Moșilor",
      "check_date:opening_hours": "2023-11-10",
      "leisure": "adult_gaming_centre",
      "name": "Redseven",
      "opening_hours": "Mo-Su 00:00-24:00"
    }
  },
  {
    "id": "node-764370441",
    "name": "Facultatea de Biologie",
    "type": "school",
    "subcategory": "university",
    "lat": 44.4332655,
    "lng": 26.0835967,
    "osmType": "node",
    "tags": {
      "addr:city": "București",
      "addr:country": "RO",
      "addr:housenumber": "91-95",
      "addr:interpolation": "odd",
      "addr:postcode": "050095",
      "addr:street": "Splaiul Independenței",
      "amenity": "university",
      "name": "Facultatea de Biologie",
      "name:fr": "Université de Biologie",
      "website": "https://www.bio.unibuc.ro/"
    }
  },
  {
    "id": "node-781132026",
    "name": "Policlinica",
    "type": "medical",
    "subcategory": "clinic",
    "lat": 44.4549686,
    "lng": 26.0947031,
    "osmType": "node",
    "tags": {
      "amenity": "clinic",
      "name": "Policlinica"
    }
  },
  {
    "id": "node-807107559",
    "name": "Doctor Anghel Medical Center",
    "type": "medical",
    "subcategory": "clinic",
    "lat": 44.4264872,
    "lng": 26.1272262,
    "osmType": "node",
    "tags": {
      "amenity": "clinic",
      "name": "Doctor Anghel Medical Center",
      "opening_hours": "Mo-Fr 14:00-21:00; Sa 10:00-16:00"
    }
  },
  {
    "id": "node-893441658",
    "name": "Biserica Greco-Catolică Acvila",
    "type": "church",
    "subcategory": "christian",
    "lat": 44.4229858,
    "lng": 26.0805932,
    "osmType": "node",
    "tags": {
      "addr:housenumber": "39",
      "addr:street": "Strada Sirenelor",
      "amenity": "place_of_worship",
      "denomination": "greek_catholic",
      "name": "Biserica Greco-Catolică Acvila",
      "religion": "christian"
    }
  },
  {
    "id": "node-899599769",
    "name": "Biserica Sfântul Nicolae - Negustori",
    "type": "church",
    "subcategory": "christian",
    "lat": 44.4339927,
    "lng": 26.1096516,
    "osmType": "node",
    "tags": {
      "addr:city": "București",
      "addr:housenumber": "5",
      "addr:street": "Strada Teodor Ștefănescu",
      "amenity": "place_of_worship",
      "denomination": "romanian_orthodox",
      "name": "Biserica Sfântul Nicolae - Negustori",
      "religion": "christian",
      "start_date": "1721"
    }
  },
  {
    "id": "node-899633232",
    "name": "Biserica Ortodoxă Greacă",
    "type": "church",
    "subcategory": "christian",
    "lat": 44.4385505,
    "lng": 26.1176703,
    "osmType": "node",
    "tags": {
      "addr:city": "București",
      "addr:housenumber": "1",
      "addr:postcode": "021403",
      "addr:postcode:source": "Date de la Poșta Română, publicate sub Licența pentru Guvernare Deschisă v1.0 la http://date.gov.ro/organization/posta-romana",
      "addr:street": "Bulevardul Pache Protopopescu",
      "amenity": "place_of_worship",
      "check_date": "2024-10-08",
      "denomination": "greek_orthodox",
      "name": "Biserica Ortodoxă Greacă",
      "religion": "christian",
      "start_date": "1893",
      "tourism": "place_of_worship",
      "wheelchair": "no"
    }
  },
  {
    "id": "node-905720788",
    "name": "Biserica Ortodoxă \"Sfinții Ioachim și Ana - Oborul Vechi\"",
    "type": "church",
    "subcategory": "christian",
    "lat": 44.4394422,
    "lng": 26.1209284,
    "osmType": "node",
    "tags": {
      "addr:city": "București",
      "addr:housenumber": "204",
      "addr:postcode": "024046",
      "addr:postcode:source": "Date de la Poșta Română, publicate sub Licența pentru Guvernare Deschisă v1.0 la http://date.gov.ro/organization/posta-romana",
      "addr:street": "Strada Traian",
      "amenity": "place_of_worship",
      "denomination": "romanian_orthodox",
      "name": "Biserica Ortodoxă \"Sfinții Ioachim și Ana - Oborul Vechi\"",
      "religion": "christian",
      "url": "http://www.crestinortodox.ro/biserici-manastiri/mitropolia-munteniei-dobrogei/biserica-sfintii-ioachim-ana-oborul-vechi-68180.html"
    }
  },
  {
    "id": "node-905726832",
    "name": "Biserica Ortodoxă Popa Soare",
    "type": "church",
    "subcategory": "christian",
    "lat": 44.4359064,
    "lng": 26.1185658,
    "osmType": "node",
    "tags": {
      "addr:city": "București",
      "addr:housenumber": "7",
      "addr:postcode": "024031",
      "addr:postcode:source": "Date de la Poșta Română, publicate sub Licența pentru Guvernare Deschisă v1.0 la http://date.gov.ro/organization/posta-romana",
      "addr:street": "Strada Doctor Burghelea",
      "amenity": "place_of_worship",
      "denomination": "romanian_orthodox",
      "name": "Biserica Ortodoxă Popa Soare",
      "religion": "christian",
      "wheelchair": "no"
    }
  },
  {
    "id": "node-906031384",
    "name": "Biserica Ortodoxă „Precupeții Vechi - a Tuturor Sfinților”",
    "type": "church",
    "subcategory": "christian",
    "lat": 44.4464913,
    "lng": 26.1153812,
    "osmType": "node",
    "tags": {
      "addr:city": "București",
      "addr:housenumber": "92",
      "addr:postcode": "020715",
      "addr:postcode:source": "Date de la Poșta Română, publicate sub Licența pentru Guvernare Deschisă v1.0 la http://date.gov.ro/organization/posta-romana",
      "addr:street": "Strada Toamnei",
      "alt_name": "Biserica Ortodoxă a Tuturor Sfinților",
      "amenity": "place_of_worship",
      "denomination": "romanian_orthodox",
      "name": "Biserica Ortodoxă „Precupeții Vechi - a Tuturor Sfinților”",
      "religion": "christian",
      "start_date": "1773",
      "wheelchair": "limited"
    }
  },
  {
    "id": "node-915929726",
    "name": "Biserica Ortodoxă „Olari”",
    "type": "church",
    "subcategory": "christian",
    "lat": 44.4387171,
    "lng": 26.1158539,
    "osmType": "node",
    "tags": {
      "addr:city": "București",
      "addr:housenumber": "8A",
      "addr:postcode": "024057",
      "addr:postcode:source": "Date de la Poșta Română, publicate sub Licența pentru Guvernare Deschisă v1.0 la http://date.gov.ro/organization/posta-romana",
      "addr:street": "Strada Olari",
      "amenity": "place_of_worship",
      "denomination": "romanian_orthodox",
      "name": "Biserica Ortodoxă „Olari”",
      "religion": "christian",
      "start_date": "1758"
    }
  },
  {
    "id": "node-916164675",
    "name": "Biserica Ortodoxă „Sfinții Voievozi”",
    "type": "church",
    "subcategory": "christian",
    "lat": 44.4457095,
    "lng": 26.0839578,
    "osmType": "node",
    "tags": {
      "addr:city": "București",
      "addr:housenumber": "58",
      "addr:postcode": "010734",
      "addr:postcode:source": "Date de la Poșta Română, publicate sub Licența pentru Guvernare Deschisă v1.0 la http://date.gov.ro/organization/posta-romana",
      "addr:street": "Calea Griviței",
      "amenity": "place_of_worship",
      "denomination": "romanian_orthodox",
      "is_in:city": "București",
      "is_in:country": "România",
      "name": "Biserica Ortodoxă „Sfinții Voievozi”",
      "religion": "christian"
    }
  },
  {
    "id": "node-919559390",
    "name": "International School for Primary Education",
    "type": "school",
    "subcategory": "school",
    "lat": 44.4967417,
    "lng": 26.057137,
    "osmType": "node",
    "tags": {
      "addr:city": "București",
      "addr:housenumber": "72",
      "addr:street": "Strada Petre S. Aurelian",
      "amenity": "school",
      "description": "The International School for Primary Education (InSPE), Bucharest is a combined Nursery and Primary School which takes children from 1 year old up to 11 years old. It was formerly know as the International Nursery School of Bucharest but in the last few y",
      "name": "International School for Primary Education",
      "website": "https://inspe.ro/"
    }
  },
  {
    "id": "node-920697793",
    "name": "Biserica Ortodoxă „Sfântul Pantelimon”",
    "type": "church",
    "subcategory": "christian",
    "lat": 44.4424804,
    "lng": 26.1217895,
    "osmType": "node",
    "tags": {
      "addr:city": "București",
      "addr:housenumber": "24",
      "addr:postcode": "021364",
      "addr:postcode:source": "Date de la Poșta Română, publicate sub Licența pentru Guvernare Deschisă v1.0 la http://date.gov.ro/organization/posta-romana",
      "addr:street": "Strada Iancu Căpitanu",
      "amenity": "place_of_worship",
      "check_date": "2024-11-20",
      "denomination": "romanian_orthodox",
      "name": "Biserica Ortodoxă „Sfântul Pantelimon”",
      "religion": "christian"
    }
  },
  {
    "id": "node-921794024",
    "name": "Biserica Ortodoxă Andronache",
    "type": "church",
    "subcategory": "christian",
    "lat": 44.476829,
    "lng": 26.1517568,
    "osmType": "node",
    "tags": {
      "addr:city": "București",
      "addr:housenumber": "10",
      "addr:postcode": "022717",
      "addr:postcode:source": "Date de la Poșta Română, publicate sub Licența pentru Guvernare Deschisă v1.0 la http://date.gov.ro/organization/posta-romana",
      "addr:street": "Strada Periș",
      "amenity": "place_of_worship",
      "denomination": "romanian_orthodox",
      "name": "Biserica Ortodoxă Andronache",
      "religion": "christian",
      "source": "survey, field survey",
      "start_date": "1899"
    }
  },
  {
    "id": "node-923488368",
    "name": "Școala Specială Nr. 8",
    "type": "school",
    "subcategory": "school",
    "lat": 44.4879702,
    "lng": 26.0522342,
    "osmType": "node",
    "tags": {
      "amenity": "school",
      "check_date": "2024-09-24",
      "name": "Școala Specială Nr. 8"
    }
  },
  {
    "id": "node-924445135",
    "name": "Biserica Ortodoxă „Popa Șapcă” Voluntari",
    "type": "church",
    "subcategory": "christian",
    "lat": 44.4858829,
    "lng": 26.1801426,
    "osmType": "node",
    "tags": {
      "addr:city": "Voluntari",
      "addr:housenumber": "1",
      "addr:postcode": "077190",
      "addr:street": "Strada Popa Șapcă",
      "amenity": "place_of_worship",
      "check_date": "2024-06-02",
      "denomination": "romanian_orthodox",
      "is_in:city": "Voluntari",
      "is_in:country": "România",
      "is_in:county": "Ilfov",
      "name": "Biserica Ortodoxă „Popa Șapcă” Voluntari",
      "religion": "christian",
      "start_date": "1953"
    }
  },
  {
    "id": "node-929291571",
    "name": "Superbet",
    "type": "betting",
    "subcategory": "Superbet",
    "lat": 44.4130634,
    "lng": 26.0728085,
    "osmType": "node",
    "tags": {
      "brand": "Superbet",
      "brand:wikidata": "Q61082636",
      "name": "Superbet",
      "shop": "bookmaker"
    }
  },
  {
    "id": "node-931776203",
    "name": "Regina Maria - Policlinica Băneasa și Clinica Private Care",
    "type": "medical",
    "subcategory": "clinic",
    "lat": 44.4948215,
    "lng": 26.0781373,
    "osmType": "node",
    "tags": {
      "addr:city": "București",
      "addr:country": "RO",
      "addr:full": "Bulevardul Ion Ionescu de la Brad, nr. 5B, sector 1, Bucureșt",
      "addr:housenumber": "1A",
      "addr:postcode": "013793",
      "addr:street": "Bulevardul Ion Ionescu de la Brad",
      "alt_name": "Policlinica Băneasa Regina Maria & Clinica Private Care",
      "amenity": "clinic",
      "check_date": "2024-12-18",
      "check_date:opening_hours": "2023-09-29",
      "healthcare": "clinic",
      "internet_access": "no",
      "name": "Regina Maria - Policlinica Băneasa și Clinica Private Care",
      "note": "Specialitati medicale:- Acupunctura- Amniocenteza- Cardiologie- Chirurgie Cardio-Vasculara- Dermato-Venerologie - Dermatologie Estetica- Ecografie- Endocrinologie- Endoscopie- Gastroenterologie- Medicina Interna- Medicina Generala- Neurochirurgie- Neurolo",
      "opening_hours": "Mo-Fr 08:00-20:00; Sa 08:00-14:00",
      "payment:apple_pay": "yes",
      "payment:contactless": "yes",
      "payment:google_pay": "yes",
      "payment:mastercard": "yes",
      "payment:visa": "yes",
      "phone": "021 9268",
      "website": "https://www.reginamaria.ro/clinici/policlinica-baneasa",
      "wheelchair": "yes"
    }
  },
  {
    "id": "node-933872147",
    "name": "Biserica Ortodoxă „Sf. Cuv. Paraschiva Galileea Străulești”",
    "type": "church",
    "subcategory": "christian",
    "lat": 44.4971158,
    "lng": 26.0290689,
    "osmType": "node",
    "tags": {
      "addr:city": "București",
      "addr:housenumber": "3",
      "addr:postcode": "013031",
      "addr:postcode:source": "Date de la Poșta Română, publicate sub Licența pentru Guvernare Deschisă v1.0 la http://date.gov.ro/organization/posta-romana",
      "addr:street": "Strada Nazarcea",
      "amenity": "place_of_worship",
      "denomination": "romanian_orthodox",
      "name": "Biserica Ortodoxă „Sf. Cuv. Paraschiva Galileea Străulești”",
      "religion": "christian",
      "website": "http://galileeastraulesti.protoieria1.ro/despr.html"
    }
  },
  {
    "id": "node-933918714",
    "name": "Biserica Ortodoxă Ghencea – Nașterea Domnului",
    "type": "church",
    "subcategory": "christian",
    "lat": 44.4129019,
    "lng": 26.0605709,
    "osmType": "node",
    "tags": {
      "addr:city": "București",
      "addr:housenumber": "107",
      "addr:postcode": "051044",
      "addr:postcode:source": "Date de la Poșta Română, publicate sub Licența pentru Guvernare Deschisă v1.0 la http://date.gov.ro/organization/posta-romana",
      "addr:street": "Strada Mărgeanului",
      "amenity": "place_of_worship",
      "denomination": "romanian_orthodox",
      "name": "Biserica Ortodoxă Ghencea – Nașterea Domnului",
      "religion": "christian",
      "source": "survey, field survey",
      "source:addr:housenumber": "survey",
      "source:addr:street": "survey"
    }
  },
  {
    "id": "node-937640311",
    "name": "Regina Maria",
    "type": "medical",
    "subcategory": "doctors",
    "lat": 44.4826242,
    "lng": 26.0740003,
    "osmType": "node",
    "tags": {
      "addr:city": "București",
      "addr:country": "RO",
      "addr:housenumber": "1A",
      "addr:postcode": "013681",
      "addr:street": "Șoseaua București-Ploiești",
      "amenity": "doctors",
      "description": "Medical Center",
      "healthcare": "doctor",
      "name": "Regina Maria",
      "note": "Medicina Generala- Medicina Interna- Recoltare Analize",
      "opening_hours": "Mo-Fr 08:00-18:00",
      "operator": "Regina Maria",
      "phone": "021 9268",
      "website": "https://www.reginamaria.ro/"
    }
  },
  {
    "id": "node-938768192",
    "name": "Biserica Înălțarea Domnului",
    "type": "church",
    "subcategory": "christian",
    "lat": 44.4248331,
    "lng": 26.0224533,
    "osmType": "node",
    "tags": {
      "addr:city": "București",
      "addr:housenumber": "7",
      "addr:postcode": "062011",
      "addr:postcode:source": "Date de la Poșta Română, publicate sub Licența pentru Guvernare Deschisă v1.0 la http://date.gov.ro/organization/posta-romana",
      "addr:street": "Aleea Valea Boteni",
      "amenity": "place_of_worship",
      "denomination": "romanian_orthodox",
      "name": "Biserica Înălțarea Domnului",
      "religion": "christian",
      "source:addr:housenumber": "survey",
      "source:addr:street": "survey"
    }
  },
  {
    "id": "node-938819576",
    "name": "Biserica Ortodoxă Nașterea Maicii Domnului – Drumul Taberei",
    "type": "church",
    "subcategory": "christian",
    "lat": 44.4202502,
    "lng": 26.0281629,
    "osmType": "node",
    "tags": {
      "addr:city": "București",
      "addr:housenumber": "12C",
      "addr:postcode": "062057",
      "addr:postcode:source": "Date de la Poșta Română, publicate sub Licența pentru Guvernare Deschisă v1.0 la http://date.gov.ro/organization/posta-romana",
      "addr:street": "Strada Târgu Neamț",
      "amenity": "place_of_worship",
      "denomination": "romanian_orthodox",
      "name": "Biserica Ortodoxă Nașterea Maicii Domnului – Drumul Taberei",
      "religion": "christian",
      "source:addr:housenumber": "survey",
      "source:addr:street": "survey",
      "start_date": "1997"
    }
  },
  {
    "id": "node-938879109",
    "name": "Biserica Ortodoxă „Sfânta Maria - Herăstrău”",
    "type": "church",
    "subcategory": "christian",
    "lat": 44.489852,
    "lng": 26.0930425,
    "osmType": "node",
    "tags": {
      "addr:city": "București",
      "addr:housenumber": "3",
      "addr:postcode": "013985",
      "addr:street": "Strada Trifești",
      "amenity": "place_of_worship",
      "denomination": "romanian_orthodox",
      "is_in:city": "București",
      "is_in:country": "România",
      "name": "Biserica Ortodoxă „Sfânta Maria - Herăstrău”",
      "religion": "christian"
    }
  },
  {
    "id": "node-939770168",
    "name": "Biserica Ortodoxă Spirea Nouă",
    "type": "church",
    "subcategory": "christian",
    "lat": 44.423863,
    "lng": 26.0780903,
    "osmType": "node",
    "tags": {
      "addr:city": "București",
      "addr:housenumber": "59",
      "addr:postcode": "050857",
      "addr:postcode:source": "Date de la Poșta Română, publicate sub Licența pentru Guvernare Deschisă v1.0 la http://date.gov.ro/organization/posta-romana",
      "addr:street": "Strada Puișor",
      "amenity": "place_of_worship",
      "denomination": "romanian_orthodox",
      "name": "Biserica Ortodoxă Spirea Nouă",
      "religion": "christian",
      "source:addr:housenumber": "survey",
      "source:addr:street": "survey"
    }
  },
  {
    "id": "node-940763273",
    "name": "Biserica Ortodoxă Tudor Vladimirescu - Rahova",
    "type": "church",
    "subcategory": "christian",
    "lat": 44.4044329,
    "lng": 26.0577406,
    "osmType": "node",
    "tags": {
      "addr:city": "București",
      "addr:housenumber": "6",
      "addr:postcode": "051045",
      "addr:postcode:source": "Date de la Poșta Română, publicate sub Licența pentru Guvernare Deschisă v1.0 la http://date.gov.ro/organization/posta-romana",
      "addr:street": "Strada Mărgeanului",
      "amenity": "place_of_worship",
      "denomination": "romanian_orthodox",
      "name": "Biserica Ortodoxă Tudor Vladimirescu - Rahova",
      "religion": "christian",
      "source": "survey",
      "source:addr:housenumber": "survey",
      "source:addr:street": "survey",
      "start_date": "1930"
    }
  },
  {
    "id": "node-940800779",
    "name": "Biserica Ortodoxă \"Vovidenia\"",
    "type": "church",
    "subcategory": "christian",
    "lat": 44.3994232,
    "lng": 26.0587911,
    "osmType": "node",
    "tags": {
      "addr:city": "București",
      "addr:housenumber": "56",
      "addr:postcode": "051236",
      "addr:postcode:source": "Date de la Poșta Română, publicate sub Licența pentru Guvernare Deschisă v1.0 la http://date.gov.ro/organization/posta-romana",
      "addr:street": "Strada Garoafei",
      "amenity": "place_of_worship",
      "denomination": "romanian_orthodox",
      "name": "Biserica Ortodoxă \"Vovidenia\"",
      "religion": "christian",
      "source": "survey",
      "source:addr:housenumber": "survey",
      "source:addr:street": "survey"
    }
  },
  {
    "id": "node-947060459",
    "name": "Biserica Ortodoxă Adormirea Maicii Domnului - Giulești",
    "type": "church",
    "subcategory": "christian",
    "lat": 44.4682758,
    "lng": 26.0308373,
    "osmType": "node",
    "tags": {
      "addr:city": "București",
      "addr:housenumber": "236 - 238",
      "addr:postcode": "060256",
      "addr:postcode:source": "Date de la Poșta Română, publicate sub Licența pentru Guvernare Deschisă v1.0 la http://date.gov.ro/organization/posta-romana",
      "addr:street": "Calea Giulești",
      "amenity": "place_of_worship",
      "check_date": "2025-06-03",
      "denomination": "romanian_orthodox",
      "name": "Biserica Ortodoxă Adormirea Maicii Domnului - Giulești",
      "religion": "christian",
      "start_date": "1900"
    }
  },
  {
    "id": "node-950781677",
    "name": "Sinagoga Bet Hamirdaș",
    "type": "church",
    "subcategory": "jewish",
    "lat": 44.4320134,
    "lng": 26.1063319,
    "osmType": "node",
    "tags": {
      "amenity": "place_of_worship",
      "denomination": "jewish",
      "name": "Sinagoga Bet Hamirdaș",
      "name:fr": "Sinagogue Bet Hamirdaș",
      "religion": "jewish",
      "start_date": "1812"
    }
  },
  {
    "id": "node-955132888",
    "name": "Biserica Ortodoxă „Ceauș Radu”",
    "type": "church",
    "subcategory": "christian",
    "lat": 44.4291385,
    "lng": 26.1164966,
    "osmType": "node",
    "tags": {
      "addr:city": "București",
      "addr:housenumber": "8",
      "addr:postcode": "030844",
      "addr:street": "Strada Radu Ceauș",
      "amenity": "place_of_worship",
      "denomination": "romanian_orthodox",
      "is_in:city": "București",
      "is_in:country": "România",
      "name": "Biserica Ortodoxă „Ceauș Radu”",
      "religion": "christian",
      "source": "http://www.crestinortodox.ro/biserici-manastiri/biserica-ceaus-radu-137365.html",
      "start_date": "1757",
      "website": "https://bisericaceausradu.ro/"
    }
  },
  {
    "id": "node-955207931",
    "name": "Biserica Ortodoxă Dudești Cioplea II",
    "type": "church",
    "subcategory": "christian",
    "lat": 44.4158669,
    "lng": 26.1487225,
    "osmType": "node",
    "tags": {
      "addr:city": "București",
      "addr:housenumber": "38 A",
      "addr:postcode": "031755",
      "addr:postcode:source": "Date de la Poșta Română, publicate sub Licența pentru Guvernare Deschisă v1.0 la http://date.gov.ro/organization/posta-romana",
      "addr:street": "Bulevardul Camil Ressu",
      "amenity": "place_of_worship",
      "check_date": "2023-11-07",
      "denomination": "romanian_orthodox",
      "name": "Biserica Ortodoxă Dudești Cioplea II",
      "religion": "christian",
      "start_date": "1957"
    }
  },
  {
    "id": "node-955278065",
    "name": "Biserica Ortodoxă Constantin Brâncoveanu Nouă",
    "type": "church",
    "subcategory": "christian",
    "lat": 44.3833142,
    "lng": 26.1089983,
    "osmType": "node",
    "tags": {
      "addr:city": "București",
      "amenity": "place_of_worship",
      "check_date": "2025-04-27",
      "denomination": "romanian_orthodox",
      "name": "Biserica Ortodoxă Constantin Brâncoveanu Nouă",
      "religion": "christian",
      "start_date": "1997"
    }
  },
  {
    "id": "node-959137490",
    "name": "Școala 181",
    "type": "school",
    "subcategory": "school",
    "lat": 44.4945608,
    "lng": 26.0261258,
    "osmType": "node",
    "tags": {
      "amenity": "school",
      "name": "Școala 181"
    }
  },
  {
    "id": "node-979622170",
    "name": "Professional Klinic",
    "type": "medical",
    "subcategory": "clinic",
    "lat": 44.4321435,
    "lng": 26.1291285,
    "osmType": "node",
    "tags": {
      "amenity": "clinic",
      "healthcare": "clinic",
      "name": "Professional Klinic"
    }
  },
  {
    "id": "node-1077769284",
    "name": "Parohia Ortodoxă Sfântul Nicolae – Malaxa",
    "type": "church",
    "subcategory": "christian",
    "lat": 44.4333876,
    "lng": 26.1905617,
    "osmType": "node",
    "tags": {
      "addr:city": "București",
      "addr:housenumber": "5",
      "addr:postcode": "033075",
      "addr:postcode:source": "Date de la Poșta Română, publicate sub Licența pentru Guvernare Deschisă v1.0 la http://date.gov.ro/organization/posta-romana",
      "addr:street": "Strada Tufănica",
      "amenity": "place_of_worship",
      "denomination": "romanian_orthodox",
      "name": "Parohia Ortodoxă Sfântul Nicolae – Malaxa",
      "religion": "christian",
      "source": "survey, field survey",
      "start_date": "1942"
    }
  },
  {
    "id": "node-1077805582",
    "name": "Grădinița nr. 187",
    "type": "school",
    "subcategory": "kindergarten",
    "lat": 44.4325198,
    "lng": 26.1939968,
    "osmType": "node",
    "tags": {
      "amenity": "kindergarten",
      "name": "Grădinița nr. 187"
    }
  },
  {
    "id": "node-1100416186",
    "name": "Grădinița Ursuletu",
    "type": "school",
    "subcategory": "kindergarten",
    "lat": 44.4899464,
    "lng": 26.0379305,
    "osmType": "node",
    "tags": {
      "amenity": "kindergarten",
      "education": "kindergarten",
      "name": "Grădinița Ursuletu"
    }
  },
  {
    "id": "node-1100418381",
    "name": "Grădinița Ciupercuța",
    "type": "school",
    "subcategory": "kindergarten",
    "lat": 44.4807136,
    "lng": 26.0501529,
    "osmType": "node",
    "tags": {
      "amenity": "kindergarten",
      "name": "Grădinița Ciupercuța"
    }
  },
  {
    "id": "node-1135489604",
    "name": "Facultatea de Inginerie Electrică",
    "type": "school",
    "subcategory": "university",
    "lat": 44.4362074,
    "lng": 26.0458196,
    "osmType": "node",
    "tags": {
      "amenity": "university",
      "education": "university",
      "faculty": "electrical_engineering",
      "internet_access": "yes",
      "internet_access:fee": "no",
      "name": "Facultatea de Inginerie Electrică",
      "operator": "Universitatea Politehnica București"
    }
  },
  {
    "id": "node-1155075920",
    "name": "Clinica Medicală Hypocrat 2000",
    "type": "medical",
    "subcategory": "hospital",
    "lat": 44.4381976,
    "lng": 26.1582115,
    "osmType": "node",
    "tags": {
      "amenity": "hospital",
      "healthcare": "hospital",
      "name": "Clinica Medicală Hypocrat 2000",
      "wheelchair": "yes"
    }
  },
  {
    "id": "node-1170044778",
    "name": "Spitalul Clinic Sfânta Maria",
    "type": "medical",
    "subcategory": "hospital",
    "lat": 44.4564896,
    "lng": 26.0790405,
    "osmType": "node",
    "tags": {
      "addr:city": "București",
      "addr:housenumber": "37-39",
      "addr:street": "Bulevardul Ion Mihalache",
      "amenity": "hospital",
      "healthcare": "hospital",
      "name": "Spitalul Clinic Sfânta Maria",
      "website": "https://spitalsfmaria.ro/"
    }
  },
  {
    "id": "node-1207754042",
    "name": "Hyperclinica MedLife Unirii",
    "type": "medical",
    "subcategory": "clinic",
    "lat": 44.4244721,
    "lng": 26.1031237,
    "osmType": "node",
    "tags": {
      "addr:city": "București",
      "addr:housenumber": "1",
      "addr:street": "Strada Hans Christian Andersen",
      "amenity": "clinic",
      "healthcare": "clinic",
      "name": "Hyperclinica MedLife Unirii"
    }
  },
  {
    "id": "node-1207779582",
    "name": "Medlife",
    "type": "medical",
    "subcategory": "clinic",
    "lat": 44.4649584,
    "lng": 26.054379,
    "osmType": "node",
    "tags": {
      "addr:city": "București",
      "addr:housenumber": "365",
      "addr:postcode": "010719",
      "addr:street": "Calea Griviței",
      "amenity": "clinic",
      "healthcare": "clinic",
      "name": "Medlife",
      "source": "survey"
    }
  },
  {
    "id": "node-1211865828",
    "name": "Mănăstirea catolică „Sfânta Familie”",
    "type": "church",
    "subcategory": "christian",
    "lat": 44.4839532,
    "lng": 26.0440869,
    "osmType": "node",
    "tags": {
      "addr:city": "București",
      "addr:housenumber": "35-37",
      "addr:postcode": "013211",
      "addr:postcode:source": "Date de la Poșta Română, publicate sub Licența pentru Guvernare Deschisă v1.0 la http://date.gov.ro/organization/posta-romana",
      "addr:street": "Strada Jiului",
      "amenity": "place_of_worship",
      "denomination": "roman_catholic",
      "name": "Mănăstirea catolică „Sfânta Familie”",
      "religion": "christian",
      "website": "https://manastireasfantafamilie.wordpress.com/"
    }
  },
  {
    "id": "node-1213247312",
    "name": "pariuri sportive",
    "type": "betting",
    "subcategory": "pariuri sportive",
    "lat": 44.4954653,
    "lng": 26.0307988,
    "osmType": "node",
    "tags": {
      "name": "pariuri sportive",
      "shop": "bookmaker"
    }
  },
  {
    "id": "node-1215723096",
    "name": "Biserica Ortodoxă „16 Februarie”",
    "type": "church",
    "subcategory": "christian",
    "lat": 44.4882733,
    "lng": 26.0229883,
    "osmType": "node",
    "tags": {
      "addr:city": "București",
      "addr:street": "Strada Hotin",
      "amenity": "place_of_worship",
      "denomination": "romanian_orthodox",
      "is_in:city": "București",
      "is_in:country": "România",
      "name": "Biserica Ortodoxă „16 Februarie”",
      "religion": "christian"
    }
  },
  {
    "id": "node-1290688603",
    "name": "AIS Clinics & Hospitals",
    "type": "medical",
    "subcategory": "clinic",
    "lat": 44.3999106,
    "lng": 26.0482604,
    "osmType": "node",
    "tags": {
      "addr:city": "București",
      "addr:housenumber": "144",
      "addr:postcode": "051523",
      "addr:street": "Șoseaua Alexandriei",
      "amenity": "clinic",
      "healthcare": "clinic",
      "name": "AIS Clinics & Hospitals",
      "source:addr:housenumber": "survey",
      "source:addr:street": "survey"
    }
  },
  {
    "id": "node-1306485698",
    "name": "ambulatory",
    "type": "medical",
    "subcategory": "clinic",
    "lat": 44.4452897,
    "lng": 26.0453507,
    "osmType": "node",
    "tags": {
      "addr:city": "București",
      "addr:housenumber": "319",
      "addr:postcode": "060044",
      "addr:street": "Splaiul Independenței",
      "amenity": "clinic",
      "healthcare": "clinic",
      "name": "ambulatory",
      "opening_hours": "Mo-Fr 08:00-20:00",
      "operator": "Regina Maria",
      "operator:type": "private",
      "wheelchair": "yes"
    }
  },
  {
    "id": "node-1369034400",
    "name": "Lasermed Medical Center",
    "type": "medical",
    "subcategory": "clinic",
    "lat": 44.4223422,
    "lng": 26.0404502,
    "osmType": "node",
    "tags": {
      "amenity": "clinic",
      "description": "Centrul medical Lasermed- Dermatologie, Estetica, Chirurgie Laser, medicina de familie. Dr. Bogdan Dimitrie Niculae",
      "healthcare": "clinic",
      "name": "Lasermed Medical Center",
      "opening_hours": "Mo-Fr 08:00-20:00; Su 08:00-14:00",
      "phone": "0214135250",
      "website": "https://www.lasermed.ro/"
    }
  },
  {
    "id": "node-1504208854",
    "name": "Grădinița nr. 7",
    "type": "school",
    "subcategory": "kindergarten",
    "lat": 44.461112,
    "lng": 26.118792,
    "osmType": "node",
    "tags": {
      "addr:city": "București",
      "amenity": "kindergarten",
      "name": "Grădinița nr. 7"
    }
  },
  {
    "id": "node-1544915641",
    "name": "Paradisul Copiilor",
    "type": "school",
    "subcategory": "kindergarten",
    "lat": 44.4633382,
    "lng": 26.1030019,
    "osmType": "node",
    "tags": {
      "addr:city": "București",
      "addr:housename": "Gradinița",
      "addr:housenumber": "25",
      "addr:street": "Strada Serghei Vasilievici Rahmaninov",
      "amenity": "kindergarten",
      "check_date": "2025-03-31",
      "name": "Paradisul Copiilor"
    }
  },
  {
    "id": "node-1636785369",
    "name": "Facultatea de Geografie",
    "type": "school",
    "subcategory": "university",
    "lat": 44.4360329,
    "lng": 26.1017646,
    "osmType": "node",
    "tags": {
      "addr:city": "București",
      "amenity": "university",
      "check_date": "2024-06-14",
      "is_in:city": "București",
      "name": "Facultatea de Geografie",
      "name:de": "Fakultät für Geographie",
      "name:en": "Faculty of Geography"
    }
  },
  {
    "id": "node-1722794469",
    "name": "Clinica Puls Medica - Teiul Doamnei",
    "type": "medical",
    "subcategory": "clinic",
    "lat": 44.457583,
    "lng": 26.1292124,
    "osmType": "node",
    "tags": {
      "addr:city": "București",
      "addr:housenumber": "2",
      "addr:postcode": "023581",
      "addr:street": "Strada Teiul Doamnei",
      "amenity": "clinic",
      "contact:email": "tei@pulsmedica.ro",
      "contact:website": "http://www.pulsmedica.ro",
      "healthcare": "clinic",
      "name": "Clinica Puls Medica - Teiul Doamnei",
      "opening_hours": "Mo,We,Fr 08:00-13:00; Tu,Th 13:00-18:00"
    }
  },
  {
    "id": "node-1729617154",
    "name": "Admiral",
    "type": "gaming",
    "subcategory": "Admiral",
    "lat": 44.4346818,
    "lng": 26.0884857,
    "osmType": "node",
    "tags": {
      "amenity": "casino",
      "brand": "Admiral",
      "brand:wikidata": "Q25205850",
      "gambling": "slot_machines",
      "leisure": "adult_gaming_centre",
      "name": "Admiral"
    }
  },
  {
    "id": "node-1743686924",
    "name": "Expert Implant",
    "type": "medical",
    "subcategory": "doctors",
    "lat": 44.4651766,
    "lng": 26.1079673,
    "osmType": "node",
    "tags": {
      "addr:city": "București",
      "addr:housenumber": "15A",
      "addr:postcode": "020262",
      "addr:postcode:source": "Date de la Poșta Română, publicate sub Licența pentru Guvernare Deschisă v1.0 la http://date.gov.ro/organization/posta-romana",
      "addr:street": "Strada Piotr Ilici Ceaikovski",
      "amenity": "doctors",
      "email": "contact@expertimplant.ro",
      "healthcare": "doctor",
      "internet_access": "wlan",
      "name": "Expert Implant",
      "opening_hours": "Mo-Fr 12:00-19:00",
      "phone": "040744543000",
      "website": "https://www.expertimplant.ro/"
    }
  },
  {
    "id": "node-1754330697",
    "name": "Facultatea de Istorie",
    "type": "school",
    "subcategory": "university",
    "lat": 44.435416,
    "lng": 26.1006051,
    "osmType": "node",
    "tags": {
      "addr:city": "București",
      "addr:housenumber": "4-12",
      "addr:street": "Bulevardul Regina Elisabeta",
      "amenity": "university",
      "contact:instagram": "istorie.unibuc",
      "is_in:city": "București",
      "name": "Facultatea de Istorie",
      "name:de": "Fakultät für Geschichte",
      "name:en": "Faculty of History",
      "name:ro": "Facultatea de Istorie"
    }
  },
  {
    "id": "node-1754330701",
    "name": "Facultatea de Matematică și Informatică",
    "type": "school",
    "subcategory": "university",
    "lat": 44.4340339,
    "lng": 26.040829,
    "osmType": "node",
    "tags": {
      "addr:city": "București",
      "addr:housenumber": "15G",
      "addr:street": "Bulevardul Iuliu Maniu",
      "amenity": "university",
      "check_date": "2026-02-09",
      "description": "Faculty of Mathematics and Computer Science of the University of Bucharest.",
      "email": "secretariat@fmi.unibuc.ro",
      "fax": "+40 21 315 6990",
      "internet_access": "yes",
      "internet_access:fee": "customers",
      "internet_access:ssid": "eduroam",
      "name": "Facultatea de Matematică și Informatică",
      "name:de": "Fakultät für Mathematik und Informatik",
      "name:en": "Faculty of Mathematics and Computer Science",
      "name:ro": "Facultatea de Matematică și Informatică",
      "note": "Facultatea s-a mutat temporar, din septembrie 2025, în Politehnica Business Tower, ca urmare a lucrărilor de renovare și modernizare a sediului din Palatul Universității. Durata estimată a lucrărilor este de un an și jumătate",
      "operator": "Ministry of Education and Research",
      "operator:type": "public",
      "website": "https://fmi.unibuc.ro",
      "wheelchair": "yes"
    }
  },
  {
    "id": "node-1768901380",
    "name": "Ambulatoriul de specialitate al Spitalului de copii Grigore Alexandrescu",
    "type": "medical",
    "subcategory": "clinic",
    "lat": 44.4505778,
    "lng": 26.0992817,
    "osmType": "node",
    "tags": {
      "addr:city": "București",
      "addr:housenumber": "58",
      "addr:street": "Calea Dorobanților",
      "alt_name": "Ambulatoriul de Specialitați \"Dorobanți\"",
      "healthcare": "clinic",
      "healthcare:speciality": "paediatrics",
      "name": "Ambulatoriul de specialitate al Spitalului de copii Grigore Alexandrescu",
      "website": "https://spitalulgrigorealexandrescu.ro/",
      "wheelchair": "limited"
    }
  },
  {
    "id": "node-1787869752",
    "name": "Bonus",
    "type": "gaming",
    "subcategory": "Bonus",
    "lat": 44.4619847,
    "lng": 26.1188384,
    "osmType": "node",
    "tags": {
      "amenity": "casino",
      "name": "Bonus"
    }
  },
  {
    "id": "node-1787869835",
    "name": "Fortuna",
    "type": "betting",
    "subcategory": "Fortuna",
    "lat": 44.4602879,
    "lng": 26.1145915,
    "osmType": "node",
    "tags": {
      "addr:city": "București",
      "amenity": "gambling",
      "name": "Fortuna"
    }
  },
  {
    "id": "node-1814937273",
    "name": "Manhattan",
    "type": "betting",
    "subcategory": "Manhattan",
    "lat": 44.4433671,
    "lng": 26.1486924,
    "osmType": "node",
    "tags": {
      "addr:city": "București",
      "addr:housenumber": "146",
      "addr:postcode": "021647",
      "addr:street": "Șoseaua Pantelimon",
      "amenity": "gambling",
      "is_in:city": "București",
      "name": "Manhattan"
    }
  },
  {
    "id": "node-1814987101",
    "name": "Million Dollars Club",
    "type": "gaming",
    "subcategory": "Million Dollars Club",
    "lat": 44.432534,
    "lng": 26.13906,
    "osmType": "node",
    "tags": {
      "amenity": "nightclub",
      "name": "Million Dollars Club"
    }
  },
  {
    "id": "node-1820022976",
    "name": "MaxBet",
    "type": "gaming",
    "subcategory": "Max Bet Jocuri Electronice SRL",
    "lat": 44.4575239,
    "lng": 26.1307789,
    "osmType": "node",
    "tags": {
      "addr:city": "București",
      "addr:housenumber": "12",
      "addr:postcode": "021175",
      "addr:street": "Șoseaua Colentina",
      "alt_name": "Maxbet",
      "amenity": "casino",
      "contact:email": "office@maxbetromania.com",
      "contact:phone": "+40 21 323 2174;+40 31 405 2949",
      "contact:website": "https://maxbetgroup.ro",
      "is_in:city": "București",
      "name": "MaxBet",
      "name:ro": "MaxBet",
      "opening_hours": "Mo-Su 00:00-24:00",
      "operator": "Max Bet Jocuri Electronice SRL",
      "wheelchair": "limited"
    }
  },
  {
    "id": "node-1820023017",
    "name": "Grădinița Sakura",
    "type": "school",
    "subcategory": "kindergarten",
    "lat": 44.4549487,
    "lng": 26.1335892,
    "osmType": "node",
    "tags": {
      "amenity": "kindergarten",
      "name": "Grădinița Sakura"
    }
  },
  {
    "id": "node-1820148419",
    "name": "Fără nume",
    "type": "medical",
    "subcategory": "doctors",
    "lat": 44.4603098,
    "lng": 26.1305493,
    "osmType": "node",
    "tags": {
      "amenity": "doctors"
    }
  },
  {
    "id": "node-1911337554",
    "name": "Facultatea de Limbi și Literaturi Străine",
    "type": "school",
    "subcategory": "university",
    "lat": 44.4358915,
    "lng": 26.1011326,
    "osmType": "node",
    "tags": {
      "addr:city": "București",
      "addr:housenumber": "5-7",
      "addr:postcode": "010017",
      "addr:street": "Strada Edgar Quinet",
      "amenity": "university",
      "is_in:city": "București",
      "name": "Facultatea de Limbi și Literaturi Străine",
      "name:de": "Fakultät für Sprach- und Literaturwissenschaften",
      "name:en": "Faculty of Foreign Languages and Literatures",
      "name:ro": "Facultatea de Limbi și Literaturi Străine"
    }
  },
  {
    "id": "node-1935441466",
    "name": "Fără nume",
    "type": "medical",
    "subcategory": "doctors",
    "lat": 44.4669255,
    "lng": 26.1385017,
    "osmType": "node",
    "tags": {
      "amenity": "doctors"
    }
  },
  {
    "id": "node-1935696088",
    "name": "Universitatea Lumina",
    "type": "school",
    "subcategory": "university",
    "lat": 44.4677092,
    "lng": 26.1428584,
    "osmType": "node",
    "tags": {
      "amenity": "university",
      "name": "Universitatea Lumina"
    }
  },
  {
    "id": "node-1942633310",
    "name": "Biserica Ortodoxă „Sfânta Fecioară Maria”",
    "type": "church",
    "subcategory": "christian",
    "lat": 44.4208265,
    "lng": 26.1347901,
    "osmType": "node",
    "tags": {
      "addr:city": "București",
      "addr:postcode": "031433",
      "addr:street": "Strada Stan Județul",
      "amenity": "place_of_worship",
      "denomination": "romanian_orthodox",
      "is_in:city": "București",
      "is_in:country": "România",
      "name": "Biserica Ortodoxă „Sfânta Fecioară Maria”",
      "religion": "christian",
      "website": "https://www.sfantafecioaramaria.ro/"
    }
  },
  {
    "id": "node-1982919560",
    "name": "Biserica „Înălțarea Sfintei Cruci”",
    "type": "church",
    "subcategory": "christian",
    "lat": 44.4663511,
    "lng": 26.1495325,
    "osmType": "node",
    "tags": {
      "addr:city": "București",
      "addr:street": "Strada Balotului",
      "amenity": "place_of_worship",
      "denomination": "romanian_orthodox",
      "name": "Biserica „Înălțarea Sfintei Cruci”",
      "religion": "christian"
    }
  },
  {
    "id": "node-2012855430",
    "name": "Montessori Kindergarden of Bucharest",
    "type": "school",
    "subcategory": "kindergarten",
    "lat": 44.435573,
    "lng": 26.1290315,
    "osmType": "node",
    "tags": {
      "amenity": "kindergarten",
      "name": "Montessori Kindergarden of Bucharest",
      "source": "Bing"
    }
  },
  {
    "id": "node-2077283669",
    "name": "Spitalul Medicover",
    "type": "medical",
    "subcategory": "hospital",
    "lat": 44.4899542,
    "lng": 26.0916346,
    "osmType": "node",
    "tags": {
      "addr:city": "București",
      "addr:country": "RO",
      "addr:street": "Strada Pechea",
      "alt_name": "Medicover Hospital Pipera;Maternitatea Medicover",
      "amenity": "hospital",
      "emergency": "yes",
      "name": "Spitalul Medicover",
      "wheelchair": "yes"
    }
  },
  {
    "id": "node-2263259789",
    "name": "Grădinița nr. 225 - Veseliei",
    "type": "school",
    "subcategory": "kindergarten",
    "lat": 44.386207,
    "lng": 26.1070802,
    "osmType": "node",
    "tags": {
      "amenity": "kindergarten",
      "education": "kindergarten",
      "name": "Grădinița nr. 225 - Veseliei"
    }
  },
  {
    "id": "node-2288442046",
    "name": "Iepurașul Bocănilă",
    "type": "school",
    "subcategory": "kindergarten",
    "lat": 44.3881996,
    "lng": 26.1166587,
    "osmType": "node",
    "tags": {
      "addr:city": "București",
      "amenity": "kindergarten",
      "name": "Iepurașul Bocănilă"
    }
  },
  {
    "id": "node-2290861426",
    "name": "Romar Medical Berceni",
    "type": "medical",
    "subcategory": "doctors",
    "lat": 44.3886516,
    "lng": 26.1171887,
    "osmType": "node",
    "tags": {
      "addr:city": "București",
      "addr:housenumber": "2",
      "addr:postcode": "041733",
      "addr:street": "Bulevardul Alexandru Obregia",
      "amenity": "doctors",
      "healthcare": "laboratory",
      "name": "Romar Medical Berceni",
      "phone": "+40727727145",
      "source": "survey"
    }
  },
  {
    "id": "node-2294097546",
    "name": "Grădinița nr. 135",
    "type": "school",
    "subcategory": "kindergarten",
    "lat": 44.4560035,
    "lng": 26.1267855,
    "osmType": "node",
    "tags": {
      "amenity": "kindergarten",
      "check_date": "2025-07-01",
      "name": "Grădinița nr. 135"
    }
  },
  {
    "id": "node-2318568576",
    "name": "Cartier Fortuna",
    "type": "betting",
    "subcategory": "Cartier Fortuna",
    "lat": 44.3897407,
    "lng": 26.0054709,
    "osmType": "node",
    "tags": {
      "bus": "yes",
      "name": "Cartier Fortuna",
      "public_transport": "stop_position"
    }
  },
  {
    "id": "node-2353885037",
    "name": "Școala Generală Nr. 109 Șerban Vodă",
    "type": "school",
    "subcategory": "school",
    "lat": 44.388723,
    "lng": 26.0945414,
    "osmType": "node",
    "tags": {
      "amenity": "school",
      "name": "Școala Generală Nr. 109 Șerban Vodă"
    }
  },
  {
    "id": "node-2393439888",
    "name": "Grădinița de copii nr. 270",
    "type": "school",
    "subcategory": "kindergarten",
    "lat": 44.4054238,
    "lng": 26.0641319,
    "osmType": "node",
    "tags": {
      "amenity": "kindergarten",
      "name": "Grădinița de copii nr. 270"
    }
  },
  {
    "id": "node-2394901660",
    "name": "Stanleybet",
    "type": "betting",
    "subcategory": "Stanleybet",
    "lat": 44.4627099,
    "lng": 26.120709,
    "osmType": "node",
    "tags": {
      "brand": "Stanleybet",
      "brand:wikidata": "Q25466489",
      "name": "Stanleybet",
      "shop": "bookmaker"
    }
  },
  {
    "id": "node-2422127743",
    "name": "Cabinet Medical",
    "type": "medical",
    "subcategory": "doctors",
    "lat": 44.4211542,
    "lng": 26.0227518,
    "osmType": "node",
    "tags": {
      "amenity": "doctors",
      "name": "Cabinet Medical"
    }
  },
  {
    "id": "node-2422127846",
    "name": "Cabinet Medical",
    "type": "medical",
    "subcategory": "doctors",
    "lat": 44.4224266,
    "lng": 26.015553,
    "osmType": "node",
    "tags": {
      "amenity": "doctors",
      "name": "Cabinet Medical"
    }
  },
  {
    "id": "node-2422522668",
    "name": "Școala Gimnazială nr. 155",
    "type": "school",
    "subcategory": "school",
    "lat": 44.4202375,
    "lng": 26.0243309,
    "osmType": "node",
    "tags": {
      "addr:city": "București",
      "addr:housenumber": "6",
      "addr:postcode": "062084",
      "addr:street": "Strada Pașcani",
      "amenity": "school",
      "grades": "0-8",
      "name": "Școala Gimnazială nr. 155",
      "old_name": "Școala Generală nr. 155"
    }
  },
  {
    "id": "node-2422522671",
    "name": "Școala Gimnazială nr. 169",
    "type": "school",
    "subcategory": "school",
    "lat": 44.4215025,
    "lng": 26.0247676,
    "osmType": "node",
    "tags": {
      "addr:city": "București",
      "addr:housenumber": "2",
      "addr:postcode": "062084",
      "addr:street": "Strada Pașcani",
      "amenity": "school",
      "grades": "0-8",
      "name": "Școala Gimnazială nr. 169",
      "old_name": "Școala Generală nr. 169"
    }
  },
  {
    "id": "node-2423811323",
    "name": "Cabinet Medical",
    "type": "medical",
    "subcategory": "doctors",
    "lat": 44.4415534,
    "lng": 26.1027477,
    "osmType": "node",
    "tags": {
      "amenity": "doctors",
      "name": "Cabinet Medical"
    }
  },
  {
    "id": "node-2423813955",
    "name": "Grădinița nr. 203 program prelungit",
    "type": "school",
    "subcategory": "kindergarten",
    "lat": 44.4412058,
    "lng": 26.1027445,
    "osmType": "node",
    "tags": {
      "amenity": "kindergarten",
      "check_date": "2023-06-29",
      "name": "Grădinița nr. 203 program prelungit",
      "source:name": "survey"
    }
  },
  {
    "id": "node-2441256932",
    "name": "Grădinița nr. 7",
    "type": "school",
    "subcategory": "kindergarten",
    "lat": 44.4678869,
    "lng": 26.1154595,
    "osmType": "node",
    "tags": {
      "amenity": "kindergarten",
      "name": "Grădinița nr. 7",
      "source": "survey"
    }
  },
  {
    "id": "node-2441258024",
    "name": "Grădinița nr. 138 cu program prelungit",
    "type": "school",
    "subcategory": "kindergarten",
    "lat": 44.4513119,
    "lng": 26.106155,
    "osmType": "node",
    "tags": {
      "amenity": "kindergarten",
      "name": "Grădinița nr. 138 cu program prelungit",
      "source": "survey"
    }
  },
  {
    "id": "node-2441258025",
    "name": "Școala nr. 24",
    "type": "school",
    "subcategory": "school",
    "lat": 44.4511428,
    "lng": 26.1065792,
    "osmType": "node",
    "tags": {
      "amenity": "school",
      "name": "Școala nr. 24",
      "source": "survey"
    }
  },
  {
    "id": "node-2441331077",
    "name": "Regina Maria",
    "type": "medical",
    "subcategory": "clinic",
    "lat": 44.4603392,
    "lng": 26.1357295,
    "osmType": "node",
    "tags": {
      "addr:city": "București",
      "addr:housenumber": "135",
      "addr:street": "Strada Doamna Ghica",
      "amenity": "clinic",
      "healthcare": "clinic",
      "name": "Regina Maria",
      "source:name": "local knowledge"
    }
  },
  {
    "id": "node-2441431261",
    "name": "Grădinița Nr. 71",
    "type": "school",
    "subcategory": "kindergarten",
    "lat": 44.4177162,
    "lng": 26.1589551,
    "osmType": "node",
    "tags": {
      "amenity": "kindergarten",
      "check_date": "2025-07-09",
      "name": "Grădinița Nr. 71"
    }
  },
  {
    "id": "node-2442895941",
    "name": "Ioanid",
    "type": "school",
    "subcategory": "kindergarten",
    "lat": 44.4456531,
    "lng": 26.1036979,
    "osmType": "node",
    "tags": {
      "amenity": "kindergarten",
      "check_date": "2023-04-15",
      "name": "Ioanid"
    }
  },
  {
    "id": "node-2443758874",
    "name": "Fortuna Palace",
    "type": "gaming",
    "subcategory": "Fortuna Palace",
    "lat": 44.4366215,
    "lng": 26.1012233,
    "osmType": "node",
    "tags": {
      "addr:city": "București",
      "amenity": "casino",
      "name": "Fortuna Palace",
      "source": "survey",
      "wheelchair": "no"
    }
  },
  {
    "id": "node-2444951809",
    "name": "Dr. Pătrașcu, medic de familie",
    "type": "medical",
    "subcategory": "doctors",
    "lat": 44.4553786,
    "lng": 26.1273105,
    "osmType": "node",
    "tags": {
      "amenity": "doctors",
      "name": "Dr. Pătrașcu, medic de familie",
      "source": "survey"
    }
  },
  {
    "id": "node-2445618808",
    "name": "Eco Diagnosis",
    "type": "medical",
    "subcategory": "doctors",
    "lat": 44.4189925,
    "lng": 26.1385579,
    "osmType": "node",
    "tags": {
      "addr:city": "București",
      "addr:housenumber": "10",
      "addr:postcode": "031818",
      "addr:street": "Aleea Școlarilor",
      "amenity": "doctors",
      "healthcare": "doctor",
      "name": "Eco Diagnosis",
      "opening_hours": "Mo-Fr 09:00-18:00",
      "phone": "+40 21 344 3500",
      "source": "survey",
      "website": "https://www.ecodiagnosis.ro/"
    }
  },
  {
    "id": "node-2447999384",
    "name": "Grădinița Nr. 132 \"Ghiocel\"",
    "type": "school",
    "subcategory": "kindergarten",
    "lat": 44.449664,
    "lng": 26.1092113,
    "osmType": "node",
    "tags": {
      "amenity": "kindergarten",
      "name": "Grădinița Nr. 132 \"Ghiocel\"",
      "source": "survey"
    }
  },
  {
    "id": "node-2449754938",
    "name": "Lexis școli de limbi străine",
    "type": "school",
    "subcategory": "school",
    "lat": 44.446211,
    "lng": 26.1019992,
    "osmType": "node",
    "tags": {
      "amenity": "school",
      "name": "Lexis școli de limbi străine",
      "source": "survey"
    }
  },
  {
    "id": "node-2449889477",
    "name": "Universitatea Populară \"Ioan I. Dalles\"",
    "type": "school",
    "subcategory": "university",
    "lat": 44.4381254,
    "lng": 26.101366,
    "osmType": "node",
    "tags": {
      "addr:city": "București",
      "addr:postcode": "010052",
      "addr:street": "Bulevardul Nicolae Bălcescu",
      "amenity": "university",
      "check_date": "2024-05-15",
      "name": "Universitatea Populară \"Ioan I. Dalles\"",
      "source": "survey"
    }
  },
  {
    "id": "node-2450415606",
    "name": "Ava Clinique",
    "type": "medical",
    "subcategory": "clinic",
    "lat": 44.4820733,
    "lng": 26.0471828,
    "osmType": "node",
    "tags": {
      "amenity": "clinic",
      "name": "Ava Clinique",
      "source": "survey"
    }
  },
  {
    "id": "node-2454165448",
    "name": "Colegiul Preuniversitar \"Dr. I. Cantacuzino\"",
    "type": "school",
    "subcategory": "college",
    "lat": 44.4550588,
    "lng": 26.14417,
    "osmType": "node",
    "tags": {
      "amenity": "college",
      "name": "Colegiul Preuniversitar \"Dr. I. Cantacuzino\"",
      "source": "survey"
    }
  },
  {
    "id": "node-2455604720",
    "name": "Cabinet Medical",
    "type": "medical",
    "subcategory": "doctors",
    "lat": 44.418445,
    "lng": 26.0181475,
    "osmType": "node",
    "tags": {
      "amenity": "doctors",
      "name": "Cabinet Medical",
      "source": "survey"
    }
  },
  {
    "id": "node-2455604752",
    "name": "Cabinet Medicină de Faminie",
    "type": "medical",
    "subcategory": "doctors",
    "lat": 44.4188642,
    "lng": 26.0181289,
    "osmType": "node",
    "tags": {
      "amenity": "doctors",
      "name": "Cabinet Medicină de Faminie",
      "source": "survey"
    }
  },
  {
    "id": "node-2456512001",
    "name": "Universitatea Nicolae Titulescu",
    "type": "school",
    "subcategory": "university",
    "lat": 44.4145898,
    "lng": 26.1142262,
    "osmType": "node",
    "tags": {
      "amenity": "university",
      "name": "Universitatea Nicolae Titulescu",
      "wikidata": "Q3551461"
    }
  },
  {
    "id": "node-2459587268",
    "name": "Centrul socio-medical \"Sfântul Spiridon Vechi\"",
    "type": "medical",
    "subcategory": "clinic",
    "lat": 44.428916,
    "lng": 26.0956821,
    "osmType": "node",
    "tags": {
      "addr:city": "București",
      "addr:housenumber": "5-7",
      "addr:postcode": "040012",
      "addr:postcode:source": "Date de la Poșta Română, publicate sub Licența pentru Guvernare Deschisă v1.0 la http://date.gov.ro/organization/posta-romana",
      "addr:street": "Piața Națiunile Unite",
      "amenity": "clinic",
      "healthcare": "clinic",
      "name": "Centrul socio-medical \"Sfântul Spiridon Vechi\"",
      "phone": "+4021 335 1378",
      "source:addr:street": "survey",
      "start_date": "2007",
      "website": "https://clinicasfspiridon.ro/"
    }
  },
  {
    "id": "node-2459587269",
    "name": "Clinica \"Nadia Comăneci\"",
    "type": "medical",
    "subcategory": "clinic",
    "lat": 44.4291713,
    "lng": 26.0955211,
    "osmType": "node",
    "tags": {
      "addr:city": "București",
      "addr:housenumber": "5-7",
      "addr:postcode": "040012",
      "addr:postcode:source": "Date de la Poșta Română, publicate sub Licența pentru Guvernare Deschisă v1.0 la http://date.gov.ro/organization/posta-romana",
      "addr:street": "Piața Națiunile Unite",
      "amenity": "clinic",
      "healthcare": "clinic",
      "name": "Clinica \"Nadia Comăneci\"",
      "source:addr:street": "survey",
      "start_date": "2009"
    }
  },
  {
    "id": "node-2460684944",
    "name": "Grădinița \"Căsuța lui Andrei\"",
    "type": "school",
    "subcategory": "kindergarten",
    "lat": 44.4458868,
    "lng": 26.1343013,
    "osmType": "node",
    "tags": {
      "amenity": "kindergarten",
      "check_date": "2023-11-13",
      "name": "Grădinița \"Căsuța lui Andrei\"",
      "source": "survey"
    }
  },
  {
    "id": "node-2461396710",
    "name": "Grădinița Confort City",
    "type": "school",
    "subcategory": "kindergarten",
    "lat": 44.388913,
    "lng": 26.2029072,
    "osmType": "node",
    "tags": {
      "amenity": "kindergarten",
      "name": "Grădinița Confort City"
    }
  },
  {
    "id": "node-2462561157",
    "name": "Facultatea de Chimie",
    "type": "school",
    "subcategory": "university",
    "lat": 44.43552,
    "lng": 26.1010332,
    "osmType": "node",
    "tags": {
      "addr:city": "București",
      "amenity": "university",
      "is_in:city": "București",
      "name": "Facultatea de Chimie",
      "name:de": "Fakultät für Chemie",
      "name:en": "Faculty of Chemistry",
      "source": "survey"
    }
  },
  {
    "id": "node-2463052715",
    "name": "Colegiul Tehnic \"Miron Nicolescu\"",
    "type": "school",
    "subcategory": "school",
    "lat": 44.3698924,
    "lng": 26.13932,
    "osmType": "node",
    "tags": {
      "amenity": "school",
      "name": "Colegiul Tehnic \"Miron Nicolescu\"",
      "source": "survey"
    }
  },
  {
    "id": "node-2463356683",
    "name": "Grădinița nr. 231 A",
    "type": "school",
    "subcategory": "kindergarten",
    "lat": 44.4202334,
    "lng": 26.1736707,
    "osmType": "node",
    "tags": {
      "amenity": "kindergarten",
      "name": "Grădinița nr. 231 A",
      "source": "survey"
    }
  },
  {
    "id": "node-2481594474",
    "name": "Biserica Creștină după Evanghelie \"Izbânda\"",
    "type": "church",
    "subcategory": "christian",
    "lat": 44.4583133,
    "lng": 26.0471726,
    "osmType": "node",
    "tags": {
      "addr:city": "București",
      "addr:housenumber": "23",
      "addr:postcode": "060463",
      "addr:postcode:source": "Date de la Poșta Română, publicate sub Licența pentru Guvernare Deschisă v1.0 la http://date.gov.ro/organization/posta-romana",
      "addr:street": "Strada Nicolae Oncescu",
      "amenity": "place_of_worship",
      "denomination": "brethren",
      "name": "Biserica Creștină după Evanghelie \"Izbânda\"",
      "religion": "christian",
      "website": "https://www.izbanda.ro/"
    }
  },
  {
    "id": "node-2485364399",
    "name": "Grădinița Yuki",
    "type": "school",
    "subcategory": "kindergarten",
    "lat": 44.3939934,
    "lng": 26.1077816,
    "osmType": "node",
    "tags": {
      "amenity": "kindergarten",
      "name": "Grădinița Yuki",
      "source": "survey",
      "website": "www.yuki.ro"
    }
  },
  {
    "id": "node-2485367957",
    "name": "Sebastian Centru Medical",
    "type": "medical",
    "subcategory": "clinic",
    "lat": 44.396274,
    "lng": 26.1084654,
    "osmType": "node",
    "tags": {
      "amenity": "clinic",
      "healthcare": "clinic",
      "name": "Sebastian Centru Medical",
      "source": "survey"
    }
  },
  {
    "id": "node-2485614281",
    "name": "Clubul Școlar Sportiv nr. 2",
    "type": "school",
    "subcategory": "school",
    "lat": 44.4441994,
    "lng": 26.1318677,
    "osmType": "node",
    "tags": {
      "amenity": "school",
      "check_date": "2024-05-10",
      "name": "Clubul Școlar Sportiv nr. 2",
      "source:amenity": "survey"
    }
  },
  {
    "id": "node-2488190602",
    "name": "Grădinița nr. 257 \"Alice\"",
    "type": "school",
    "subcategory": "kindergarten",
    "lat": 44.4430069,
    "lng": 26.1088881,
    "osmType": "node",
    "tags": {
      "amenity": "kindergarten",
      "check_date": "2023-11-08",
      "name": "Grădinița nr. 257 \"Alice\"",
      "source": "survey"
    }
  },
  {
    "id": "node-2495692805",
    "name": "Grădinița Nr. 36",
    "type": "school",
    "subcategory": "kindergarten",
    "lat": 44.4440471,
    "lng": 26.1549476,
    "osmType": "node",
    "tags": {
      "amenity": "kindergarten",
      "name": "Grădinița Nr. 36"
    }
  },
  {
    "id": "node-2495694242",
    "name": "International British School of Bucharest",
    "type": "school",
    "subcategory": "school",
    "lat": 44.4391405,
    "lng": 26.1316493,
    "osmType": "node",
    "tags": {
      "amenity": "school",
      "check_date": "2025-10-04",
      "name": "International British School of Bucharest",
      "wikidata": "Q6048855",
      "wikipedia": "en:International British School of Bucharest"
    }
  },
  {
    "id": "node-2496365087",
    "name": "Clinica Eminescu 100",
    "type": "medical",
    "subcategory": "clinic",
    "lat": 44.4479236,
    "lng": 26.1056485,
    "osmType": "node",
    "tags": {
      "amenity": "clinic",
      "name": "Clinica Eminescu 100",
      "opening_hours": "Mo-Fr 08:00-21:00; Sa 08:00-16:00",
      "wheelchair": "limited"
    }
  },
  {
    "id": "node-2496375292",
    "name": "Dacia Medical Center",
    "type": "medical",
    "subcategory": "clinic",
    "lat": 44.4462089,
    "lng": 26.1083877,
    "osmType": "node",
    "tags": {
      "addr:city": "București",
      "addr:housenumber": "101",
      "addr:postcode": "020054",
      "addr:postcode:source": "Date de la Poșta Română, publicate sub Licența pentru Guvernare Deschisă v1.0 la http://date.gov.ro/organization/posta-romana",
      "addr:street": "Bulevardul Dacia",
      "amenity": "clinic",
      "healthcare": "clinic",
      "name": "Dacia Medical Center",
      "opening_hours:signed": "no",
      "source": "survey",
      "wheelchair": "limited"
    }
  },
  {
    "id": "node-2498560749",
    "name": "Facultatea de Medicină Dentară",
    "type": "school",
    "subcategory": "university",
    "lat": 44.4357348,
    "lng": 26.0852548,
    "osmType": "node",
    "tags": {
      "addr:city": "București",
      "addr:country": "RO",
      "addr:housenumber": "17-21",
      "addr:postcode": "010221",
      "addr:street": "Calea Plevnei",
      "alt_name": "Facultatea de Stomatologie",
      "amenity": "university",
      "name": "Facultatea de Medicină Dentară"
    }
  },
  {
    "id": "node-2498560750",
    "name": "Facultatea de Moașe și Asistență Medicală",
    "type": "school",
    "subcategory": "university",
    "lat": 44.4345844,
    "lng": 26.0699824,
    "osmType": "node",
    "tags": {
      "amenity": "university",
      "check_date": "2024-10-12",
      "is_in": "București",
      "name": "Facultatea de Moașe și Asistență Medicală"
    }
  },
  {
    "id": "node-2498871125",
    "name": "Policlinica Cotroceni",
    "type": "medical",
    "subcategory": "clinic",
    "lat": 44.4340779,
    "lng": 26.0728539,
    "osmType": "node",
    "tags": {
      "addr:street": "Bulevardul Eroii Sanitari",
      "amenity": "clinic",
      "name": "Policlinica Cotroceni"
    }
  },
  {
    "id": "node-2499412817",
    "name": "Centrul de Sănătate RATB",
    "type": "medical",
    "subcategory": "clinic",
    "lat": 44.4539288,
    "lng": 26.1156489,
    "osmType": "node",
    "tags": {
      "addr:city": "București",
      "addr:housenumber": "6",
      "addr:street": "Strada Doctor Calistrat Grozovici",
      "amenity": "clinic",
      "name": "Centrul de Sănătate RATB",
      "phone": "+40 21 318 3410",
      "website": "http://centruldesanatate.ratb.ro"
    }
  },
  {
    "id": "node-2513216698",
    "name": "Policlinică",
    "type": "medical",
    "subcategory": "clinic",
    "lat": 44.4090889,
    "lng": 26.0978281,
    "osmType": "node",
    "tags": {
      "amenity": "clinic",
      "healthcare": "clinic",
      "name": "Policlinică"
    }
  },
  {
    "id": "node-2531868415",
    "name": "Grădinița nr. 112",
    "type": "school",
    "subcategory": "kindergarten",
    "lat": 44.4511426,
    "lng": 26.0765781,
    "osmType": "node",
    "tags": {
      "amenity": "kindergarten",
      "name": "Grădinița nr. 112"
    }
  },
  {
    "id": "node-2531868416",
    "name": "Grădinița nr. 206",
    "type": "school",
    "subcategory": "kindergarten",
    "lat": 44.4504902,
    "lng": 26.0761381,
    "osmType": "node",
    "tags": {
      "amenity": "kindergarten",
      "name": "Grădinița nr. 206"
    }
  },
  {
    "id": "node-2533836755",
    "name": "Dr. Levy Medical Center",
    "type": "medical",
    "subcategory": "hospital",
    "lat": 44.4503653,
    "lng": 26.0965329,
    "osmType": "node",
    "tags": {
      "addr:city": "București",
      "addr:housenumber": "6",
      "addr:postcode": "010602",
      "addr:postcode:source": "Date de la Poșta Română, publicate sub Licența pentru Guvernare Deschisă v1.0 la http://date.gov.ro/organization/posta-romana",
      "addr:street": "Strada Ion Slătineanu",
      "amenity": "hospital",
      "healthcare": "hospital",
      "healthcare:speciality": "plastic_surgery",
      "name": "Dr. Levy Medical Center",
      "wheelchair": "limited"
    }
  },
  {
    "id": "node-2543068033",
    "name": "Clinica dermatologie Top Derm Uni - Profesor Doctor Olga Simionescu",
    "type": "medical",
    "subcategory": "clinic",
    "lat": 44.4322246,
    "lng": 26.0687837,
    "osmType": "node",
    "tags": {
      "addr:city": "București",
      "addr:housenumber": "28",
      "addr:postcode": "050514",
      "addr:street": "Bulevardul Eroilor",
      "amenity": "clinic",
      "emergency": "no",
      "healthcare": "clinic",
      "name": "Clinica dermatologie Top Derm Uni - Profesor Doctor Olga Simionescu",
      "name:en": "Top Uni Derm Clinic Dermatology - Doctor Professor Olga Simionescu",
      "phone": "+400742418662",
      "source:addr:housenumber": "survey",
      "source:addr:street": "survey",
      "website": "https://www.olgasimionescu.com/"
    }
  },
  {
    "id": "node-2557505729",
    "name": "Grădinița Era",
    "type": "school",
    "subcategory": "kindergarten",
    "lat": 44.4264552,
    "lng": 26.1355691,
    "osmType": "node",
    "tags": {
      "amenity": "kindergarten",
      "is_in:city": "București",
      "name": "Grădinița Era"
    }
  },
  {
    "id": "node-2558783253",
    "name": "Grădinița nr. 116",
    "type": "school",
    "subcategory": "kindergarten",
    "lat": 44.4447743,
    "lng": 26.0963648,
    "osmType": "node",
    "tags": {
      "amenity": "kindergarten",
      "name": "Grădinița nr. 116",
      "source": "survey"
    }
  },
  {
    "id": "node-2559264816",
    "name": "Grădinița nr. 281",
    "type": "school",
    "subcategory": "kindergarten",
    "lat": 44.4645728,
    "lng": 26.0570029,
    "osmType": "node",
    "tags": {
      "amenity": "kindergarten",
      "check_date": "2024-04-19",
      "name": "Grădinița nr. 281",
      "source": "survey"
    }
  },
  {
    "id": "node-2559698820",
    "name": "Grădinița nr. 43",
    "type": "school",
    "subcategory": "kindergarten",
    "lat": 44.4661259,
    "lng": 26.0594525,
    "osmType": "node",
    "tags": {
      "amenity": "kindergarten",
      "check_date": "2026-03-03",
      "name": "Grădinița nr. 43",
      "source": "survey"
    }
  },
  {
    "id": "node-2569322689",
    "name": "Colegiul Național de Arte Dinu Lipatti",
    "type": "school",
    "subcategory": "school",
    "lat": 44.4225247,
    "lng": 26.0968645,
    "osmType": "node",
    "tags": {
      "amenity": "school",
      "grades": "0-12",
      "is_in": "București",
      "name": "Colegiul Național de Arte Dinu Lipatti",
      "old_name": "Liceul de Muzica \"Dinu Lipatti\"",
      "website": "https://cnadl.ro"
    }
  },
  {
    "id": "node-2574127477",
    "name": "Facultatea de Inginerie Chimică și Biotehnologii",
    "type": "school",
    "subcategory": "university",
    "lat": 44.4477086,
    "lng": 26.0797526,
    "osmType": "node",
    "tags": {
      "addr:city": "București",
      "addr:country": "RO",
      "addr:housenumber": "1-7",
      "addr:postcode": "011061",
      "addr:street": "Strada Gheorghe Polizu",
      "amenity": "university",
      "education": "university",
      "faculty": "chemistry",
      "name": "Facultatea de Inginerie Chimică și Biotehnologii",
      "name:en": "Faculty of Chemical Engineering and Biotechnology",
      "name:ro": "Facultatea de Inginerie Chimică și Biotehnologii",
      "operator": "Universitatea Politehnica din București",
      "operator:type": "university",
      "phone": "+40 21 402 39 27",
      "website": "https://chimie.upb.ro/"
    }
  },
  {
    "id": "node-2574127478",
    "name": "Facultatea de Inginerie Aerospațială",
    "type": "school",
    "subcategory": "university",
    "lat": 44.4473376,
    "lng": 26.0777652,
    "osmType": "node",
    "tags": {
      "addr:city": "București",
      "addr:country": "RO",
      "addr:housenumber": "1-7",
      "addr:postcode": "011061",
      "addr:street": "Strada Gheorghe Polizu",
      "amenity": "university",
      "education": "university",
      "faculty": "engineering",
      "name": "Facultatea de Inginerie Aerospațială",
      "operator": "Universitatea Politehnica din București",
      "operator:type": "university",
      "phone": "+40 21 402 38 12",
      "website": "http://www.aero.pub.ro/"
    }
  },
  {
    "id": "node-2574127479",
    "name": "Facultatea de Inginerie Medicală",
    "type": "school",
    "subcategory": "university",
    "lat": 44.4474941,
    "lng": 26.0790075,
    "osmType": "node",
    "tags": {
      "addr:city": "București",
      "addr:country": "RO",
      "addr:housenumber": "1-7",
      "addr:postcode": "011061",
      "addr:street": "Strada Gheorghe Polizu",
      "amenity": "university",
      "faculty": "engineering",
      "name": "Facultatea de Inginerie Medicală",
      "operator": "Universitatea Politehnica din București",
      "operator:type": "university",
      "phone": "+40 21 402 9039",
      "website": "https://fim.upb.ro/"
    }
  },
  {
    "id": "node-2575507117",
    "name": "Școala nr. 62",
    "type": "school",
    "subcategory": "school",
    "lat": 44.443398,
    "lng": 26.1641551,
    "osmType": "node",
    "tags": {
      "amenity": "school",
      "name": "Școala nr. 62"
    }
  },
  {
    "id": "node-2576725058",
    "name": "Fortuna",
    "type": "betting",
    "subcategory": "Fortuna",
    "lat": 44.407588,
    "lng": 26.0721233,
    "osmType": "node",
    "tags": {
      "addr:city": "București",
      "addr:housenumber": "10",
      "addr:postcode": "051909",
      "addr:postcode:source": "Date de la Poșta Română, publicate sub Licența pentru Guvernare Deschisă v1.0 la http://date.gov.ro/organization/posta-romana",
      "addr:street": "Aleea Sălaj",
      "name": "Fortuna",
      "name:ro": "Fortuna",
      "shop": "bookmaker",
      "source": "Survey, keypad mapper, vespucci",
      "source:addr:housenumber": "survey",
      "source:addr:street": "survey"
    }
  },
  {
    "id": "node-2577664701",
    "name": "Las Vegas",
    "type": "gaming",
    "subcategory": "Las Vegas",
    "lat": 44.3848226,
    "lng": 26.1383763,
    "osmType": "node",
    "tags": {
      "addr:city": "București",
      "addr:street": "Strada Sergent Ion Iriceanu",
      "leisure": "adult_gaming_centre",
      "name": "Las Vegas",
      "opening_hours": "24/7",
      "source": "survey"
    }
  },
  {
    "id": "node-2586559759",
    "name": "Biserica Ortodoxă Sfântul Daniil Sihastrul",
    "type": "church",
    "subcategory": "christian",
    "lat": 44.3798191,
    "lng": 26.113312,
    "osmType": "node",
    "tags": {
      "addr:city": "București",
      "amenity": "place_of_worship",
      "denomination": "romanian_orthodox",
      "name": "Biserica Ortodoxă Sfântul Daniil Sihastrul",
      "religion": "christian"
    }
  },
  {
    "id": "node-2621172403",
    "name": "Admiral",
    "type": "gaming",
    "subcategory": "Admiral",
    "lat": 44.4508226,
    "lng": 26.087515,
    "osmType": "node",
    "tags": {
      "addr:city": "București",
      "addr:street": "Calea Victoriei",
      "amenity": "casino",
      "brand": "Admiral",
      "brand:wikidata": "Q25205850",
      "gambling": "slot_machines",
      "leisure": "adult_gaming_centre",
      "name": "Admiral",
      "opening_hours": "Mo-Su 08:00-05:00",
      "wheelchair": "limited"
    }
  },
  {
    "id": "node-2642106292",
    "name": "Școala Mogoșoaia",
    "type": "school",
    "subcategory": "school",
    "lat": 44.528268,
    "lng": 26.0003604,
    "osmType": "node",
    "tags": {
      "amenity": "school",
      "name": "Școala Mogoșoaia"
    }
  },
  {
    "id": "node-2645484714",
    "name": "Fiziodent",
    "type": "medical",
    "subcategory": "doctors",
    "lat": 44.4365076,
    "lng": 26.1588759,
    "osmType": "node",
    "tags": {
      "amenity": "doctors",
      "name": "Fiziodent",
      "opening_hours": "Mo-Fr 09:00-13:30,14:30-20:00; Sa 09:00-14:00",
      "wheelchair": "no"
    }
  },
  {
    "id": "node-2663523240",
    "name": "Million",
    "type": "gaming",
    "subcategory": "Million",
    "lat": 44.4349971,
    "lng": 26.1593238,
    "osmType": "node",
    "tags": {
      "name": "Million",
      "shop": "bookmaker"
    }
  },
  {
    "id": "node-2673374516",
    "name": "Fără nume",
    "type": "betting",
    "subcategory": "bookmaker",
    "lat": 44.3803875,
    "lng": 26.1685829,
    "osmType": "node",
    "tags": {
      "shop": "bookmaker"
    }
  },