[
  {
    "id": "node-618355091",
    "name": "Dragoș Vodă",
    "type": "school",
    "subcategory": "school",
    "lat": 47.9307338,
    "lng": 23.8873652,
    "osmType": "node",
    "tags": {
      "amenity": "school",
      "name": "Dragoș Vodă"
    }
  },
  {
    "id": "node-2270170217",
    "name": "Catedrala Sf. Arhangheli Mihail și Gavril",
    "type": "church",
    "subcategory": "christian",
    "lat": 47.9292173,
    "lng": 23.8846562,
    "osmType": "node",
    "tags": {
      "addr:city": "Sighetu Marmației",
      "amenity": "place_of_worship",
      "denomination": "orthodox",
      "name": "Catedrala Sf. Arhangheli Mihail și Gavril",
      "name:ro": "Catedrala Sf. Arhangheli Mihail și Gavril",
      "religion": "christian"
    }
  },
  {
    "id": "node-2270171054",
    "name": "Biserica Sf. Carol Borromeo",
    "type": "church",
    "subcategory": "christian",
    "lat": 47.9288903,
    "lng": 23.8868019,
    "osmType": "node",
    "tags": {
      "amenity": "place_of_worship",
      "check_date": "2024-08-09",
      "denomination": "roman_catholic",
      "name": "Biserica Sf. Carol Borromeo",
      "name:hu": "Borromeo Szent Károly templom",
      "name:ro": "Biserica Sf. Carol Borromeo",
      "religion": "christian",
      "url:miserend": "https://miserend.hu/templom/4272"
    }
  },
  {
    "id": "node-3551423667",
    "name": "Biserica Berbești",
    "type": "church",
    "subcategory": "christian",
    "lat": 47.8487985,
    "lng": 23.9249612,
    "osmType": "node",
    "tags": {
      "amenity": "place_of_worship",
      "building": "church",
      "denomination": "orthodox",
      "name": "Biserica Berbești",
      "religion": "christian"
    }
  },
  {
    "id": "node-3554140614",
    "name": "Biserica Ortodoxă",
    "type": "church",
    "subcategory": "christian",
    "lat": 47.8806876,
    "lng": 23.9124681,
    "osmType": "node",
    "tags": {
      "amenity": "place_of_worship",
      "building": "church",
      "denomination": "orthodox",
      "name": "Biserica Ortodoxă",
      "religion": "christian"
    }
  },
  {
    "id": "node-3554140853",
    "name": "Biserica Greco-Catolică",
    "type": "church",
    "subcategory": "christian",
    "lat": 47.8831879,
    "lng": 23.9081493,
    "osmType": "node",
    "tags": {
      "amenity": "place_of_worship",
      "building": "church",
      "denomination": "catholic",
      "name": "Biserica Greco-Catolică",
      "religion": "christian"
    }
  },
  {
    "id": "node-3554141226",
    "name": "Biserica Ortodoxă",
    "type": "church",
    "subcategory": "christian",
    "lat": 47.8863842,
    "lng": 23.9347959,
    "osmType": "node",
    "tags": {
      "amenity": "place_of_worship",
      "building": "church",
      "denomination": "orthodox",
      "name": "Biserica Ortodoxă",
      "religion": "christian"
    }
  },
  {
    "id": "node-3554141863",
    "name": "Biserica Catolică",
    "type": "church",
    "subcategory": "christian",
    "lat": 47.8880919,
    "lng": 23.9312263,
    "osmType": "node",
    "tags": {
      "amenity": "place_of_worship",
      "building": "church",
      "denomination": "catholic",
      "name": "Biserica Catolică",
      "religion": "christian"
    }
  },
  {
    "id": "node-4009807393",
    "name": "Universitatea Babeș-Bolyai Cluj-Napoca, extensiunea Sighetu Marmației",
    "type": "school",
    "subcategory": "university",
    "lat": 47.9277594,
    "lng": 23.8803437,
    "osmType": "node",
    "tags": {
      "amenity": "university",
      "name": "Universitatea Babeș-Bolyai Cluj-Napoca, extensiunea Sighetu Marmației"
    }
  },
  {
    "id": "node-4009807403",
    "name": "Liceul ucrainian Taras Sevcenko",
    "type": "school",
    "subcategory": "college",
    "lat": 47.9286134,
    "lng": 23.8883059,
    "osmType": "node",
    "tags": {
      "amenity": "college",
      "check_date": "2024-08-09",
      "name": "Liceul ucrainian Taras Sevcenko"
    }
  },
  {
    "id": "node-4230119995",
    "name": "Școala Nr. 5",
    "type": "school",
    "subcategory": "school",
    "lat": 47.9170826,
    "lng": 23.9209699,
    "osmType": "node",
    "tags": {
      "addr:street": "Strada Bogdan Vodă",
      "amenity": "school",
      "name": "Școala Nr. 5"
    }
  },
  {
    "id": "node-4462301190",
    "name": "Casa de copii",
    "type": "school",
    "subcategory": "childcare",
    "lat": 47.9314805,
    "lng": 23.8895247,
    "osmType": "node",
    "tags": {
      "amenity": "childcare",
      "internet_access": "wlan",
      "name": "Casa de copii"
    }
  },
  {
    "id": "node-4462309490",
    "name": "Școla Ion Mihaly De Apșa (nr. 3)",
    "type": "school",
    "subcategory": "school",
    "lat": 47.930902,
    "lng": 23.8891156,
    "osmType": "node",
    "tags": {
      "amenity": "school",
      "name": "Școla Ion Mihaly De Apșa (nr. 3)",
      "name:ro": "Școla Ion Mihaly De Apșa (nr. 3)"
    }
  },
  {
    "id": "node-4463223395",
    "name": "Școala gimnazială nr. 10",
    "type": "school",
    "subcategory": "school",
    "lat": 47.9301287,
    "lng": 23.9020992,
    "osmType": "node",
    "tags": {
      "amenity": "school",
      "name": "Școala gimnazială nr. 10",
      "name:ro": "Școala gimnazială nr. 10"
    }
  },
  {
    "id": "node-4468087994",
    "name": "Clinică Dentară",
    "type": "medical",
    "subcategory": "clinic",
    "lat": 47.9248472,
    "lng": 23.884623,
    "osmType": "node",
    "tags": {
      "amenity": "clinic",
      "name": "Clinică Dentară",
      "name:ro": "Clinică Dentară"
    }
  },
  {
    "id": "node-6495663466",
    "name": "Fortuna",
    "type": "betting",
    "subcategory": "Fortuna",
    "lat": 47.9283449,
    "lng": 23.8848254,
    "osmType": "node",
    "tags": {
      "brand": "Fortuna",
      "brand:wikidata": "Q12016781",
      "name": "Fortuna",
      "shop": "bookmaker"
    }
  },
  {
    "id": "node-6495736489",
    "name": "Million",
    "type": "gaming",
    "subcategory": "Million",
    "lat": 47.927663,
    "lng": 23.8955783,
    "osmType": "node",
    "tags": {
      "leisure": "adult_gaming_centre",
      "name": "Million",
      "wheelchair": "no"
    }
  },
  {
    "id": "node-6495772334",
    "name": "Biserica Romano-Catolică",
    "type": "church",
    "subcategory": "christian",
    "lat": 47.9269654,
    "lng": 23.8994438,
    "osmType": "node",
    "tags": {
      "amenity": "place_of_worship",
      "denomination": "roman_catholic",
      "name": "Biserica Romano-Catolică",
      "religion": "christian"
    }
  },
  {
    "id": "node-6495772336",
    "name": "Biserica Prezbiteriană",
    "type": "church",
    "subcategory": "christian",
    "lat": 47.9283122,
    "lng": 23.8986116,
    "osmType": "node",
    "tags": {
      "amenity": "place_of_worship",
      "denomination": "presbyterian",
      "name": "Biserica Prezbiteriană",
      "religion": "christian"
    }
  },
  {
    "id": "node-6495772337",
    "name": "Lucky Seven",
    "type": "gaming",
    "subcategory": "Lucky Seven",
    "lat": 47.9271202,
    "lng": 23.9007683,
    "osmType": "node",
    "tags": {
      "leisure": "adult_gaming_centre",
      "name": "Lucky Seven",
      "wheelchair": "no"
    }
  },
  {
    "id": "node-6496360160",
    "name": "Catedrala Ortodoxă",
    "type": "church",
    "subcategory": "christian",
    "lat": 47.9268303,
    "lng": 23.8971654,
    "osmType": "node",
    "tags": {
      "amenity": "place_of_worship",
      "denomination": "orthodox",
      "name": "Catedrala Ortodoxă",
      "religion": "christian"
    }
  },
  {
    "id": "node-6497297880",
    "name": "Casa Pariurilor",
    "type": "betting",
    "subcategory": "Casa Pariurilor",
    "lat": 47.9273883,
    "lng": 23.8800898,
    "osmType": "node",
    "tags": {
      "name": "Casa Pariurilor",
      "shop": "bookmaker",
      "wheelchair": "no"
    }
  },
  {
    "id": "node-6497299187",
    "name": "Superbet",
    "type": "betting",
    "subcategory": "Superbet",
    "lat": 47.9273248,
    "lng": 23.880528,
    "osmType": "node",
    "tags": {
      "brand": "Superbet",
      "brand:wikidata": "Q61082636",
      "contact:email": "suport@superbet.ro",
      "contact:facebook": "https://www.facebook.com/superbet.ro",
      "contact:instagram": "https://www.instagram.com/superbetromania/",
      "contact:phone": "+40 786 401 088",
      "contact:twitter": "https://twitter.com/SuperbetRomania",
      "contact:website": "https://www.superbet.ro/",
      "name": "Superbet",
      "opening_hours": "Mo-Su 10:00-22:00",
      "operator": "Superbet Betting & Gaming SA",
      "shop": "bookmaker"
    }
  },
  {
    "id": "node-6574479779",
    "name": "Centrul De Diagnostic Santa Vita",
    "type": "medical",
    "subcategory": "clinic",
    "lat": 47.9256821,
    "lng": 23.8842355,
    "osmType": "node",
    "tags": {
      "addr:city": "Sighetu Marmației",
      "addr:housenumber": "44",
      "addr:postcode": "435500",
      "addr:street": "Strada Ștefan cel Mare",
      "amenity": "clinic",
      "description": "Laborator medical în contract cu CAS Maramures, acreditat ISO, locul I în Topul Firmelor din Maramures pe domeniul medical; Cabinete medicale: Medicină Internă, Pediatrie, Gastroenterologie, Medicina Muncii, Cardiologie, Endocrinologie, Obstetrică etc.",
      "email": "office@laboratorsantavita.ro",
      "healthcare": "clinic",
      "healthcare:speciality": "general;internal;paediatrics;gynaecology;psychiatry;cardiology;endocrinology;obstetrics;gastroenterology",
      "name": "Centrul De Diagnostic Santa Vita",
      "opening_hours": "Mo-Fr 08:00-20:00 Sa 08:00-14:00",
      "phone": "+40 262 319 252",
      "website": "https://laboratorsantavita.ro/"
    }
  },
  {
    "id": "node-6718247651",
    "name": "Dr. Dobrogeanu Ferenczy Marius-Ciprian",
    "type": "medical",
    "subcategory": "doctors",
    "lat": 47.9269391,
    "lng": 23.8781521,
    "osmType": "node",
    "tags": {
      "amenity": "doctors",
      "healthcare": "doctor",
      "healthcare:speciality": "gynaecology",
      "name": "Dr. Dobrogeanu Ferenczy Marius-Ciprian",
      "wheelchair": "no"
    }
  },
  {
    "id": "node-6718247654",
    "name": "Fără nume",
    "type": "medical",
    "subcategory": "doctors",
    "lat": 47.9267672,
    "lng": 23.8772643,
    "osmType": "node",
    "tags": {
      "amenity": "doctors",
      "healthcare": "doctor"
    }
  },
  {
    "id": "node-8628418123",
    "name": "Superbet",
    "type": "betting",
    "subcategory": "Superbet",
    "lat": 47.928216,
    "lng": 23.894674,
    "osmType": "node",
    "tags": {
      "brand": "Superbet",
      "brand:wikidata": "Q61082636",
      "contact:email": "suport@superbet.ro",
      "contact:facebook": "https://www.facebook.com/superbet.ro",
      "contact:instagram": "https://www.instagram.com/superbetromania/",
      "contact:phone": "+40 786 401 088",
      "contact:twitter": "https://twitter.com/SuperbetRomania",
      "contact:website": "https://www.superbet.ro/",
      "name": "Superbet",
      "opening_hours": "Mo-Su 10:00-22:00",
      "operator": "Superbet Betting & Gaming SA",
      "shop": "bookmaker"
    }
  },
  {
    "id": "node-10165798935",
    "name": "Fără nume",
    "type": "gaming",
    "subcategory": "casino",
    "lat": 47.9263486,
    "lng": 23.8789344,
    "osmType": "node",
    "tags": {
      "amenity": "casino"
    }
  },
  {
    "id": "node-12100951921",
    "name": "Fără nume",
    "type": "betting",
    "subcategory": "gambling",
    "lat": 47.9287223,
    "lng": 23.8940496,
    "osmType": "node",
    "tags": {
      "amenity": "gambling"
    }
  },
  {
    "id": "way-217711436",
    "name": "Spitalul Municipal Sighetul Marmației",
    "type": "medical",
    "subcategory": "hospital",
    "lat": 47.9285038,
    "lng": 23.8754532,
    "osmType": "way",
    "tags": {
      "addr:postcode": "435500",
      "amenity": "hospital",
      "emergency": "yes",
      "name": "Spitalul Municipal Sighetul Marmației",
      "name:en": "Sighet City Hospital",
      "opening_hours": "24/7"
    }
  },
  {
    "id": "way-423692866",
    "name": "Fără nume",
    "type": "school",
    "subcategory": "kindergarten",
    "lat": 47.9312582,
    "lng": 23.9005035,
    "osmType": "way",
    "tags": {
      "amenity": "kindergarten"
    }
  },
  {
    "id": "way-426908869",
    "name": "Fără nume",
    "type": "school",
    "subcategory": "school",
    "lat": 47.9301768,
    "lng": 23.9022055,
    "osmType": "way",
    "tags": {
      "addr:city": "Sighetu Marmației",
      "amenity": "school"
    }
  },
  {
    "id": "way-426910488",
    "name": "Fără nume",
    "type": "school",
    "subcategory": "childcare",
    "lat": 47.9314454,
    "lng": 23.9022911,
    "osmType": "way",
    "tags": {
      "amenity": "childcare",
      "building": "yes"
    }
  },
  {
    "id": "way-426912016",
    "name": "Fără nume",
    "type": "school",
    "subcategory": "childcare",
    "lat": 47.9288076,
    "lng": 23.9022274,
    "osmType": "way",
    "tags": {
      "amenity": "childcare",
      "building": "yes"
    }
  },
  {
    "id": "way-426912017",
    "name": "Pentecostal Church",
    "type": "church",
    "subcategory": "christian",
    "lat": 47.9287543,
    "lng": 23.9002961,
    "osmType": "way",
    "tags": {
      "amenity": "place_of_worship",
      "building": "yes",
      "denomination": "pentecostal",
      "name": "Pentecostal Church",
      "religion": "christian"
    }
  },
  {
    "id": "way-426913006",
    "name": "Biserica Adormirea Maicii Domnului",
    "type": "church",
    "subcategory": "christian",
    "lat": 47.9292507,
    "lng": 23.8934608,
    "osmType": "way",
    "tags": {
      "amenity": "place_of_worship",
      "building": "church",
      "check_date": "2024-08-09",
      "denomination": "orthodox",
      "name": "Biserica Adormirea Maicii Domnului",
      "religion": "christian"
    }
  },
  {
    "id": "way-435286281",
    "name": "Liceul Pedagogic \"Regele Ferdinand\"",
    "type": "school",
    "subcategory": "school",
    "lat": 47.9286856,
    "lng": 23.8825941,
    "osmType": "way",
    "tags": {
      "addr:city": "Sighetu Marmației",
      "amenity": "school",
      "name": "Liceul Pedagogic \"Regele Ferdinand\"",
      "name:ro": "Liceul Pedagogic \"Regele Ferdinand\""
    }
  },
  {
    "id": "way-436776338",
    "name": "Biserica ucraineană „Înălțarea Sfintei Cruci”",
    "type": "church",
    "subcategory": "christian",
    "lat": 47.9283618,
    "lng": 23.8920253,
    "osmType": "way",
    "tags": {
      "addr:city": "Sighetu Marmației",
      "addr:street": "Strada Bogdan Vodă",
      "amenity": "place_of_worship",
      "building": "yes",
      "check_date": "2024-08-09",
      "denomination": "orthodox",
      "name": "Biserica ucraineană „Înălțarea Sfintei Cruci”",
      "religion": "christian",
      "wikidata": "Q20432547",
      "wikipedia": "ro:Biserica ucraineană „Înălțarea Sfintei Cruci” din Sighetu Marmației"
    }
  },
  {
    "id": "way-488722447",
    "name": "Ясла-садок №1",
    "type": "school",
    "subcategory": "kindergarten",
    "lat": 47.9526418,
    "lng": 23.8841041,
    "osmType": "way",
    "tags": {
      "amenity": "kindergarten",
      "education": "kindergarten",
      "name": "Ясла-садок №1",
      "name:uk": "Ясла-садок №1",
      "official_name": "Солотвінський дошкільний навчальний заклад №1",
      "ref": "1"
    }
  },
  {
    "id": "way-488722452",
    "name": "Церква Різдва Пресвятої Богородиці",
    "type": "church",
    "subcategory": "christian",
    "lat": 47.9456649,
    "lng": 23.8758505,
    "osmType": "way",
    "tags": {
      "amenity": "place_of_worship",
      "building": "church",
      "building:levels": "4",
      "denomination": "greek_catholic",
      "name": "Церква Різдва Пресвятої Богородиці",
      "name:uk": "Церква Різдва Пресвятої Богородиці",
      "religion": "christian"
    }
  },
  {
    "id": "way-488722484",
    "name": "Солотвинський ліцей-інтернат імені М. Емінеску",
    "type": "school",
    "subcategory": "school",
    "lat": 47.9479733,
    "lng": 23.8750703,
    "osmType": "way",
    "tags": {
      "amenity": "school",
      "education": "school",
      "name": "Солотвинський ліцей-інтернат імені М. Емінеску",
      "name:ro": "Liceul Mihai Eminescu din Slatina",
      "name:uk": "Солотвинський ліцей-інтернат імені М. Емінеску",
      "official_name": "Солотвинський ліцей-інтернат з румунською мовою навчання імені М. Емінеску"
    }
  },
  {
    "id": "way-488722502",
    "name": "Школа №1",
    "type": "school",
    "subcategory": "school",
    "lat": 47.9510893,
    "lng": 23.8800301,
    "osmType": "way",
    "tags": {
      "amenity": "school",
      "contact:website": "http://schoolsol.at.ua",
      "education": "school",
      "name": "Школа №1",
      "name:uk": "Школа №1",
      "official_name": "Солотвинська загальноосвітня школа I-III ступеня №1",
      "ref": "1"
    }
  },
  {
    "id": "way-488722560",
    "name": "Школа №2",
    "type": "school",
    "subcategory": "school",
    "lat": 47.9490782,
    "lng": 23.8743337,
    "osmType": "way",
    "tags": {
      "amenity": "school",
      "description": "Румунська мова навчання",
      "education": "school",
      "name": "Школа №2",
      "name:uk": "Школа №2",
      "official_name": "Загальноосвітня школа І-ІІІ ступенів №2",
      "ref": "3"
    }
  },
  {
    "id": "way-488752876",
    "name": "Biserica româna",
    "type": "church",
    "subcategory": "christian",
    "lat": 47.9469387,
    "lng": 23.875098,
    "osmType": "way",
    "tags": {
      "amenity": "place_of_worship",
      "building": "church",
      "denomination": "orthodox",
      "name": "Biserica româna",
      "name:ro": "Biserica româna",
      "name:uk": "Biserica româna",
      "religion": "christian",
      "start_date": "1998"
    }
  },
  {
    "id": "way-488752880",
    "name": "Дім молитви Адвентистів сьомого дня",
    "type": "church",
    "subcategory": "christian",
    "lat": 47.9463787,
    "lng": 23.8755532,
    "osmType": "way",
    "tags": {
      "amenity": "place_of_worship",
      "building": "church",
      "denomination": "seventh_day_adventist",
      "name": "Дім молитви Адвентистів сьомого дня",
      "name:ro": "Casa de rugăciune a Bisericii adventiste de ziua a șapte",
      "name:uk": "Дім молитви Адвентистів сьомого дня",
      "religion": "christian"
    }
  },
  {
    "id": "way-488767704",
    "name": "Спеціальна школа-інтернат",
    "type": "school",
    "subcategory": "school",
    "lat": 47.9475956,
    "lng": 23.8685129,
    "osmType": "way",
    "tags": {
      "amenity": "school",
      "description": "Школа-інтернат для дітей із вадами розумового розвитку",
      "education": "school",
      "name": "Спеціальна школа-інтернат",
      "name:uk": "Спеціальна школа-інтернат",
      "official_name": "Солотвинська спеціальна загальноосвітня школа-інтернат І-ІІ ступенів"
    }
  },
  {
    "id": "way-489826697",
    "name": "Fără nume",
    "type": "church",
    "subcategory": "christian",
    "lat": 47.9436066,
    "lng": 23.8657274,
    "osmType": "way",
    "tags": {
      "amenity": "place_of_worship",
      "building": "church",
      "religion": "christian"
    }
  },
  {
    "id": "way-583465119",
    "name": "Fără nume",
    "type": "church",
    "subcategory": "christian",
    "lat": 47.9363919,
    "lng": 23.8906901,
    "osmType": "way",
    "tags": {
      "amenity": "place_of_worship",
      "building": "church",
      "religion": "christian"
    }
  },
  {
    "id": "way-732587108",
    "name": "Fără nume",
    "type": "church",
    "subcategory": "christian",
    "lat": 47.9492591,
    "lng": 23.9244052,
    "osmType": "way",
    "tags": {
      "amenity": "place_of_worship",
      "building": "church",
      "religion": "christian"
    }
  },
  {
    "id": "way-732587110",
    "name": "Fără nume",
    "type": "school",
    "subcategory": "school",
    "lat": 47.9493433,
    "lng": 23.9249642,
    "osmType": "way",
    "tags": {
      "amenity": "school",
      "building": "school"
    }
  },
  {
    "id": "way-750074603",
    "name": "Biserica Spitalului",
    "type": "church",
    "subcategory": "christian",
    "lat": 47.9279884,
    "lng": 23.8774626,
    "osmType": "way",
    "tags": {
      "amenity": "place_of_worship",
      "building": "church",
      "building:material": "wood",
      "denomination": "orthodox",
      "name": "Biserica Spitalului",
      "religion": "christian"
    }
  },
  {
    "id": "way-790800982",
    "name": "Biserica Greco-Catolică",
    "type": "church",
    "subcategory": "christian",
    "lat": 47.928748,
    "lng": 23.8731853,
    "osmType": "way",
    "tags": {
      "amenity": "place_of_worship",
      "building": "yes",
      "denomination": "greek_catholic",
      "name": "Biserica Greco-Catolică",
      "religion": "christian"
    }
  },
  {
    "id": "way-790875603",
    "name": "Biserica Reformată",
    "type": "church",
    "subcategory": "christian",
    "lat": 47.9285317,
    "lng": 23.8838774,
    "osmType": "way",
    "tags": {
      "addr:city": "Sighetu Marmației",
      "addr:housenumber": "4",
      "addr:street": "Strada Mihaly de Apsa Ioan",
      "amenity": "place_of_worship",
      "building": "yes",
      "denomination": "reformed",
      "name": "Biserica Reformată",
      "name:en": "Reformed Church",
      "religion": "christian",
      "wikidata": "Q18538016",
      "wikipedia": "ro:Biserica reformată din Sighetu Marmației"
    }
  },
  {
    "id": "way-796299805",
    "name": "Biserica Sfântul Ștefan cel Mare",
    "type": "church",
    "subcategory": "christian",
    "lat": 47.9331755,
    "lng": 23.8969186,
    "osmType": "way",
    "tags": {
      "amenity": "place_of_worship",
      "building": "temple",
      "denomination": "orthodox",
      "name": "Biserica Sfântul Ștefan cel Mare",
      "religion": "christian"
    }
  },
  {
    "id": "way-839204292",
    "name": "Biserica Ortodoxă din Biserica Albă",
    "type": "church",
    "subcategory": "christian",
    "lat": 47.9485093,
    "lng": 23.9266604,
    "osmType": "way",
    "tags": {
      "amenity": "place_of_worship",
      "building": "church",
      "denomination": "orthodox",
      "name": "Biserica Ortodoxă din Biserica Albă",
      "name:uk": "Biserica Ortodoxă din Biserica Albă",
      "religion": "christian"
    }
  },
  {
    "id": "way-928189688",
    "name": "Fără nume",
    "type": "school",
    "subcategory": "school",
    "lat": 47.9292123,
    "lng": 23.8950488,
    "osmType": "way",
    "tags": {
      "amenity": "school"
    }
  },
  {
    "id": "way-940075335",
    "name": "Sinagoga Vijnițer Kloiz din Sighet",
    "type": "church",
    "subcategory": "jewish",
    "lat": 47.9296616,
    "lng": 23.8913496,
    "osmType": "way",
    "tags": {
      "addr:city": "Sighetu Marmației",
      "addr:housenumber": "10",
      "addr:street": "Strada Basarabia",
      "amenity": "place_of_worship",
      "building": "religious",
      "name": "Sinagoga Vijnițer Kloiz din Sighet",
      "religion": "jewish",
      "wikidata": "Q43036089",
      "wikipedia": "ro:Sinagoga din Sighet"
    }
  },
  {
    "id": "way-971677547",
    "name": "Sinagoga Hasidică",
    "type": "church",
    "subcategory": "jewish",
    "lat": 47.9262492,
    "lng": 23.8879091,
    "osmType": "way",
    "tags": {
      "amenity": "place_of_worship",
      "building": "synagogue",
      "denomination": "hasidic",
      "name": "Sinagoga Hasidică",
      "religion": "jewish",
      "wikipedia": "ro:Sinagoga hasidică din Sighetu Marmației"
    }
  }
]