{
  "city": "Botoșani",
  "generated_at": "2026-04-23T09:01:47.388Z",
  "counts": {
    "total": 495,
    "schools": 191,
    "churches": 304
  },
  "pois": [
    {
      "id": "node/385470156",
      "osm_id": 385470156,
      "osm_type": "node",
      "name": "Școala Nicșeni",
      "category": "education",
      "lat": 47.8598567,
      "lon": 26.6344122,
      "tags": {
        "amenity": "school",
        "name": "Școala Nicșeni"
      }
    },
    {
      "id": "node/386612278",
      "osm_id": 386612278,
      "osm_type": "node",
      "name": "școală",
      "category": "education",
      "lat": 47.9257066,
      "lon": 26.6561086,
      "tags": {
        "amenity": "school",
        "name": "școală"
      }
    },
    {
      "id": "node/386615604",
      "osm_id": 386615604,
      "osm_type": "node",
      "name": "Școala Dorobanți",
      "category": "education",
      "lat": 47.8822879,
      "lon": 26.6466076,
      "tags": {
        "amenity": "school",
        "name": "Școala Dorobanți"
      }
    },
    {
      "id": "node/388311145",
      "osm_id": 388311145,
      "osm_type": "node",
      "name": "Școala de Arte Ungureni",
      "category": "education",
      "lat": 47.8906282,
      "lon": 26.7905293,
      "tags": {
        "amenity": "school",
        "name": "Școala de Arte Ungureni"
      }
    },
    {
      "id": "node/389980629",
      "osm_id": 389980629,
      "osm_type": "node",
      "name": "Școala Dumeni",
      "category": "education",
      "lat": 48.0190753,
      "lon": 26.5103395,
      "tags": {
        "amenity": "school",
        "name": "Școala Dumeni"
      }
    },
    {
      "id": "node/495440631",
      "osm_id": 495440631,
      "osm_type": "node",
      "name": "Șc Gen Văculești",
      "category": "education",
      "lat": 47.8788114,
      "lon": 26.4098378,
      "tags": {
        "amenity": "school",
        "name": "Șc Gen Văculești"
      }
    },
    {
      "id": "node/495484215",
      "osm_id": 495484215,
      "osm_type": "node",
      "name": "Școala Primară Văculești",
      "category": "education",
      "lat": 47.8778669,
      "lon": 26.4061995,
      "tags": {
        "amenity": "school",
        "name": "Școala Primară Văculești"
      }
    },
    {
      "id": "node/600096814",
      "osm_id": 600096814,
      "osm_type": "node",
      "name": "Colegiul Național Mihai Eminescu Botoșani",
      "category": "education",
      "lat": 47.7434856,
      "lon": 26.6488984,
      "tags": {
        "addr:city": "Botoșani",
        "addr:housenumber": "7",
        "addr:postcode": "710114",
        "addr:street": "Strada Octav Onicescu",
        "amenity": "school",
        "email": "cnmebt@gmail.com",
        "name": "Colegiul Național Mihai Eminescu Botoșani",
        "operator": "Ministerul Educației Naționale",
        "phone": "0231 584015",
        "website": "http://www.lme.ro/"
      }
    },
    {
      "id": "node/600096900",
      "osm_id": 600096900,
      "osm_type": "node",
      "name": "Șc Gen 10",
      "category": "education",
      "lat": 47.7372118,
      "lon": 26.6656592,
      "tags": {
        "amenity": "school",
        "name": "Șc Gen 10"
      }
    },
    {
      "id": "node/863622583",
      "osm_id": 863622583,
      "osm_type": "node",
      "name": "Școala Mânăstireni",
      "category": "education",
      "lat": 47.8381161,
      "lon": 26.7569147,
      "tags": {
        "amenity": "school",
        "name": "Școala Mânăstireni"
      }
    },
    {
      "id": "node/1211195288",
      "osm_id": 1211195288,
      "osm_type": "node",
      "name": "Școala Gimnazială Vorona",
      "category": "education",
      "lat": 47.5783469,
      "lon": 26.6346188,
      "tags": {
        "amenity": "school",
        "name": "Școala Gimnazială Vorona"
      }
    },
    {
      "id": "node/1236476024",
      "osm_id": 1236476024,
      "osm_type": "node",
      "name": "Grădinița Nr. 2 Roma",
      "category": "education",
      "lat": 47.8281475,
      "lon": 26.6069049,
      "tags": {
        "amenity": "kindergarten",
        "name": "Grădinița Nr. 2 Roma"
      }
    },
    {
      "id": "node/1236476062",
      "osm_id": 1236476062,
      "osm_type": "node",
      "name": "Șc da Arte și Meserii Roma",
      "category": "education",
      "lat": 47.8374052,
      "lon": 26.6062351,
      "tags": {
        "amenity": "school",
        "name": "Șc da Arte și Meserii Roma"
      }
    },
    {
      "id": "node/1236476152",
      "osm_id": 1236476152,
      "osm_type": "node",
      "name": "Școala cu clasese I-IV Roma 2",
      "category": "education",
      "lat": 47.8282789,
      "lon": 26.6069815,
      "tags": {
        "amenity": "school",
        "name": "Școala cu clasese I-IV Roma 2"
      }
    },
    {
      "id": "node/1236476179",
      "osm_id": 1236476179,
      "osm_type": "node",
      "name": "Grăd 1 Roma",
      "category": "education",
      "lat": 47.836784,
      "lon": 26.6080582,
      "tags": {
        "amenity": "kindergarten",
        "name": "Grăd 1 Roma"
      }
    },
    {
      "id": "node/1236476193",
      "osm_id": 1236476193,
      "osm_type": "node",
      "name": "Șc cu clasele I-IV Roma 3",
      "category": "education",
      "lat": 47.8374514,
      "lon": 26.6250476,
      "tags": {
        "amenity": "school",
        "name": "Șc cu clasele I-IV Roma 3"
      }
    },
    {
      "id": "node/1236476205",
      "osm_id": 1236476205,
      "osm_type": "node",
      "name": "Școala cu clasese I-IV Roma 1",
      "category": "education",
      "lat": 47.8367963,
      "lon": 26.6080033,
      "tags": {
        "amenity": "school",
        "name": "Școala cu clasese I-IV Roma 1"
      }
    },
    {
      "id": "node/1244635551",
      "osm_id": 1244635551,
      "osm_type": "node",
      "name": "Școala Corni",
      "category": "education",
      "lat": 47.6406156,
      "lon": 26.5772748,
      "tags": {
        "amenity": "school",
        "name": "Școala Corni"
      }
    },
    {
      "id": "node/2046508513",
      "osm_id": 2046508513,
      "osm_type": "node",
      "name": "Școala Gimnazială cu clasele I-VIII nr. 17",
      "category": "education",
      "lat": 47.7403823,
      "lon": 26.6515182,
      "tags": {
        "amenity": "school",
        "name": "Școala Gimnazială cu clasele I-VIII nr. 17"
      }
    },
    {
      "id": "node/2795943519",
      "osm_id": 2795943519,
      "osm_type": "node",
      "name": "Școala Sfântul Nicolae",
      "category": "education",
      "lat": 47.7379857,
      "lon": 26.6746902,
      "tags": {
        "addr:city": "Botoșani",
        "addr:housenumber": "20",
        "addr:postcode": "710350",
        "addr:street": "Strada AS Pușkin",
        "amenity": "school",
        "contact:phone": "0231511846",
        "email": "scoala1bt@yahoo.com",
        "name": "Școala Sfântul Nicolae",
        "operator": "Ministerul Educației și Cercetării Naționale"
      }
    },
    {
      "id": "node/2795954280",
      "osm_id": 2795954280,
      "osm_type": "node",
      "name": "Grădinița Nr. 7",
      "category": "education",
      "lat": 47.7373995,
      "lon": 26.6746839,
      "tags": {
        "addr:city": "Botoșani",
        "addr:housenumber": "20",
        "addr:postcode": "710350",
        "addr:street": "Strada AS Pușkin",
        "amenity": "kindergarten",
        "contact:phone": "0231511846",
        "email": "scoala1bt@yahoo.com",
        "name": "Grădinița Nr. 7",
        "wheelchair": "yes"
      }
    },
    {
      "id": "node/2795993085",
      "osm_id": 2795993085,
      "osm_type": "node",
      "name": "Liceul Teoretic Nicolae Iorga",
      "category": "education",
      "lat": 47.7434776,
      "lon": 26.6803147,
      "tags": {
        "addr:housenumber": "65",
        "addr:postcode": "710319",
        "addr:street": "Strada I.C. Brătianu",
        "amenity": "college",
        "contact:phone": "0231512132",
        "fax": "0231511519",
        "name": "Liceul Teoretic Nicolae Iorga"
      }
    },
    {
      "id": "node/2796003184",
      "osm_id": 2796003184,
      "osm_type": "node",
      "name": "Liceul Tehnologic Elie Radu",
      "category": "education",
      "lat": 47.7420912,
      "lon": 26.6800344,
      "tags": {
        "addr:housenumber": "60",
        "addr:postcode": "710319",
        "addr:street": "Strada Dragoș Vodă",
        "amenity": "college",
        "contact:phone": "0231-514196",
        "email": "elieradu@gmail.com",
        "fax": "0231-511432",
        "name": "Liceul Tehnologic Elie Radu"
      }
    },
    {
      "id": "node/2796025575",
      "osm_id": 2796025575,
      "osm_type": "node",
      "name": "Colegiul Economic Octav Onicescu",
      "category": "education",
      "lat": 47.7352742,
      "lon": 26.6594872,
      "tags": {
        "addr:housenumber": "33",
        "addr:postcode": "710213",
        "addr:street": "Strada Bucovina",
        "amenity": "college",
        "contact:phone": "0231584027",
        "email": "economicbt@gmail.com",
        "fax": "0231584026",
        "name": "Colegiul Economic Octav Onicescu"
      }
    },
    {
      "id": "node/2796031969",
      "osm_id": 2796031969,
      "osm_type": "node",
      "name": "Liceul cu Program Sportiv",
      "category": "education",
      "lat": 47.7370962,
      "lon": 26.6596495,
      "tags": {
        "addr:housenumber": "29",
        "addr:postcode": "710185",
        "addr:street": "Strada Mihail Kogălniceanu",
        "amenity": "college",
        "contact:phone": "0231 533 490",
        "email": "lps_botosani@yahoo.com",
        "fax": "0231 584 300",
        "name": "Liceul cu Program Sportiv"
      }
    },
    {
      "id": "node/2796042675",
      "osm_id": 2796042675,
      "osm_type": "node",
      "name": "Școala Nr. 6",
      "category": "education",
      "lat": 47.7380202,
      "lon": 26.6566444,
      "tags": {
        "addr:housenumber": "3",
        "addr:postcode": "710174",
        "addr:street": "Aleea Școlii",
        "building": "school",
        "building:levels": "3",
        "contact:phone": "0231 582560",
        "email": "scoala6bt@yahoo.com",
        "fax": "0231/582560",
        "name": "Școala Nr. 6"
      }
    },
    {
      "id": "node/2796097926",
      "osm_id": 2796097926,
      "osm_type": "node",
      "name": "Liceul Teoretic Grigore Antipa",
      "category": "education",
      "lat": 47.7448291,
      "lon": 26.654221,
      "tags": {
        "addr:housenumber": "30",
        "addr:postcode": "710105",
        "addr:street": "Bulevardul Mihai Eminescu",
        "amenity": "college",
        "contact:phone": "0231/585076",
        "email": "lsnantipa@yahoo.com",
        "fax": "0231/585076",
        "name": "Liceul Teoretic Grigore Antipa"
      }
    },
    {
      "id": "node/2898735287",
      "osm_id": 2898735287,
      "osm_type": "node",
      "name": "Școala Gimnazială Copălău",
      "category": "education",
      "lat": 47.6169734,
      "lon": 26.8508275,
      "tags": {
        "amenity": "school",
        "name": "Școala Gimnazială Copălău"
      }
    },
    {
      "id": "node/3742899332",
      "osm_id": 3742899332,
      "osm_type": "node",
      "name": "Grădinița Cobiceni",
      "category": "education",
      "lat": 47.5850117,
      "lon": 27.1677756,
      "tags": {
        "addr:city": "Hlipiceni",
        "addr:postcode": "717205",
        "addr:street": "Strada Grădiniței",
        "amenity": "kindergarten",
        "building": "yes",
        "name": "Grădinița Cobiceni"
      }
    },
    {
      "id": "node/3742899333",
      "osm_id": 3742899333,
      "osm_type": "node",
      "name": "Școala cu clasele I-IV Cobiceni",
      "category": "education",
      "lat": 47.5891147,
      "lon": 27.164042,
      "tags": {
        "addr:city": "Hlipiceni",
        "addr:postcode": "717205",
        "addr:street": "DJ 282",
        "amenity": "school",
        "name": "Școala cu clasele I-IV Cobiceni"
      }
    },
    {
      "id": "node/3743081046",
      "osm_id": 3743081046,
      "osm_type": "node",
      "name": "Școala Gimnazială ''Dan Iordachescu''",
      "category": "education",
      "lat": 47.5992411,
      "lon": 27.1424193,
      "tags": {
        "addr:city": "Hlipiceni",
        "addr:postcode": "717205",
        "addr:street": "Strada Principală",
        "amenity": "school",
        "name": "Școala Gimnazială ''Dan Iordachescu''"
      }
    },
    {
      "id": "node/3800110926",
      "osm_id": 3800110926,
      "osm_type": "node",
      "name": "Liceul Stefan Luchian",
      "category": "education",
      "lat": 47.7417296,
      "lon": 26.658501,
      "tags": {
        "amenity": "school",
        "name": "Liceul Stefan Luchian",
        "name:en": "Stefan Luchian Art School",
        "name:ro": "Liceul de Arta Stefan Luchian"
      }
    },
    {
      "id": "node/4394767197",
      "osm_id": 4394767197,
      "osm_type": "node",
      "name": "Fără nume",
      "category": "education",
      "lat": 47.5923985,
      "lon": 26.5947781,
      "tags": {
        "amenity": "school"
      }
    },
    {
      "id": "node/4409569367",
      "osm_id": 4409569367,
      "osm_type": "node",
      "name": "Fără nume",
      "category": "education",
      "lat": 47.7404198,
      "lon": 26.6712199,
      "tags": {
        "addr:city": "Botoșani",
        "addr:housenumber": "13",
        "addr:postcode": "710359",
        "addr:street": "Strada Armeană",
        "amenity": "kindergarten",
        "operator": "Grădinița Nr. 25"
      }
    },
    {
      "id": "node/4437804804",
      "osm_id": 4437804804,
      "osm_type": "node",
      "name": "Școala Maghera",
      "category": "education",
      "lat": 47.8609314,
      "lon": 26.3024433,
      "tags": {
        "amenity": "school",
        "name": "Școala Maghera"
      }
    },
    {
      "id": "node/4504291189",
      "osm_id": 4504291189,
      "osm_type": "node",
      "name": "Palatul Copiilor Botoșani",
      "category": "education",
      "lat": 47.7376378,
      "lon": 26.6593462,
      "tags": {
        "addr:housenumber": "32",
        "addr:street": "Strada Mihail Kogălniceanu",
        "amenity": "school",
        "name": "Palatul Copiilor Botoșani",
        "opening_hours": "Mo-Sa 08:00-20:00"
      }
    },
    {
      "id": "node/4603496689",
      "osm_id": 4603496689,
      "osm_type": "node",
      "name": "Ioan sturza",
      "category": "education",
      "lat": 47.5530474,
      "lon": 26.880753,
      "tags": {
        "addr:housenumber": "2",
        "addr:street": "Strada 1907",
        "amenity": "school",
        "name": "Ioan sturza",
        "name:ro": "Ioan sturza"
      }
    },
    {
      "id": "node/4688319189",
      "osm_id": 4688319189,
      "osm_type": "node",
      "name": "Casa Corpului Didactic",
      "category": "education",
      "lat": 47.7415402,
      "lon": 26.6579705,
      "tags": {
        "amenity": "school",
        "name": "Casa Corpului Didactic",
        "name:ro": "Casa Corpului Didactic",
        "website": "http://ccd.botosani.ro"
      }
    },
    {
      "id": "node/4930358480",
      "osm_id": 4930358480,
      "osm_type": "node",
      "name": "Grădinița Nr. 1 cu Program Normal",
      "category": "education",
      "lat": 47.7460716,
      "lon": 26.6743434,
      "tags": {
        "addr:city": "Botoșani",
        "addr:housenumber": "26",
        "addr:postcode": "710318",
        "addr:street": "Strada Ion Pillat",
        "amenity": "kindergarten",
        "name": "Grădinița Nr. 1 cu Program Normal",
        "phone": "0231516722"
      }
    },
    {
      "id": "node/5066769521",
      "osm_id": 5066769521,
      "osm_type": "node",
      "name": "Căminul de copii",
      "category": "education",
      "lat": 47.7683102,
      "lon": 26.4389111,
      "tags": {
        "addr:street": "Aleea Teilor",
        "amenity": "kindergarten",
        "name": "Căminul de copii"
      }
    },
    {
      "id": "node/5084404126",
      "osm_id": 5084404126,
      "osm_type": "node",
      "name": "Școala nr. 2",
      "category": "education",
      "lat": 47.7779359,
      "lon": 26.4325088,
      "tags": {
        "addr:street": "Strada Eroilor",
        "amenity": "school",
        "name": "Școala nr. 2"
      }
    },
    {
      "id": "node/5084404223",
      "osm_id": 5084404223,
      "osm_type": "node",
      "name": "Grădinița nr. 1",
      "category": "education",
      "lat": 47.7667597,
      "lon": 26.4455578,
      "tags": {
        "addr:street": "Calea Națională",
        "amenity": "kindergarten",
        "name": "Grădinița nr. 1"
      }
    },
    {
      "id": "node/5084415921",
      "osm_id": 5084415921,
      "osm_type": "node",
      "name": "Grădinița nr. 2",
      "category": "education",
      "lat": 47.7728687,
      "lon": 26.4362954,
      "tags": {
        "addr:street": "Calea Națională",
        "amenity": "kindergarten",
        "name": "Grădinița nr. 2"
      }
    },
    {
      "id": "node/5244440009",
      "osm_id": 5244440009,
      "osm_type": "node",
      "name": "Grupul Școlar Doctor Mihai Ciucă",
      "category": "education",
      "lat": 47.9547283,
      "lon": 26.8583658,
      "tags": {
        "addr:city": "Săveni",
        "addr:housenumber": "1",
        "addr:street": "Strada Nicolae Iorga",
        "amenity": "school",
        "name": "Grupul Școlar Doctor Mihai Ciucă"
      }
    },
    {
      "id": "node/5244440010",
      "osm_id": 5244440010,
      "osm_type": "node",
      "name": "Școala cu clasele I-VIII nr 1",
      "category": "education",
      "lat": 47.9536378,
      "lon": 26.8578642,
      "tags": {
        "addr:city": "Săveni",
        "addr:housenumber": "3",
        "addr:street": "Strada Nicolae Iorga",
        "amenity": "school",
        "name": "Școala cu clasele I-VIII nr 1"
      }
    },
    {
      "id": "node/5244440013",
      "osm_id": 5244440013,
      "osm_type": "node",
      "name": "Școala cu clasele I-VIII nr 2",
      "category": "education",
      "lat": 47.9569442,
      "lon": 26.8566071,
      "tags": {
        "amenity": "school",
        "name": "Școala cu clasele I-VIII nr 2"
      }
    },
    {
      "id": "node/5244440014",
      "osm_id": 5244440014,
      "osm_type": "node",
      "name": "Grădinița cu program normal nr 1",
      "category": "education",
      "lat": 47.9521633,
      "lon": 26.852647,
      "tags": {
        "addr:city": "Săveni",
        "addr:housenumber": "10",
        "addr:street": "Strada Constantin Dobrogeanu Gherea",
        "amenity": "kindergarten",
        "name": "Grădinița cu program normal nr 1"
      }
    },
    {
      "id": "node/5564870921",
      "osm_id": 5564870921,
      "osm_type": "node",
      "name": "Alexandru Vlahuță",
      "category": "education",
      "lat": 47.9613831,
      "lon": 26.3458785,
      "tags": {
        "amenity": "school",
        "name": "Alexandru Vlahuță"
      }
    },
    {
      "id": "node/6700144350",
      "osm_id": 6700144350,
      "osm_type": "node",
      "name": "Școala Gimnazială Burlești",
      "category": "education",
      "lat": 47.7579723,
      "lon": 26.8268314,
      "tags": {
        "amenity": "school",
        "name": "Școala Gimnazială Burlești"
      }
    },
    {
      "id": "node/6703914504",
      "osm_id": 6703914504,
      "osm_type": "node",
      "name": "Fără nume",
      "category": "education",
      "lat": 47.7794628,
      "lon": 26.8600165,
      "tags": {
        "amenity": "school"
      }
    },
    {
      "id": "node/7884794286",
      "osm_id": 7884794286,
      "osm_type": "node",
      "name": "Grădinița",
      "category": "education",
      "lat": 48.0735967,
      "lon": 26.6495383,
      "tags": {
        "amenity": "kindergarten",
        "name": "Grădinița"
      }
    },
    {
      "id": "node/7884799188",
      "osm_id": 7884799188,
      "osm_type": "node",
      "name": "Școala generală",
      "category": "education",
      "lat": 48.0737129,
      "lon": 26.6476229,
      "tags": {
        "amenity": "school",
        "name": "Școala generală"
      }
    },
    {
      "id": "node/7884799485",
      "osm_id": 7884799485,
      "osm_type": "node",
      "name": "Școala generală 1-2",
      "category": "education",
      "lat": 48.0742152,
      "lon": 26.6478949,
      "tags": {
        "amenity": "school",
        "name": "Școala generală 1-2"
      }
    },
    {
      "id": "node/7934457610",
      "osm_id": 7934457610,
      "osm_type": "node",
      "name": "Scoala Speciala nr. 1",
      "category": "education",
      "lat": 47.9472619,
      "lon": 26.3828616,
      "tags": {
        "addr:city": "Dorohoi",
        "addr:street": "Strada 1 Decembrie",
        "amenity": "school",
        "name": "Scoala Speciala nr. 1"
      }
    },
    {
      "id": "node/7942162058",
      "osm_id": 7942162058,
      "osm_type": "node",
      "name": "Grădinița Nr. 9",
      "category": "education",
      "lat": 47.9535325,
      "lon": 26.4014259,
      "tags": {
        "addr:city": "Dorohoi",
        "addr:postcode": "715200",
        "addr:street": "Strada Ștefan cel Mare",
        "amenity": "kindergarten",
        "name": "Grădinița Nr. 9"
      }
    },
    {
      "id": "node/8107477555",
      "osm_id": 8107477555,
      "osm_type": "node",
      "name": "Grădinița normală Nr. 16",
      "category": "education",
      "lat": 47.7195143,
      "lon": 26.6986253,
      "tags": {
        "addr:city": "Botoșani",
        "addr:postcode": "710379",
        "addr:street": "Strada Prunilor",
        "amenity": "kindergarten",
        "name": "Grădinița normală Nr. 16",
        "preschool": "yes"
      }
    },
    {
      "id": "node/9140347950",
      "osm_id": 9140347950,
      "osm_type": "node",
      "name": "Universitatea A.I. Cuza - Filiala Botoșani",
      "category": "education",
      "lat": 47.738367,
      "lon": 26.6643865,
      "tags": {
        "addr:city": "Botoșani",
        "addr:housenumber": "19",
        "addr:street": "Strada Nicolae Iorga",
        "amenity": "university",
        "name": "Universitatea A.I. Cuza - Filiala Botoșani",
        "operator": "Universitatea A.I. Cuza din Iași",
        "operator:type": "public"
      }
    },
    {
      "id": "node/9240802799",
      "osm_id": 9240802799,
      "osm_type": "node",
      "name": "Școala Gimnazială Miorcani",
      "category": "education",
      "lat": 48.2008504,
      "lon": 26.8488665,
      "tags": {
        "amenity": "school",
        "name": "Școala Gimnazială Miorcani"
      }
    },
    {
      "id": "node/9465545002",
      "osm_id": 9465545002,
      "osm_type": "node",
      "name": "Centrul Județean de Excelență Botoșani",
      "category": "education",
      "lat": 47.7375917,
      "lon": 26.6593538,
      "tags": {
        "addr:housenumber": "32",
        "addr:street": "Strada Mihail Kogălniceanu",
        "amenity": "school",
        "name": "Centrul Județean de Excelență Botoșani"
      }
    },
    {
      "id": "node/10804503827",
      "osm_id": 10804503827,
      "osm_type": "node",
      "name": "Școala Dimăcheni",
      "category": "education",
      "lat": 47.9127955,
      "lon": 26.5488689,
      "tags": {
        "addr:city": "Dimăcheni",
        "addr:postcode": "717077",
        "amenity": "school",
        "name": "Școala Dimăcheni"
      }
    },
    {
      "id": "node/10980617090",
      "osm_id": 10980617090,
      "osm_type": "node",
      "name": "Liceul Tehnologic Coțușca",
      "category": "education",
      "lat": 48.127658,
      "lon": 26.8550228,
      "tags": {
        "addr:city": "Coțușca",
        "addr:postcode": "717090",
        "addr:street": "Strada Principală",
        "amenity": "school",
        "name": "Liceul Tehnologic Coțușca"
      }
    },
    {
      "id": "node/11077465245",
      "osm_id": 11077465245,
      "osm_type": "node",
      "name": "Scoala Nr2 Suharău",
      "category": "education",
      "lat": 48.1425567,
      "lon": 26.4214204,
      "tags": {
        "amenity": "school",
        "name": "Scoala Nr2 Suharău",
        "wheelchair": "no"
      }
    },
    {
      "id": "node/11083942162",
      "osm_id": 11083942162,
      "osm_type": "node",
      "name": "Scoala cu clasele I-VIII",
      "category": "education",
      "lat": 48.1071787,
      "lon": 26.4749625,
      "tags": {
        "amenity": "school",
        "name": "Scoala cu clasele I-VIII"
      }
    },
    {
      "id": "node/11985008443",
      "osm_id": 11985008443,
      "osm_type": "node",
      "name": "Școala Hănești",
      "category": "education",
      "lat": 47.9090697,
      "lon": 26.9709308,
      "tags": {
        "addr:city": "Hănești",
        "addr:housenumber": "38",
        "addr:postcode": "717195",
        "addr:street": "Strada Dângeni",
        "amenity": "school",
        "name": "Școala Hănești",
        "website": "https://www.scoalahanesti.ro/"
      }
    },
    {
      "id": "node/12124096113",
      "osm_id": 12124096113,
      "osm_type": "node",
      "name": "Școala cu Clasele I-VIII Teofil Valcu",
      "category": "education",
      "lat": 47.9115707,
      "lon": 26.9775052,
      "tags": {
        "addr:city": "Hănești",
        "addr:housenumber": "4",
        "addr:postcode": "717195",
        "addr:street": "Strada 1 Decembrie 1918",
        "amenity": "school",
        "name": "Școala cu Clasele I-VIII Teofil Valcu",
        "phone": "+40231549052",
        "website": "https://scoalahanesti.ro/"
      }
    },
    {
      "id": "node/13052131989",
      "osm_id": 13052131989,
      "osm_type": "node",
      "name": "Scoala primara Hutani",
      "category": "education",
      "lat": 47.7108648,
      "lon": 26.4871028,
      "tags": {
        "amenity": "school",
        "grades": "1-4",
        "name": "Scoala primara Hutani"
      }
    },
    {
      "id": "way/240324630",
      "osm_id": 240324630,
      "osm_type": "way",
      "name": "Fără nume",
      "category": "education",
      "lat": 47.8119653,
      "lon": 26.3735057,
      "tags": {
        "amenity": "school"
      }
    },
    {
      "id": "way/256319155",
      "osm_id": 256319155,
      "osm_type": "way",
      "name": "Fără nume",
      "category": "education",
      "lat": 48.2008925,
      "lon": 26.8488495,
      "tags": {
        "amenity": "school"
      }
    },
    {
      "id": "way/256319156",
      "osm_id": 256319156,
      "osm_type": "way",
      "name": "Fără nume",
      "category": "education",
      "lat": 48.2012571,
      "lon": 26.8496082,
      "tags": {
        "amenity": "school"
      }
    },
    {
      "id": "way/256319158",
      "osm_id": 256319158,
      "osm_type": "way",
      "name": "Fără nume",
      "category": "education",
      "lat": 48.201071,
      "lon": 26.8493632,
      "tags": {
        "amenity": "school"
      }
    },
    {
      "id": "way/274937935",
      "osm_id": 274937935,
      "osm_type": "way",
      "name": "Școala Nr. 9",
      "category": "education",
      "lat": 47.7197098,
      "lon": 26.6981879,
      "tags": {
        "addr:city": "Botoșani",
        "addr:street": "Strada Tulbureni",
        "amenity": "school",
        "name": "Școala Nr. 9"
      }
    },
    {
      "id": "way/275417734",
      "osm_id": 275417734,
      "osm_type": "way",
      "name": "Liceul Dimitrie Negreanu",
      "category": "education",
      "lat": 47.7355398,
      "lon": 26.6624301,
      "tags": {
        "addr:city": "Botoșani",
        "addr:housenumber": "9",
        "addr:postcode": "710202",
        "addr:street": "Strada Dimitrie Rallet",
        "amenity": "college",
        "contact:phone": "0231-584079",
        "email": "lcm_bt@yahoo.com",
        "fax": "0231-584079",
        "isced:level": "2-3",
        "name": "Liceul Dimitrie Negreanu",
        "operator": "Inspectoratul Școlar Județean Botoșani",
        "website": "http://www.dimitrienegreanu.botosani.ro/"
      }
    },
    {
      "id": "way/275420066",
      "osm_id": 275420066,
      "osm_type": "way",
      "name": "Colegiul Economic Octav Onicescu",
      "category": "education",
      "lat": 47.7350485,
      "lon": 26.659519,
      "tags": {
        "addr:street": "Strada Bucovina",
        "amenity": "school",
        "isced:level": "2-3",
        "name": "Colegiul Economic Octav Onicescu"
      }
    },
    {
      "id": "way/275420100",
      "osm_id": 275420100,
      "osm_type": "way",
      "name": "Școala Nr. 10",
      "category": "education",
      "lat": 47.7373992,
      "lon": 26.6658909,
      "tags": {
        "addr:street": "Bulevardul Mihai Eminescu",
        "amenity": "school",
        "name": "Școala Nr. 10"
      }
    },
    {
      "id": "way/275420153",
      "osm_id": 275420153,
      "osm_type": "way",
      "name": "Colegiul A.T. Laurian",
      "category": "education",
      "lat": 47.7387371,
      "lon": 26.664949,
      "tags": {
        "addr:city": "Botoșani",
        "addr:street": "Strada Nicolae Iorga",
        "amenity": "college",
        "name": "Colegiul A.T. Laurian"
      }
    },
    {
      "id": "way/275420613",
      "osm_id": 275420613,
      "osm_type": "way",
      "name": "Școala Gimnazială Nr.1 \"Sfântul Nicolae\"",
      "category": "education",
      "lat": 47.7376601,
      "lon": 26.6745082,
      "tags": {
        "addr:city": "Botoșani",
        "addr:housenumber": "20",
        "addr:postcode": "710350",
        "addr:street": "Strada AS Pușkin",
        "amenity": "school",
        "name": "Școala Gimnazială Nr.1 \"Sfântul Nicolae\""
      }
    },
    {
      "id": "way/275474807",
      "osm_id": 275474807,
      "osm_type": "way",
      "name": "Seminarul Teologic Liceal Ortodox \"Sfantul Gheorghe\"",
      "category": "education",
      "lat": 47.7469907,
      "lon": 26.6478396,
      "tags": {
        "addr:city": "Botoșani",
        "addr:housenumber": "2",
        "addr:street": "Strada Prieteniei",
        "building": "school",
        "building:levels": "4",
        "name": "Seminarul Teologic Liceal Ortodox \"Sfantul Gheorghe\""
      }
    },
    {
      "id": "way/277113800",
      "osm_id": 277113800,
      "osm_type": "way",
      "name": "Fără nume",
      "category": "education",
      "lat": 47.7433769,
      "lon": 26.6487786,
      "tags": {
        "addr:city": "Botoșani",
        "addr:street": "Strada Octav Onicescu",
        "building": "school"
      }
    },
    {
      "id": "way/278508326",
      "osm_id": 278508326,
      "osm_type": "way",
      "name": "Școala Gimnazială „Elena Rareș”",
      "category": "education",
      "lat": 47.7487708,
      "lon": 26.6703262,
      "tags": {
        "addr:housenumber": "8",
        "addr:street": "Strada Tudor Vladimirescu",
        "amenity": "school",
        "contact:phone": "0231 511446",
        "email": "sc_elena_rares@yahoo.com",
        "name": "Școala Gimnazială „Elena Rareș”"
      }
    },
    {
      "id": "way/281840752",
      "osm_id": 281840752,
      "osm_type": "way",
      "name": "Școala Populară de Arte și Meserii",
      "category": "education",
      "lat": 47.7445546,
      "lon": 26.6778645,
      "tags": {
        "addr:postcode": "710319",
        "addr:street": "Strada I.C. Brătianu",
        "amenity": "school",
        "name": "Școala Populară de Arte și Meserii"
      }
    },
    {
      "id": "way/284120539",
      "osm_id": 284120539,
      "osm_type": "way",
      "name": "Fără nume",
      "category": "education",
      "lat": 47.738428,
      "lon": 26.6645417,
      "tags": {
        "addr:city": "Botoșani",
        "addr:street": "Strada Nicolae Iorga",
        "building": "school",
        "building:levels": "4"
      }
    },
    {
      "id": "way/284120540",
      "osm_id": 284120540,
      "osm_type": "way",
      "name": "Fără nume",
      "category": "education",
      "lat": 47.7387339,
      "lon": 26.6650304,
      "tags": {
        "addr:city": "Botoșani",
        "addr:street": "Strada Nicolae Iorga",
        "building": "school",
        "building:levels": "4"
      }
    },
    {
      "id": "way/285633596",
      "osm_id": 285633596,
      "osm_type": "way",
      "name": "Fără nume",
      "category": "education",
      "lat": 47.744374,
      "lon": 26.6800064,
      "tags": {
        "amenity": "school"
      }
    },
    {
      "id": "way/286071072",
      "osm_id": 286071072,
      "osm_type": "way",
      "name": "Liceul 'Alexandru Cel Bun'",
      "category": "education",
      "lat": 47.7527601,
      "lon": 26.6372098,
      "tags": {
        "amenity": "school",
        "building": "yes",
        "name": "Liceul 'Alexandru Cel Bun'"
      }
    },
    {
      "id": "way/296198739",
      "osm_id": 296198739,
      "osm_type": "way",
      "name": "Liceul Dimitrie Cantemir - corp A",
      "category": "education",
      "lat": 48.1839489,
      "lon": 26.5905167,
      "tags": {
        "addr:city": "Darabani",
        "addr:housenumber": "14",
        "addr:postcode": "715100",
        "addr:street": "Strada Tudor Vladimirescu",
        "building": "school",
        "building:levels": "2",
        "name": "Liceul Dimitrie Cantemir - corp A"
      }
    },
    {
      "id": "way/296402689",
      "osm_id": 296402689,
      "osm_type": "way",
      "name": "Liceul Dimitrie Cantemir-corp B",
      "category": "education",
      "lat": 48.1843693,
      "lon": 26.5900186,
      "tags": {
        "addr:city": "Darabani",
        "addr:housenumber": "12",
        "addr:postcode": "715100",
        "addr:street": "Strada Tudor Vladimirescu",
        "building": "school",
        "building:levels": "2",
        "name": "Liceul Dimitrie Cantemir-corp B"
      }
    },
    {
      "id": "way/311142204",
      "osm_id": 311142204,
      "osm_type": "way",
      "name": "Școala Generală Nr. 7",
      "category": "education",
      "lat": 47.7454574,
      "lon": 26.6491971,
      "tags": {
        "addr:city": "Botoșani",
        "addr:street": "Strada Varnav",
        "amenity": "school",
        "name": "Școala Generală Nr. 7"
      }
    },
    {
      "id": "way/321249622",
      "osm_id": 321249622,
      "osm_type": "way",
      "name": "Liceul cu Program Sportiv",
      "category": "education",
      "lat": 47.7370783,
      "lon": 26.6598995,
      "tags": {
        "addr:city": "Botoșani",
        "addr:street": "Strada Mihail Kogălniceanu",
        "amenity": "school",
        "isced:level": "2-3",
        "name": "Liceul cu Program Sportiv",
        "operator": "Inspectoratul Școlar Județean Botoșani"
      }
    },
    {
      "id": "way/321532010",
      "osm_id": 321532010,
      "osm_type": "way",
      "name": "Fără nume",
      "category": "education",
      "lat": 47.7491225,
      "lon": 26.6700348,
      "tags": {
        "building": "school"
      }
    },
    {
      "id": "way/336843163",
      "osm_id": 336843163,
      "osm_type": "way",
      "name": "Fără nume",
      "category": "education",
      "lat": 47.7562582,
      "lon": 26.6575721,
      "tags": {
        "addr:city": "Botoșani",
        "addr:street": "Aleea Constantin Iordăchescu",
        "amenity": "kindergarten"
      }
    },
    {
      "id": "way/337145248",
      "osm_id": 337145248,
      "osm_type": "way",
      "name": "Fără nume",
      "category": "education",
      "lat": 47.7489465,
      "lon": 26.670534,
      "tags": {
        "building": "school",
        "building:levels": "3"
      }
    },
    {
      "id": "way/354864481",
      "osm_id": 354864481,
      "osm_type": "way",
      "name": "Liceul Tehnologic Special Sfântul Stelian",
      "category": "education",
      "lat": 47.7345753,
      "lon": 26.6617767,
      "tags": {
        "addr:city": "Botoșani",
        "addr:housenumber": "6",
        "addr:postcode": "710203",
        "addr:street": "Strada Dimitrie Rallet",
        "amenity": "college",
        "name": "Liceul Tehnologic Special Sfântul Stelian",
        "operator": "Inspectoratul Școlar Județean Botoșani",
        "phone": "+40231 517 678"
      }
    },
    {
      "id": "way/377260211",
      "osm_id": 377260211,
      "osm_type": "way",
      "name": "Școala Generală Nr. 11",
      "category": "education",
      "lat": 47.7484683,
      "lon": 26.6577527,
      "tags": {
        "addr:city": "Botoșani",
        "addr:housenumber": "75",
        "addr:postcode": "710028",
        "addr:street": "Strada General Gheorghe Avramescu",
        "amenity": "school",
        "name": "Școala Generală Nr. 11"
      }
    },
    {
      "id": "way/422769011",
      "osm_id": 422769011,
      "osm_type": "way",
      "name": "Fără nume",
      "category": "education",
      "lat": 47.6171183,
      "lon": 26.8504769,
      "tags": {
        "amenity": "school"
      }
    },
    {
      "id": "way/424308734",
      "osm_id": 424308734,
      "osm_type": "way",
      "name": "Liceul Tehnologic Nicolae Bălcescu",
      "category": "education",
      "lat": 47.5715974,
      "lon": 26.8906814,
      "tags": {
        "addr:city": "Flămânzi",
        "addr:street": "Strada Dumitru Iov",
        "amenity": "school",
        "isced:level": "1-3",
        "name": "Liceul Tehnologic Nicolae Bălcescu",
        "operator": "Inspectoratul Scolar Judetean Botosani"
      }
    },
    {
      "id": "way/425907449",
      "osm_id": 425907449,
      "osm_type": "way",
      "name": "Școala Generală nr. 12",
      "category": "education",
      "lat": 47.7463032,
      "lon": 26.6453644,
      "tags": {
        "addr:city": "Botoșani",
        "addr:street": "Strada Prieteniei",
        "building": "school",
        "building:levels": "3",
        "name": "Școala Generală nr. 12"
      }
    },
    {
      "id": "way/433387042",
      "osm_id": 433387042,
      "osm_type": "way",
      "name": "Fără nume",
      "category": "education",
      "lat": 47.7419752,
      "lon": 26.680301,
      "tags": {
        "amenity": "school"
      }
    },
    {
      "id": "way/441164051",
      "osm_id": 441164051,
      "osm_type": "way",
      "name": "Grădinița particulară Sandy Belle",
      "category": "education",
      "lat": 47.7416163,
      "lon": 26.6731323,
      "tags": {
        "addr:city": "Botoșani",
        "addr:housenumber": "15A",
        "addr:postcode": "710336",
        "addr:street": "Strada Victoriei",
        "building": "kindergarten",
        "building:levels": "2",
        "name": "Grădinița particulară Sandy Belle",
        "phone": "0231510486"
      }
    },
    {
      "id": "way/443370250",
      "osm_id": 443370250,
      "osm_type": "way",
      "name": "Fără nume",
      "category": "education",
      "lat": 47.7403316,
      "lon": 26.6710352,
      "tags": {
        "addr:street": "Strada Armeană",
        "amenity": "kindergarten"
      }
    },
    {
      "id": "way/444097470",
      "osm_id": 444097470,
      "osm_type": "way",
      "name": "Fără nume",
      "category": "education",
      "lat": 47.7373902,
      "lon": 26.6643145,
      "tags": {
        "amenity": "kindergarten"
      }
    },
    {
      "id": "way/447370130",
      "osm_id": 447370130,
      "osm_type": "way",
      "name": "Fără nume",
      "category": "education",
      "lat": 47.7384732,
      "lon": 26.668753,
      "tags": {
        "amenity": "school"
      }
    },
    {
      "id": "way/447822299",
      "osm_id": 447822299,
      "osm_type": "way",
      "name": "Fără nume",
      "category": "education",
      "lat": 47.882447,
      "lon": 26.6466395,
      "tags": {
        "amenity": "school"
      }
    },
    {
      "id": "way/447822308",
      "osm_id": 447822308,
      "osm_type": "way",
      "name": "Fără nume",
      "category": "education",
      "lat": 47.8599245,
      "lon": 26.6343734,
      "tags": {
        "amenity": "school"
      }
    },
    {
      "id": "way/451860683",
      "osm_id": 451860683,
      "osm_type": "way",
      "name": "Liceul Tehnoloogic Bucecea",
      "category": "education",
      "lat": 47.7728226,
      "lon": 26.437863,
      "tags": {
        "addr:city": "Bucecea",
        "addr:housenumber": "99",
        "addr:postcode": "717045",
        "addr:postcode:source": "Date de la Poșta Română, publicate sub Licența pentru Guvernare Deschisă v1.0 la http://date.gov.ro/organization/posta-romana",
        "addr:street": "Calea Națională",
        "amenity": "school",
        "name": "Liceul Tehnoloogic Bucecea"
      }
    },
    {
      "id": "way/451862376",
      "osm_id": 451862376,
      "osm_type": "way",
      "name": "Fără nume",
      "category": "education",
      "lat": 47.7667794,
      "lon": 26.4462023,
      "tags": {
        "amenity": "school"
      }
    },
    {
      "id": "way/453952717",
      "osm_id": 453952717,
      "osm_type": "way",
      "name": "Grădinița cu Program Prelungit nr. 19",
      "category": "education",
      "lat": 47.7451394,
      "lon": 26.6475485,
      "tags": {
        "addr:city": "Botoșani",
        "addr:housenumber": "5",
        "addr:street": "Aleea Prieteniei",
        "building": "kindergarten",
        "name": "Grădinița cu Program Prelungit nr. 19"
      }
    },
    {
      "id": "way/454890252",
      "osm_id": 454890252,
      "osm_type": "way",
      "name": "Colegiul Tehnic \"Gheorghe Asachi\"",
      "category": "education",
      "lat": 47.7465363,
      "lon": 26.6472612,
      "tags": {
        "addr:city": "Botoșani",
        "addr:housenumber": "7",
        "addr:street": "Strada Prieteniei",
        "building": "school",
        "building:levels": "4",
        "name": "Colegiul Tehnic \"Gheorghe Asachi\""
      }
    },
    {
      "id": "way/478297831",
      "osm_id": 478297831,
      "osm_type": "way",
      "name": "Liceul Regina Maria",
      "category": "education",
      "lat": 47.940219,
      "lon": 26.4066697,
      "tags": {
        "amenity": "school",
        "isced:level": "3",
        "name": "Liceul Regina Maria",
        "operator:type": "public",
        "railway": "yard",
        "wheelchair": "limited"
      }
    },
    {
      "id": "way/502632839",
      "osm_id": 502632839,
      "osm_type": "way",
      "name": "Școala Gimnaziala nr. 3 Botoșani",
      "category": "education",
      "lat": 47.7477413,
      "lon": 26.6752629,
      "tags": {
        "addr:city": "Botoșani",
        "addr:housenumber": "19",
        "addr:postcode": "710311",
        "addr:street": "Strada Tudor Vladimirescu",
        "building": "school",
        "name": "Școala Gimnaziala nr. 3 Botoșani"
      }
    },
    {
      "id": "way/624469798",
      "osm_id": 624469798,
      "osm_type": "way",
      "name": "Fără nume",
      "category": "education",
      "lat": 47.553538,
      "lon": 26.8803125,
      "tags": {
        "amenity": "school"
      }
    },
    {
      "id": "way/633879834",
      "osm_id": 633879834,
      "osm_type": "way",
      "name": "Școala George Hazgan",
      "category": "education",
      "lat": 47.846554,
      "lon": 26.328565,
      "tags": {
        "amenity": "school",
        "name": "Școala George Hazgan"
      }
    },
    {
      "id": "way/671881351",
      "osm_id": 671881351,
      "osm_type": "way",
      "name": "Grădinița cu Program Prelungit „Șotron” Botoșani",
      "category": "education",
      "lat": 47.7471176,
      "lon": 26.6556923,
      "tags": {
        "addr:city": "Botoșani",
        "addr:housenumber": "11",
        "addr:postcode": "710085",
        "addr:street": "Strada Octav Băncilă",
        "amenity": "kindergarten",
        "name": "Grădinița cu Program Prelungit „Șotron” Botoșani",
        "opening_hours": "Mo-Fr 08:00-17:00"
      }
    },
    {
      "id": "way/682459307",
      "osm_id": 682459307,
      "osm_type": "way",
      "name": "Școala Nr. 9",
      "category": "education",
      "lat": 47.7195636,
      "lon": 26.6985597,
      "tags": {
        "addr:city": "Botoșani",
        "addr:street": "Strada Tulbureni",
        "amenity": "school",
        "building": "yes",
        "name": "Școala Nr. 9"
      }
    },
    {
      "id": "way/682761202",
      "osm_id": 682761202,
      "osm_type": "way",
      "name": "Fără nume",
      "category": "education",
      "lat": 47.7475432,
      "lon": 26.6750763,
      "tags": {
        "addr:city": "Botoșani",
        "addr:street": "Strada Tudor Vladimirescu",
        "amenity": "school"
      }
    },
    {
      "id": "way/682773252",
      "osm_id": 682773252,
      "osm_type": "way",
      "name": "Grădinița Numărul 22",
      "category": "education",
      "lat": 47.753007,
      "lon": 26.6715243,
      "tags": {
        "addr:city": "Botoșani",
        "addr:street": "Aleea Parcul Tineretului",
        "building": "kindergarten",
        "building:levels": "2",
        "name": "Grădinița Numărul 22"
      }
    },
    {
      "id": "way/682773254",
      "osm_id": 682773254,
      "osm_type": "way",
      "name": "Școala Generală Nr. 2",
      "category": "education",
      "lat": 47.7534975,
      "lon": 26.6719243,
      "tags": {
        "addr:city": "Botoșani",
        "addr:street": "Strada Parcul Tineretului",
        "building": "school",
        "building:levels": "2",
        "name": "Școala Generală Nr. 2"
      }
    },
    {
      "id": "way/682773505",
      "osm_id": 682773505,
      "osm_type": "way",
      "name": "Fără nume",
      "category": "education",
      "lat": 47.7529792,
      "lon": 26.6716751,
      "tags": {
        "addr:city": "Botoșani",
        "addr:street": "Strada Parcul Tineretului",
        "amenity": "kindergarten"
      }
    },
    {
      "id": "way/682773506",
      "osm_id": 682773506,
      "osm_type": "way",
      "name": "Fără nume",
      "category": "education",
      "lat": 47.75346,
      "lon": 26.6718879,
      "tags": {
        "addr:city": "Botoșani",
        "addr:street": "Strada Parcul Tineretului",
        "amenity": "school"
      }
    },
    {
      "id": "way/682942666",
      "osm_id": 682942666,
      "osm_type": "way",
      "name": "Fără nume",
      "category": "education",
      "lat": 47.747018,
      "lon": 26.647359,
      "tags": {
        "addr:city": "Botoșani",
        "addr:street": "Strada Prieteniei",
        "amenity": "school"
      }
    },
    {
      "id": "way/682950802",
      "osm_id": 682950802,
      "osm_type": "way",
      "name": "Fără nume",
      "category": "education",
      "lat": 47.7445663,
      "lon": 26.6541812,
      "tags": {
        "addr:city": "Botoșani",
        "addr:street": "Bulevardul Mihai Eminescu",
        "amenity": "school"
      }
    },
    {
      "id": "way/682956055",
      "osm_id": 682956055,
      "osm_type": "way",
      "name": "Grădinița Nr. 6 Prichindel",
      "category": "education",
      "lat": 47.7407886,
      "lon": 26.6470682,
      "tags": {
        "addr:city": "Botoșani",
        "addr:street": "Aleea Curcubeului",
        "building": "kindergarten",
        "name": "Grădinița Nr. 6 Prichindel"
      }
    },
    {
      "id": "way/682956056",
      "osm_id": 682956056,
      "osm_type": "way",
      "name": "Fără nume",
      "category": "education",
      "lat": 47.7403522,
      "lon": 26.6474899,
      "tags": {
        "addr:city": "Botoșani",
        "addr:housenumber": "2",
        "addr:street": "Aleea Cinema",
        "building": "school"
      }
    },
    {
      "id": "way/682956057",
      "osm_id": 682956057,
      "osm_type": "way",
      "name": "Fără nume",
      "category": "education",
      "lat": 47.7401724,
      "lon": 26.6479242,
      "tags": {
        "addr:city": "Botoșani",
        "addr:street": "Aleea Cinema",
        "building": "school"
      }
    },
    {
      "id": "way/682956260",
      "osm_id": 682956260,
      "osm_type": "way",
      "name": "Școala Generală Nr. 13",
      "category": "education",
      "lat": 47.7404849,
      "lon": 26.6476183,
      "tags": {
        "addr:city": "Botoșani",
        "addr:housenumber": "2",
        "addr:postcode": "710142",
        "addr:street": "Aleea Curcubeului",
        "amenity": "school",
        "name": "Școala Generală Nr. 13"
      }
    },
    {
      "id": "way/682957127",
      "osm_id": 682957127,
      "osm_type": "way",
      "name": "Fără nume",
      "category": "education",
      "lat": 47.7404628,
      "lon": 26.6513822,
      "tags": {
        "amenity": "school"
      }
    },
    {
      "id": "way/682971408",
      "osm_id": 682971408,
      "osm_type": "way",
      "name": "Școala Generală Nr. 16",
      "category": "education",
      "lat": 47.7380725,
      "lon": 26.6487753,
      "tags": {
        "addr:city": "Botoșani",
        "addr:housenumber": "7",
        "addr:street": "Aleea Pacea",
        "building": "school",
        "building:levels": "5",
        "name": "Școala Generală Nr. 16"
      }
    },
    {
      "id": "way/683089728",
      "osm_id": 683089728,
      "osm_type": "way",
      "name": "Fără nume",
      "category": "education",
      "lat": 47.7436118,
      "lon": 26.6483731,
      "tags": {
        "addr:city": "Botoșani",
        "addr:housenumber": "7",
        "addr:postcode": "710114",
        "addr:street": "Strada Octav Onicescu",
        "amenity": "school"
      }
    },
    {
      "id": "way/683106235",
      "osm_id": 683106235,
      "osm_type": "way",
      "name": "Școala Gimnazială \"Ștefan Cel Mare\"",
      "category": "education",
      "lat": 47.7498088,
      "lon": 26.6546337,
      "tags": {
        "addr:city": "Botoșani",
        "addr:housenumber": "5",
        "addr:postcode": "710050",
        "addr:street": "Strada Libertății",
        "building": "school",
        "building:levels": "4",
        "name": "Școala Gimnazială \"Ștefan Cel Mare\""
      }
    },
    {
      "id": "way/683106236",
      "osm_id": 683106236,
      "osm_type": "way",
      "name": "Fără nume",
      "category": "education",
      "lat": 47.7498593,
      "lon": 26.6546243,
      "tags": {
        "amenity": "school"
      }
    },
    {
      "id": "way/683110631",
      "osm_id": 683110631,
      "osm_type": "way",
      "name": "Fără nume",
      "category": "education",
      "lat": 47.74829,
      "lon": 26.6577035,
      "tags": {
        "addr:city": "Botoșani",
        "addr:street": "Calea Națională",
        "building": "school",
        "building:levels": "3"
      }
    },
    {
      "id": "way/683413335",
      "osm_id": 683413335,
      "osm_type": "way",
      "name": "Școala Gimnazială Nr. 6 Grigore Antipa",
      "category": "education",
      "lat": 47.7379393,
      "lon": 26.6564828,
      "tags": {
        "addr:city": "Botoșani",
        "addr:housenumber": "6",
        "addr:postcode": "710714",
        "addr:street": "Aleea Școlii",
        "building": "school",
        "building:levels": "3",
        "name": "Școala Gimnazială Nr. 6 Grigore Antipa"
      }
    },
    {
      "id": "way/683414152",
      "osm_id": 683414152,
      "osm_type": "way",
      "name": "Fără nume",
      "category": "education",
      "lat": 47.7378887,
      "lon": 26.6563425,
      "tags": {
        "addr:city": "Botoșani",
        "addr:housenumber": "3",
        "addr:postcode": "710714",
        "addr:street": "Aleea Școlii",
        "amenity": "school"
      }
    },
    {
      "id": "way/683448186",
      "osm_id": 683448186,
      "osm_type": "way",
      "name": "Fără nume",
      "category": "education",
      "lat": 47.7381996,
      "lon": 26.6490126,
      "tags": {
        "amenity": "school"
      }
    },
    {
      "id": "way/683486634",
      "osm_id": 683486634,
      "osm_type": "way",
      "name": "Școala Generală nr. 12",
      "category": "education",
      "lat": 47.7463604,
      "lon": 26.6455441,
      "tags": {
        "addr:city": "Botoșani",
        "addr:street": "Strada Prieteniei",
        "amenity": "school",
        "name": "Școala Generală nr. 12"
      }
    },
    {
      "id": "way/683664375",
      "osm_id": 683664375,
      "osm_type": "way",
      "name": "Fără nume",
      "category": "education",
      "lat": 47.7376762,
      "lon": 26.6632619,
      "tags": {
        "building": "kindergarten"
      }
    },
    {
      "id": "way/683664447",
      "osm_id": 683664447,
      "osm_type": "way",
      "name": "Fără nume",
      "category": "education",
      "lat": 47.7374935,
      "lon": 26.6642733,
      "tags": {
        "addr:city": "Botoșani",
        "addr:street": "Bulevardul Mihai Eminescu",
        "building": "kindergarten"
      }
    },
    {
      "id": "way/684544531",
      "osm_id": 684544531,
      "osm_type": "way",
      "name": "Școala Generală Nr. 4",
      "category": "education",
      "lat": 47.746637,
      "lon": 26.659644,
      "tags": {
        "addr:city": "Botoșani",
        "addr:street": "Strada Ștefan Luchian",
        "amenity": "school",
        "name": "Școala Generală Nr. 4",
        "phone": "0231 512 863"
      }
    },
    {
      "id": "way/684547580",
      "osm_id": 684547580,
      "osm_type": "way",
      "name": "Fără nume",
      "category": "education",
      "lat": 47.747221,
      "lon": 26.657614,
      "tags": {
        "addr:city": "Botoșani",
        "addr:street": "Strada Ștefan Luchian",
        "building": "kindergarten"
      }
    },
    {
      "id": "way/685193475",
      "osm_id": 685193475,
      "osm_type": "way",
      "name": "Fără nume",
      "category": "education",
      "lat": 47.741754,
      "lon": 26.6587938,
      "tags": {
        "addr:city": "Botoșani",
        "addr:housenumber": "69",
        "addr:postcode": "717113",
        "addr:street": "Bulevardul Mihai Eminescu",
        "amenity": "school"
      }
    },
    {
      "id": "way/685197241",
      "osm_id": 685197241,
      "osm_type": "way",
      "name": "Fără nume",
      "category": "education",
      "lat": 47.7530297,
      "lon": 26.6376421,
      "tags": {
        "addr:city": "Botoșani",
        "addr:street": "Calea Națională",
        "amenity": "school"
      }
    },
    {
      "id": "way/686274532",
      "osm_id": 686274532,
      "osm_type": "way",
      "name": "Liceul Dimitrie Negreanu",
      "category": "education",
      "lat": 47.735452,
      "lon": 26.6623554,
      "tags": {
        "addr:city": "Botoșani",
        "addr:housenumber": "24",
        "addr:street": "Strada Dimitrie Rallet",
        "building": "school",
        "building:levels": "2",
        "name": "Liceul Dimitrie Negreanu"
      }
    },
    {
      "id": "way/686607515",
      "osm_id": 686607515,
      "osm_type": "way",
      "name": "Fără nume",
      "category": "education",
      "lat": 47.7373443,
      "lon": 26.6747273,
      "tags": {
        "building": "kindergarten"
      }
    },
    {
      "id": "way/713142693",
      "osm_id": 713142693,
      "osm_type": "way",
      "name": "Fără nume",
      "category": "education",
      "lat": 47.7793592,
      "lon": 26.8597737,
      "tags": {
        "amenity": "school"
      }
    },
    {
      "id": "way/797090438",
      "osm_id": 797090438,
      "osm_type": "way",
      "name": "Școala Generală Nr. 1 „Leon Dănăilă”",
      "category": "education",
      "lat": 48.1879081,
      "lon": 26.5886539,
      "tags": {
        "addr:city": "Darabani",
        "addr:housenumber": "75",
        "addr:postcode": "715100",
        "addr:street": "Strada 1 Decembrie 1918",
        "building": "school",
        "building:levels": "1",
        "name": "Școala Generală Nr. 1 „Leon Dănăilă”"
      }
    },
    {
      "id": "way/797350351",
      "osm_id": 797350351,
      "osm_type": "way",
      "name": "Școala Generală Nr. 1 „Leon Dănăilă”",
      "category": "education",
      "lat": 48.1883671,
      "lon": 26.5881546,
      "tags": {
        "addr:city": "Darabani",
        "addr:housenumber": "75",
        "addr:postcode": "715100",
        "addr:street": "Strada 1 Decembrie 1918",
        "building": "school",
        "building:levels": "2",
        "name": "Școala Generală Nr. 1 „Leon Dănăilă”"
      }
    },
    {
      "id": "way/797383740",
      "osm_id": 797383740,
      "osm_type": "way",
      "name": "Liceul Dimitrie Cantemir - corp C",
      "category": "education",
      "lat": 48.182971,
      "lon": 26.5898514,
      "tags": {
        "addr:city": "Darabani",
        "addr:housenumber": "26",
        "addr:postcode": "715100",
        "addr:street": "Strada Tudor Vladimirescu",
        "building": "school",
        "name": "Liceul Dimitrie Cantemir - corp C"
      }
    },
    {
      "id": "way/797847231",
      "osm_id": 797847231,
      "osm_type": "way",
      "name": "Fără nume",
      "category": "education",
      "lat": 48.1861051,
      "lon": 26.5904331,
      "tags": {
        "amenity": "school"
      }
    },
    {
      "id": "way/797847233",
      "osm_id": 797847233,
      "osm_type": "way",
      "name": "Fără nume",
      "category": "education",
      "lat": 48.1861179,
      "lon": 26.5903494,
      "tags": {
        "building": "school"
      }
    },
    {
      "id": "way/797847234",
      "osm_id": 797847234,
      "osm_type": "way",
      "name": "Fără nume",
      "category": "education",
      "lat": 48.1881015,
      "lon": 26.5885849,
      "tags": {
        "amenity": "school"
      }
    },
    {
      "id": "way/799309741",
      "osm_id": 799309741,
      "osm_type": "way",
      "name": "Fără nume",
      "category": "education",
      "lat": 48.1981737,
      "lon": 26.5979421,
      "tags": {
        "building": "school"
      }
    },
    {
      "id": "way/799378630",
      "osm_id": 799378630,
      "osm_type": "way",
      "name": "Grădinița nr. 2",
      "category": "education",
      "lat": 48.1867379,
      "lon": 26.5949562,
      "tags": {
        "addr:housenumber": "181",
        "addr:street": "Strada Cucului",
        "building": "kindergarten",
        "name": "Grădinița nr. 2"
      }
    },
    {
      "id": "way/824866990",
      "osm_id": 824866990,
      "osm_type": "way",
      "name": "Școala Gimnazială Nr 1 Dobârceni",
      "category": "education",
      "lat": 47.8249582,
      "lon": 27.0639757,
      "tags": {
        "addr:city": "Dobârceni",
        "amenity": "school",
        "name": "Școala Gimnazială Nr 1 Dobârceni",
        "website": "http://www.scoaladobirceni.ro/index.php"
      }
    },
    {
      "id": "way/850490441",
      "osm_id": 850490441,
      "osm_type": "way",
      "name": "Fără nume",
      "category": "education",
      "lat": 47.9474046,
      "lon": 26.3822792,
      "tags": {
        "amenity": "school"
      }
    },
    {
      "id": "way/850490442",
      "osm_id": 850490442,
      "osm_type": "way",
      "name": "Fără nume",
      "category": "education",
      "lat": 47.9473005,
      "lon": 26.383062,
      "tags": {
        "addr:city": "Dorohoi",
        "addr:street": "Strada 1 Decembrie",
        "amenity": "school"
      }
    },
    {
      "id": "way/850490443",
      "osm_id": 850490443,
      "osm_type": "way",
      "name": "Fără nume",
      "category": "education",
      "lat": 47.9470093,
      "lon": 26.3826414,
      "tags": {
        "amenity": "school"
      }
    },
    {
      "id": "way/850490444",
      "osm_id": 850490444,
      "osm_type": "way",
      "name": "Colegiul Național Grigore Ghica Dorohoi - Corpul 2",
      "category": "education",
      "lat": 47.9466822,
      "lon": 26.3836709,
      "tags": {
        "addr:city": "Dorohoi",
        "addr:postcode": "715200",
        "addr:street": "Strada 1 Decembrie",
        "amenity": "school",
        "grades": "9-12",
        "name": "Colegiul Național Grigore Ghica Dorohoi - Corpul 2"
      }
    },
    {
      "id": "way/850500695",
      "osm_id": 850500695,
      "osm_type": "way",
      "name": "Colegiul Național \"Grigore Ghica\" Dorohoi",
      "category": "education",
      "lat": 47.9534378,
      "lon": 26.3941122,
      "tags": {
        "addr:city": "Dorohoi",
        "addr:housenumber": "41",
        "addr:postcode": "715200",
        "addr:street": "Strada Grigore Ghica",
        "amenity": "school",
        "grades": "9-12",
        "name": "Colegiul Național \"Grigore Ghica\" Dorohoi"
      }
    },
    {
      "id": "way/850500845",
      "osm_id": 850500845,
      "osm_type": "way",
      "name": "Fără nume",
      "category": "education",
      "lat": 47.9532494,
      "lon": 26.393519,
      "tags": {
        "addr:city": "Dorohoi",
        "addr:street": "Strada Grigore Ghica",
        "amenity": "school",
        "grades": "9-12"
      }
    },
    {
      "id": "way/850501358",
      "osm_id": 850501358,
      "osm_type": "way",
      "name": "Fără nume",
      "category": "education",
      "lat": 47.9533006,
      "lon": 26.3940031,
      "tags": {
        "addr:city": "Dorohoi",
        "addr:street": "Strada Grigore Ghica",
        "amenity": "school",
        "grades": "9-12"
      }
    },
    {
      "id": "way/850775187",
      "osm_id": 850775187,
      "osm_type": "way",
      "name": "Școala Gimnazială Nr.5 \"Spiru Haret\"",
      "category": "education",
      "lat": 47.9514523,
      "lon": 26.3921642,
      "tags": {
        "addr:city": "Dorohoi",
        "addr:housenumber": "2",
        "addr:postcode": "715200",
        "addr:street": "Strada Locotenent Olinescu",
        "amenity": "school",
        "grades": "1-8",
        "name": "Școala Gimnazială Nr.5 \"Spiru Haret\""
      }
    },
    {
      "id": "way/850776408",
      "osm_id": 850776408,
      "osm_type": "way",
      "name": "Seminarul Teologic \"Sf. Ioan Iacob\"",
      "category": "education",
      "lat": 47.9512497,
      "lon": 26.3935647,
      "tags": {
        "addr:city": "Dorohoi",
        "addr:street": "Strada Poștei",
        "amenity": "school",
        "building:levels": "4",
        "denomination": "orthodox",
        "grades": "9-12",
        "name": "Seminarul Teologic \"Sf. Ioan Iacob\"",
        "religion": "christian",
        "website": "https://www.seminaruldorohoi.ro/"
      }
    },
    {
      "id": "way/850788984",
      "osm_id": 850788984,
      "osm_type": "way",
      "name": "Colegiul Național \"Grigore Ghica\" Dorohoi 2",
      "category": "education",
      "lat": 47.9516464,
      "lon": 26.3965699,
      "tags": {
        "addr:city": "Dorohoi",
        "addr:street": "Strada Alexandru Ioan Cuza",
        "building": "school",
        "name": "Colegiul Național \"Grigore Ghica\" Dorohoi 2"
      }
    },
    {
      "id": "way/868266006",
      "osm_id": 868266006,
      "osm_type": "way",
      "name": "Școala Gimnazială “Alexandru Ioan Cuza” Nr. 7",
      "category": "education",
      "lat": 47.942893,
      "lon": 26.4048623,
      "tags": {
        "addr:city": "Dorohoi",
        "addr:housenumber": "108",
        "addr:postcode": "715200",
        "addr:street": "Bulevardul Victoriei",
        "amenity": "school",
        "grades": "1-8",
        "isced:level": "2",
        "name": "Școala Gimnazială “Alexandru Ioan Cuza” Nr. 7",
        "operator:type": "public",
        "wheelchair": "limited"
      }
    },
    {
      "id": "way/868280306",
      "osm_id": 868280306,
      "osm_type": "way",
      "name": "Școala Gimnazială „Mihail Kogălniceanu” Nr. 8",
      "category": "education",
      "lat": 47.9443717,
      "lon": 26.4061154,
      "tags": {
        "addr:city": "Dorohoi",
        "addr:housenumber": "2",
        "addr:postcode": "715200",
        "addr:street": "Aleea Dumbrava",
        "amenity": "school",
        "grades": "1-8",
        "name": "Școala Gimnazială „Mihail Kogălniceanu” Nr. 8"
      }
    },
    {
      "id": "way/868280870",
      "osm_id": 868280870,
      "osm_type": "way",
      "name": "Fără nume",
      "category": "education",
      "lat": 47.9444246,
      "lon": 26.4063265,
      "tags": {
        "building": "school",
        "layer": "1"
      }
    },
    {
      "id": "way/907158360",
      "osm_id": 907158360,
      "osm_type": "way",
      "name": "Școala Primară Nr.1 Zăicești",
      "category": "education",
      "lat": 47.6896948,
      "lon": 26.713667,
      "tags": {
        "addr:street": "DN28B-Zăicești",
        "building": "school",
        "name": "Școala Primară Nr.1 Zăicești"
      }
    },
    {
      "id": "way/943026857",
      "osm_id": 943026857,
      "osm_type": "way",
      "name": "Scoala Generala Padureni",
      "category": "education",
      "lat": 47.9736912,
      "lon": 26.3135316,
      "tags": {
        "building": "school",
        "name": "Scoala Generala Padureni"
      }
    },
    {
      "id": "way/943026858",
      "osm_id": 943026858,
      "osm_type": "way",
      "name": "Scoala Generala Padureni",
      "category": "education",
      "lat": 47.9739605,
      "lon": 26.3130801,
      "tags": {
        "building": "school",
        "building:levels": "2",
        "name": "Scoala Generala Padureni"
      }
    },
    {
      "id": "way/1059603904",
      "osm_id": 1059603904,
      "osm_type": "way",
      "name": "Școala Gimnazială Răchiți",
      "category": "education",
      "lat": 47.7629924,
      "lon": 26.6826192,
      "tags": {
        "addr:city": "Răchiți",
        "amenity": "school",
        "name": "Școala Gimnazială Răchiți"
      }
    },
    {
      "id": "way/1059614825",
      "osm_id": 1059614825,
      "osm_type": "way",
      "name": "Școala Generală Sulița",
      "category": "education",
      "lat": 47.6456005,
      "lon": 26.9240951,
      "tags": {
        "addr:city": "Sulița",
        "amenity": "school",
        "grades": "1-8",
        "name": "Școala Generală Sulița"
      }
    },
    {
      "id": "way/1136434944",
      "osm_id": 1136434944,
      "osm_type": "way",
      "name": "Grădinița cu program normal Nr.1 Ștefănești",
      "category": "education",
      "lat": 47.7928204,
      "lon": 27.1988912,
      "tags": {
        "amenity": "school",
        "name": "Grădinița cu program normal Nr.1 Ștefănești"
      }
    },
    {
      "id": "way/1136434945",
      "osm_id": 1136434945,
      "osm_type": "way",
      "name": "Liceul „Ștefan D. Luchian” Ștefănești",
      "category": "education",
      "lat": 47.7931164,
      "lon": 27.1998324,
      "tags": {
        "amenity": "school",
        "name": "Liceul „Ștefan D. Luchian” Ștefănești"
      }
    },
    {
      "id": "way/1182463478",
      "osm_id": 1182463478,
      "osm_type": "way",
      "name": "Fără nume",
      "category": "education",
      "lat": 48.1275577,
      "lon": 26.8546177,
      "tags": {
        "amenity": "school"
      }
    },
    {
      "id": "way/1194055937",
      "osm_id": 1194055937,
      "osm_type": "way",
      "name": "Fosta scoala",
      "category": "education",
      "lat": 48.1426398,
      "lon": 26.4209039,
      "tags": {
        "building": "school",
        "name": "Fosta scoala"
      }
    },
    {
      "id": "way/1194055938",
      "osm_id": 1194055938,
      "osm_type": "way",
      "name": "Fără nume",
      "category": "education",
      "lat": 48.1425416,
      "lon": 26.4214257,
      "tags": {
        "building": "school"
      }
    },
    {
      "id": "way/1194058178",
      "osm_id": 1194058178,
      "osm_type": "way",
      "name": "Scoala de arte si meserii Sfantul Apostol Andrei",
      "category": "education",
      "lat": 48.0791422,
      "lon": 26.4630286,
      "tags": {
        "amenity": "school",
        "building": "yes",
        "grades": "0-10",
        "name": "Scoala de arte si meserii Sfantul Apostol Andrei",
        "operator:type": "public",
        "wheelchair": "limited"
      }
    },
    {
      "id": "way/1292811596",
      "osm_id": 1292811596,
      "osm_type": "way",
      "name": "Școala Hănești",
      "category": "education",
      "lat": 47.9090017,
      "lon": 26.9709553,
      "tags": {
        "building": "school",
        "name": "Școala Hănești",
        "website": "https://www.scoalahanesti.ro/"
      }
    },
    {
      "id": "way/1292812776",
      "osm_id": 1292812776,
      "osm_type": "way",
      "name": "Școala cu Clasele I-VIII Teofil Valcu",
      "category": "education",
      "lat": 47.9116411,
      "lon": 26.9777363,
      "tags": {
        "building": "school",
        "name": "Școala cu Clasele I-VIII Teofil Valcu"
      }
    },
    {
      "id": "way/1301332780",
      "osm_id": 1301332780,
      "osm_type": "way",
      "name": "Școala Gimnazială Horodiștea",
      "category": "education",
      "lat": 48.2365178,
      "lon": 26.7136083,
      "tags": {
        "building": "school",
        "name": "Școala Gimnazială Horodiștea"
      }
    },
    {
      "id": "way/1301332781",
      "osm_id": 1301332781,
      "osm_type": "way",
      "name": "Fără nume",
      "category": "education",
      "lat": 48.2366097,
      "lon": 26.7137699,
      "tags": {
        "amenity": "school"
      }
    },
    {
      "id": "way/1317331582",
      "osm_id": 1317331582,
      "osm_type": "way",
      "name": "Fără nume",
      "category": "education",
      "lat": 47.9090947,
      "lon": 26.9709202,
      "tags": {
        "building": "school"
      }
    },
    {
      "id": "way/1317331586",
      "osm_id": 1317331586,
      "osm_type": "way",
      "name": "Fără nume",
      "category": "education",
      "lat": 47.9115929,
      "lon": 26.9774756,
      "tags": {
        "building": "school"
      }
    },
    {
      "id": "way/1317331587",
      "osm_id": 1317331587,
      "osm_type": "way",
      "name": "Fără nume",
      "category": "education",
      "lat": 47.9116807,
      "lon": 26.9776674,
      "tags": {
        "building": "school"
      }
    },
    {
      "id": "way/1320485575",
      "osm_id": 1320485575,
      "osm_type": "way",
      "name": "Școala Hăneşti",
      "category": "education",
      "lat": 47.9086989,
      "lon": 26.970785,
      "tags": {
        "amenity": "school",
        "name": "Școala Hăneşti"
      }
    },
    {
      "id": "way/1476749795",
      "osm_id": 1476749795,
      "osm_type": "way",
      "name": "Scoala Petru Șuster",
      "category": "education",
      "lat": 47.8009372,
      "lon": 26.6682611,
      "tags": {
        "amenity": "school",
        "building": "yes",
        "name": "Scoala Petru Șuster"
      }
    },
    {
      "id": "way/1484078196",
      "osm_id": 1484078196,
      "osm_type": "way",
      "name": "Centru de zi pentru copii ,, Flori de tei,,",
      "category": "education",
      "lat": 48.1398699,
      "lon": 26.4197739,
      "tags": {
        "building": "kindergarten",
        "name": "Centru de zi pentru copii ,, Flori de tei,,"
      }
    },
    {
      "id": "way/1484085018",
      "osm_id": 1484085018,
      "osm_type": "way",
      "name": "Școala gimnazială Nr.1 Suharău",
      "category": "education",
      "lat": 48.1170454,
      "lon": 26.4336233,
      "tags": {
        "amenity": "school",
        "building": "school",
        "name": "Școala gimnazială Nr.1 Suharău",
        "operator": "Școala gimnazială",
        "operator:type": "public",
        "wheelchair": "limited"
      }
    },
    {
      "id": "way/1484085655",
      "osm_id": 1484085655,
      "osm_type": "way",
      "name": "Fără nume",
      "category": "education",
      "lat": 48.1167132,
      "lon": 26.4339176,
      "tags": {
        "building": "kindergarten"
      }
    },
    {
      "id": "way/1493110880",
      "osm_id": 1493110880,
      "osm_type": "way",
      "name": "Alexandru Vlahuță",
      "category": "education",
      "lat": 47.9397879,
      "lon": 26.4089898,
      "tags": {
        "amenity": "school",
        "building": "yes",
        "isced:level": "3",
        "name": "Alexandru Vlahuță",
        "operator:type": "public",
        "wheelchair": "limited"
      }
    },
    {
      "id": "relation/6647416",
      "osm_id": 6647416,
      "osm_type": "relation",
      "name": "Fără nume",
      "category": "education",
      "lat": 47.7438799,
      "lon": 26.6797533,
      "tags": {
        "amenity": "school",
        "type": "multipolygon"
      }
    },
    {
      "id": "relation/9683241",
      "osm_id": 9683241,
      "osm_type": "relation",
      "name": "Fără nume",
      "category": "education",
      "lat": 47.737288,
      "lon": 26.6656707,
      "tags": {
        "building": "school",
        "type": "multipolygon"
      }
    },
    {
      "id": "node/386612277",
      "osm_id": 386612277,
      "osm_type": "node",
      "name": "biserică",
      "category": "place_of_worship",
      "lat": 47.9265648,
      "lon": 26.6505807,
      "tags": {
        "amenity": "place_of_worship",
        "denomination": "orthodox",
        "name": "biserică",
        "religion": "christian"
      }
    },
    {
      "id": "node/386860035",
      "osm_id": 386860035,
      "osm_type": "node",
      "name": "Biserica Nicșeni",
      "category": "place_of_worship",
      "lat": 47.8592736,
      "lon": 26.6350726,
      "tags": {
        "amenity": "place_of_worship",
        "denomination": "orthodox",
        "name": "Biserica Nicșeni",
        "religion": "christian"
      }
    },
    {
      "id": "node/388349780",
      "osm_id": 388349780,
      "osm_type": "node",
      "name": "Biserica Chișcăreni",
      "category": "place_of_worship",
      "lat": 47.9635184,
      "lon": 26.828038,
      "tags": {
        "amenity": "place_of_worship",
        "denomination": "orthodox",
        "name": "Biserica Chișcăreni",
        "religion": "christian"
      }
    },
    {
      "id": "node/391470971",
      "osm_id": 391470971,
      "osm_type": "node",
      "name": "Biserica Sfânta Cuvioasă Parascheva",
      "category": "place_of_worship",
      "lat": 47.7451446,
      "lon": 26.6605187,
      "tags": {
        "addr:city": "Botoșani",
        "addr:housenumber": "4",
        "addr:postcode": "717113",
        "addr:street": "Strada Unirii",
        "amenity": "place_of_worship",
        "denomination": "orthodox",
        "email": "parohiasfparaschevabotosani@gmail.com",
        "name": "Biserica Sfânta Cuvioasă Parascheva",
        "religion": "christian",
        "start_date": "1816"
      }
    },
    {
      "id": "node/495506143",
      "osm_id": 495506143,
      "osm_type": "node",
      "name": "Biserica Văculești",
      "category": "place_of_worship",
      "lat": 47.8762052,
      "lon": 26.4123283,
      "tags": {
        "amenity": "place_of_worship",
        "denomination": "orthodox",
        "name": "Biserica Văculești",
        "religion": "christian"
      }
    },
    {
      "id": "node/517786437",
      "osm_id": 517786437,
      "osm_type": "node",
      "name": "Mănăstirea Vorona",
      "category": "place_of_worship",
      "lat": 47.5803264,
      "lon": 26.6654546,
      "tags": {
        "amenity": "place_of_worship",
        "denomination": "orthodox",
        "name": "Mănăstirea Vorona",
        "religion": "christian"
      }
    },
    {
      "id": "node/517786619",
      "osm_id": 517786619,
      "osm_type": "node",
      "name": "Mănăstirea Vorona",
      "category": "place_of_worship",
      "lat": 47.579539,
      "lon": 26.665652,
      "tags": {
        "amenity": "place_of_worship",
        "denomination": "orthodox",
        "name": "Mănăstirea Vorona",
        "religion": "christian"
      }
    },
    {
      "id": "node/528310653",
      "osm_id": 528310653,
      "osm_type": "node",
      "name": "Schit Zosim vechi",
      "category": "place_of_worship",
      "lat": 47.6558298,
      "lon": 26.7697298,
      "tags": {
        "amenity": "place_of_worship",
        "denomination": "orthodox",
        "name": "Schit Zosim vechi",
        "religion": "christian"
      }
    },
    {
      "id": "node/600096783",
      "osm_id": 600096783,
      "osm_type": "node",
      "name": "Biserica Adventistă",
      "category": "place_of_worship",
      "lat": 47.7406364,
      "lon": 26.6528869,
      "tags": {
        "amenity": "place_of_worship",
        "denomination": "seventh_day_adventist",
        "name": "Biserica Adventistă",
        "religion": "christian"
      }
    },
    {
      "id": "node/600096903",
      "osm_id": 600096903,
      "osm_type": "node",
      "name": "Biserica Vovidenia",
      "category": "place_of_worship",
      "lat": 47.7404362,
      "lon": 26.663504,
      "tags": {
        "addr:city": "Botoșani",
        "addr:housenumber": "8",
        "addr:postcode": "710211",
        "addr:street": "Strada Mihail Kogălniceanu",
        "amenity": "place_of_worship",
        "denomination": "orthodox",
        "name": "Biserica Vovidenia",
        "religion": "christian",
        "source": "vali2544 - gps"
      }
    },
    {
      "id": "node/863622473",
      "osm_id": 863622473,
      "osm_type": "node",
      "name": "Biserica",
      "category": "place_of_worship",
      "lat": 47.8403983,
      "lon": 26.7503433,
      "tags": {
        "amenity": "place_of_worship",
        "denomination": "orthodox",
        "name": "Biserica",
        "religion": "christian"
      }
    },
    {
      "id": "node/1230517151",
      "osm_id": 1230517151,
      "osm_type": "node",
      "name": "Biserica Talpa",
      "category": "place_of_worship",
      "lat": 47.9012159,
      "lon": 26.2411133,
      "tags": {
        "amenity": "place_of_worship",
        "denomination": "orthodox",
        "name": "Biserica Talpa",
        "religion": "christian"
      }
    },
    {
      "id": "node/1236475969",
      "osm_id": 1236475969,
      "osm_type": "node",
      "name": "Fără nume",
      "category": "place_of_worship",
      "lat": 47.8408976,
      "lon": 26.6206888,
      "tags": {
        "amenity": "grave_yard",
        "denomination": "orthodox",
        "landuse": "cemetery",
        "religion": "christian"
      }
    },
    {
      "id": "node/1236476142",
      "osm_id": 1236476142,
      "osm_type": "node",
      "name": "Biserica Creștină Adventistă",
      "category": "place_of_worship",
      "lat": 47.8384934,
      "lon": 26.6061995,
      "tags": {
        "amenity": "place_of_worship",
        "denomination": "seventh_day_adventist",
        "name": "Biserica Creștină Adventistă",
        "religion": "christian"
      }
    },
    {
      "id": "node/1236476171",
      "osm_id": 1236476171,
      "osm_type": "node",
      "name": "Biserica",
      "category": "place_of_worship",
      "lat": 47.8365381,
      "lon": 26.626183,
      "tags": {
        "amenity": "place_of_worship",
        "denomination": "orthodox",
        "name": "Biserica",
        "religion": "christian"
      }
    },
    {
      "id": "node/1236476301",
      "osm_id": 1236476301,
      "osm_type": "node",
      "name": "Biserica Ortodoxă Roma",
      "category": "place_of_worship",
      "lat": 47.8369683,
      "lon": 26.5992313,
      "tags": {
        "amenity": "place_of_worship",
        "denomination": "orthodox",
        "name": "Biserica Ortodoxă Roma",
        "religion": "christian"
      }
    },
    {
      "id": "node/1244635512",
      "osm_id": 1244635512,
      "osm_type": "node",
      "name": "Biserica Sarafinești",
      "category": "place_of_worship",
      "lat": 47.6169525,
      "lon": 26.6052479,
      "tags": {
        "amenity": "place_of_worship",
        "denomination": "orthodox",
        "name": "Biserica Sarafinești",
        "religion": "christian"
      }
    },
    {
      "id": "node/1244635553",
      "osm_id": 1244635553,
      "osm_type": "node",
      "name": "Biserica",
      "category": "place_of_worship",
      "lat": 47.5996741,
      "lon": 26.6435368,
      "tags": {
        "amenity": "place_of_worship",
        "denomination": "orthodox",
        "name": "Biserica",
        "religion": "christian"
      }
    },
    {
      "id": "node/1316062651",
      "osm_id": 1316062651,
      "osm_type": "node",
      "name": "Mănăstirea Popăuți",
      "category": "place_of_worship",
      "lat": 47.75593,
      "lon": 26.64556,
      "tags": {
        "amenity": "place_of_worship",
        "denomination": "orthodox",
        "name": "Mănăstirea Popăuți",
        "religion": "christian",
        "source": "jonutzu@gpszone.ro"
      }
    },
    {
      "id": "node/1316062657",
      "osm_id": 1316062657,
      "osm_type": "node",
      "name": "Mănăstirea Cozancea",
      "category": "place_of_worship",
      "lat": 47.68906,
      "lon": 26.96529,
      "tags": {
        "amenity": "place_of_worship",
        "denomination": "orthodox",
        "name": "Mănăstirea Cozancea",
        "religion": "christian",
        "source": "jonutzu@gpszone.ro"
      }
    },
    {
      "id": "node/1316062820",
      "osm_id": 1316062820,
      "osm_type": "node",
      "name": "Mănăstirea Coșula",
      "category": "place_of_worship",
      "lat": 47.6220739,
      "lon": 26.7746722,
      "tags": {
        "amenity": "place_of_worship",
        "denomination": "orthodox",
        "name": "Mănăstirea Coșula",
        "religion": "christian",
        "source": "jonutzu@gpszone.ro"
      }
    },
    {
      "id": "node/1316062940",
      "osm_id": 1316062940,
      "osm_type": "node",
      "name": "Mănăstirea Sihăstria Voronei",
      "category": "place_of_worship",
      "lat": 47.55501,
      "lon": 26.69389,
      "tags": {
        "amenity": "place_of_worship",
        "denomination": "orthodox",
        "name": "Mănăstirea Sihăstria Voronei",
        "religion": "christian",
        "source": "jonutzu@gpszone.ro"
      }
    },
    {
      "id": "node/1316062945",
      "osm_id": 1316062945,
      "osm_type": "node",
      "name": "Mănăstirea Guranda",
      "category": "place_of_worship",
      "lat": 47.7838805,
      "lon": 27.0535637,
      "tags": {
        "amenity": "place_of_worship",
        "denomination": "orthodox",
        "name": "Mănăstirea Guranda",
        "religion": "christian",
        "source": "jonutzu@gpszone.ro"
      }
    },
    {
      "id": "node/1316063104",
      "osm_id": 1316063104,
      "osm_type": "node",
      "name": "Mănăstirea Gorovei",
      "category": "place_of_worship",
      "lat": 47.87767,
      "lon": 26.34804,
      "tags": {
        "amenity": "place_of_worship",
        "denomination": "orthodox",
        "name": "Mănăstirea Gorovei",
        "religion": "christian",
        "source": "jonutzu@gpszone.ro"
      }
    },
    {
      "id": "node/1316063353",
      "osm_id": 1316063353,
      "osm_type": "node",
      "name": "Mănăstirea Știubieni",
      "category": "place_of_worship",
      "lat": 47.97315,
      "lon": 26.85579,
      "tags": {
        "amenity": "place_of_worship",
        "denomination": "orthodox",
        "name": "Mănăstirea Știubieni",
        "religion": "christian",
        "source": "jonutzu@gpszone.ro"
      }
    },
    {
      "id": "node/1382880846",
      "osm_id": 1382880846,
      "osm_type": "node",
      "name": "Biserica Ortodoxă Mitoc",
      "category": "place_of_worship",
      "lat": 48.1052582,
      "lon": 27.0367977,
      "tags": {
        "amenity": "place_of_worship",
        "denomination": "orthodox",
        "name": "Biserica Ortodoxă Mitoc",
        "religion": "christian",
        "source": "Bing"
      }
    },
    {
      "id": "node/2025322314",
      "osm_id": 2025322314,
      "osm_type": "node",
      "name": "Biserica Cuvioasa Paraschiva",
      "category": "place_of_worship",
      "lat": 47.8005984,
      "lon": 27.1963743,
      "tags": {
        "addr:city": "Ștefănești",
        "addr:housenumber": "13",
        "addr:postcode": "717385",
        "addr:street": "Strada Petru Rareș",
        "amenity": "place_of_worship",
        "denomination": "romanian_orthodox",
        "description": "Biserica \"Cuvioasa Parascheva\" din Ștefănești este o biserică ortodoxă construită în anul 1640 în orașul Ștefănești (județul Botoșani). ",
        "historic": "church",
        "historic_1": "monument",
        "name": "Biserica Cuvioasa Paraschiva",
        "religion": "christian"
      }
    },
    {
      "id": "node/2050329397",
      "osm_id": 2050329397,
      "osm_type": "node",
      "name": "Biserica Catolică Nașterea Sfântului Ioan Botezătorul",
      "category": "place_of_worship",
      "lat": 47.7396603,
      "lon": 26.6648573,
      "tags": {
        "addr:city": "Botoșani",
        "addr:housenumber": "29",
        "addr:postcode": "710211",
        "addr:street": "Strada Cuza Vodă",
        "amenity": "place_of_worship",
        "denomination": "catholic",
        "name": "Biserica Catolică Nașterea Sfântului Ioan Botezătorul",
        "religion": "christian"
      }
    },
    {
      "id": "node/2115295925",
      "osm_id": 2115295925,
      "osm_type": "node",
      "name": "Biserica Câmpeni",
      "category": "place_of_worship",
      "lat": 47.505657,
      "lon": 26.9963628,
      "tags": {
        "amenity": "place_of_worship",
        "denomination": "orthodox",
        "name": "Biserica Câmpeni",
        "religion": "christian"
      }
    },
    {
      "id": "node/2278519396",
      "osm_id": 2278519396,
      "osm_type": "node",
      "name": "Biserica Jijia",
      "category": "place_of_worship",
      "lat": 47.6536988,
      "lon": 27.0878515,
      "tags": {
        "amenity": "place_of_worship",
        "denomination": "orthodox",
        "name": "Biserica Jijia",
        "religion": "christian"
      }
    },
    {
      "id": "node/2741479693",
      "osm_id": 2741479693,
      "osm_type": "node",
      "name": "Biserică",
      "category": "place_of_worship",
      "lat": 47.6269104,
      "lon": 26.9879249,
      "tags": {
        "amenity": "place_of_worship",
        "denomination": "orthodox",
        "name": "Biserică",
        "religion": "christian"
      }
    },
    {
      "id": "node/2795964056",
      "osm_id": 2795964056,
      "osm_type": "node",
      "name": "Biserica Sf. Nicolae",
      "category": "place_of_worship",
      "lat": 47.7388268,
      "lon": 26.6748648,
      "tags": {
        "addr:city": "Botoșani",
        "addr:housenumber": "25",
        "addr:postcode": "710350",
        "addr:street": "Strada AS Pușkin",
        "amenity": "place_of_worship",
        "denomination": "orthodox",
        "historic": "church",
        "internet_access": "yes",
        "name": "Biserica Sf. Nicolae",
        "religion": "christian"
      }
    },
    {
      "id": "node/2795988547",
      "osm_id": 2795988547,
      "osm_type": "node",
      "name": "Biserica Sfinții Voievozi",
      "category": "place_of_worship",
      "lat": 47.7412939,
      "lon": 26.674446,
      "tags": {
        "addr:city": "Botoșani",
        "addr:postcode": "710336",
        "addr:street": "Strada Victoriei",
        "amenity": "place_of_worship",
        "denomination": "orthodox",
        "name": "Biserica Sfinții Voievozi",
        "religion": "christian"
      }
    },
    {
      "id": "node/2796011328",
      "osm_id": 2796011328,
      "osm_type": "node",
      "name": "Biserica Penticostală Betel",
      "category": "place_of_worship",
      "lat": 47.740474,
      "lon": 26.6803948,
      "tags": {
        "addr:housenumber": "76",
        "addr:postcode": "710328",
        "addr:street": "Strada Victoriei",
        "amenity": "place_of_worship",
        "denomination": "pentecostal",
        "name": "Biserica Penticostală Betel",
        "religion": "christian"
      }
    },
    {
      "id": "node/2796066190",
      "osm_id": 2796066190,
      "osm_type": "node",
      "name": "Biserica armeană „Sfânta Treime” Botoșani",
      "category": "place_of_worship",
      "lat": 47.7399911,
      "lon": 26.6717704,
      "tags": {
        "addr:city": "Botoșani",
        "addr:housenumber": "17",
        "addr:postcode": "710359",
        "addr:street": "Strada Armeană",
        "amenity": "place_of_worship",
        "denomination": "armenian_apostolic",
        "is_in:city": "Botoșani",
        "is_in:country": "România",
        "name": "Biserica armeană „Sfânta Treime” Botoșani",
        "religion": "christian"
      }
    },
    {
      "id": "node/2796080662",
      "osm_id": 2796080662,
      "osm_type": "node",
      "name": "Biserica armeană „Adormirea Maicii Domnului” Botoșani",
      "category": "place_of_worship",
      "lat": 47.7411863,
      "lon": 26.6699776,
      "tags": {
        "addr:city": "Botoșani",
        "addr:housenumber": "5",
        "addr:postcode": "710359",
        "addr:street": "Strada Armeană",
        "amenity": "place_of_worship",
        "denomination": "armenian_apostolic",
        "is_in:city": "Botoșani",
        "is_in:country": "România",
        "name": "Biserica armeană „Adormirea Maicii Domnului” Botoșani",
        "religion": "christian"
      }
    },
    {
      "id": "node/2796159865",
      "osm_id": 2796159865,
      "osm_type": "node",
      "name": "Biserica Sfântul Mina",
      "category": "place_of_worship",
      "lat": 47.7195324,
      "lon": 26.6994316,
      "tags": {
        "addr:city": "Botoșani",
        "addr:street": "Strada Tulbureni",
        "amenity": "place_of_worship",
        "denomination": "orthodox",
        "name": "Biserica Sfântul Mina",
        "religion": "christian"
      }
    },
    {
      "id": "node/2898714682",
      "osm_id": 2898714682,
      "osm_type": "node",
      "name": "Mănăstirea Zosin",
      "category": "place_of_worship",
      "lat": 47.6522557,
      "lon": 26.768106,
      "tags": {
        "amenity": "place_of_worship",
        "denomination": "orthodox",
        "name": "Mănăstirea Zosin",
        "religion": "christian"
      }
    },
    {
      "id": "node/2900309624",
      "osm_id": 2900309624,
      "osm_type": "node",
      "name": "Biserică",
      "category": "place_of_worship",
      "lat": 47.6412165,
      "lon": 26.7243493,
      "tags": {
        "amenity": "place_of_worship",
        "denomination": "orthodox",
        "name": "Biserică",
        "religion": "christian"
      }
    },
    {
      "id": "node/2929046801",
      "osm_id": 2929046801,
      "osm_type": "node",
      "name": "Biserica ortodoxă \"Sfânta Treime\"",
      "category": "place_of_worship",
      "lat": 47.7390236,
      "lon": 26.6543613,
      "tags": {
        "addr:city": "Botoșani",
        "addr:housenumber": "12",
        "addr:street": "Bulevardul George Enescu",
        "amenity": "place_of_worship",
        "building": "church",
        "denomination": "orthodox",
        "name": "Biserica ortodoxă \"Sfânta Treime\"",
        "religion": "christian"
      }
    },
    {
      "id": "node/2968558422",
      "osm_id": 2968558422,
      "osm_type": "node",
      "name": "Biserica Lunca-Siret",
      "category": "place_of_worship",
      "lat": 47.886605,
      "lon": 26.2748684,
      "tags": {
        "amenity": "place_of_worship",
        "building": "church",
        "denomination": "orthodox",
        "name": "Biserica Lunca-Siret",
        "religion": "christian"
      }
    },
    {
      "id": "node/2968559790",
      "osm_id": 2968559790,
      "osm_type": "node",
      "name": "Biserica Ortodoxă",
      "category": "place_of_worship",
      "lat": 47.9654157,
      "lon": 26.1438061,
      "tags": {
        "amenity": "place_of_worship",
        "building": "church",
        "denomination": "orthodox",
        "name": "Biserica Ortodoxă",
        "religion": "christian"
      }
    },
    {
      "id": "node/2968559818",
      "osm_id": 2968559818,
      "osm_type": "node",
      "name": "Biserica catolică",
      "category": "place_of_worship",
      "lat": 47.9692866,
      "lon": 26.1449836,
      "tags": {
        "amenity": "place_of_worship",
        "building": "church",
        "denomination": "catholic",
        "name": "Biserica catolică",
        "religion": "christian"
      }
    },
    {
      "id": "node/3057221119",
      "osm_id": 3057221119,
      "osm_type": "node",
      "name": "Biserică",
      "category": "place_of_worship",
      "lat": 48.0895148,
      "lon": 26.6935002,
      "tags": {
        "amenity": "place_of_worship",
        "denomination": "orthodox",
        "name": "Biserică",
        "religion": "christian"
      }
    },
    {
      "id": "node/3258828713",
      "osm_id": 3258828713,
      "osm_type": "node",
      "name": "Biserica Sfântul Ioan Botezătorul",
      "category": "place_of_worship",
      "lat": 47.7380386,
      "lon": 26.6672099,
      "tags": {
        "amenity": "place_of_worship",
        "denomination": "orthodox",
        "name": "Biserica Sfântul Ioan Botezătorul",
        "religion": "christian"
      }
    },
    {
      "id": "node/3338242669",
      "osm_id": 3338242669,
      "osm_type": "node",
      "name": "Fără nume",
      "category": "place_of_worship",
      "lat": 47.8561802,
      "lon": 26.3144101,
      "tags": {
        "amenity": "place_of_worship"
      }
    },
    {
      "id": "node/3370849056",
      "osm_id": 3370849056,
      "osm_type": "node",
      "name": "Biserica familiei Eminovici",
      "category": "place_of_worship",
      "lat": 47.7662384,
      "lon": 26.5584966,
      "tags": {
        "addr:city": "Ipotești",
        "amenity": "place_of_worship",
        "denomination": "orthodox",
        "name": "Biserica familiei Eminovici",
        "religion": "christian"
      }
    },
    {
      "id": "node/3506116516",
      "osm_id": 3506116516,
      "osm_type": "node",
      "name": "Biserica Rânghilești",
      "category": "place_of_worship",
      "lat": 47.6486621,
      "lon": 27.2288623,
      "tags": {
        "amenity": "place_of_worship",
        "building": "church",
        "denomination": "orthodox",
        "name": "Biserica Rânghilești",
        "religion": "christian"
      }
    },
    {
      "id": "node/3506116577",
      "osm_id": 3506116577,
      "osm_type": "node",
      "name": "Biserica Dămideni",
      "category": "place_of_worship",
      "lat": 47.6956506,
      "lon": 27.2488226,
      "tags": {
        "amenity": "place_of_worship",
        "building": "church",
        "denomination": "orthodox",
        "name": "Biserica Dămideni",
        "religion": "christian"
      }
    },
    {
      "id": "node/3506116628",
      "osm_id": 3506116628,
      "osm_type": "node",
      "name": "Biserica Românești",
      "category": "place_of_worship",
      "lat": 47.7252632,
      "lon": 27.2445018,
      "tags": {
        "amenity": "place_of_worship",
        "building": "church",
        "denomination": "orthodox",
        "name": "Biserica Românești",
        "religion": "christian"
      }
    },
    {
      "id": "node/3506117210",
      "osm_id": 3506117210,
      "osm_type": "node",
      "name": "Biserica Corjăuți",
      "category": "place_of_worship",
      "lat": 48.0309368,
      "lon": 26.2726682,
      "tags": {
        "amenity": "place_of_worship",
        "building": "church",
        "name": "Biserica Corjăuți",
        "religion": "christian"
      }
    },
    {
      "id": "node/3533360225",
      "osm_id": 3533360225,
      "osm_type": "node",
      "name": "Biserica Lunca",
      "category": "place_of_worship",
      "lat": 47.6113728,
      "lon": 26.9988118,
      "tags": {
        "amenity": "place_of_worship",
        "building": "church",
        "denomination": "orthodox",
        "name": "Biserica Lunca",
        "religion": "christian"
      }
    },
    {
      "id": "node/3533360830",
      "osm_id": 3533360830,
      "osm_type": "node",
      "name": "Biserica Dracșani",
      "category": "place_of_worship",
      "lat": 47.6317618,
      "lon": 26.9321176,
      "tags": {
        "amenity": "place_of_worship",
        "building": "church",
        "denomination": "orthodox",
        "name": "Biserica Dracșani",
        "religion": "christian"
      }
    },
    {
      "id": "node/3533361183",
      "osm_id": 3533361183,
      "osm_type": "node",
      "name": "Biserica Zlătunoaia",
      "category": "place_of_worship",
      "lat": 47.6533301,
      "lon": 27.0091056,
      "tags": {
        "amenity": "place_of_worship",
        "building": "church",
        "denomination": "orthodox",
        "name": "Biserica Zlătunoaia",
        "religion": "christian"
      }
    },
    {
      "id": "node/3533361561",
      "osm_id": 3533361561,
      "osm_type": "node",
      "name": "Fără nume",
      "category": "place_of_worship",
      "lat": 47.6614275,
      "lon": 27.0163913,
      "tags": {
        "amenity": "place_of_worship",
        "building": "church",
        "religion": "christian"
      }
    },
    {
      "id": "node/3533361841",
      "osm_id": 3533361841,
      "osm_type": "node",
      "name": "Fără nume",
      "category": "place_of_worship",
      "lat": 47.6739042,
      "lon": 27.0890807,
      "tags": {
        "amenity": "place_of_worship",
        "building": "church",
        "religion": "christian"
      }
    },
    {
      "id": "node/3585856593",
      "osm_id": 3585856593,
      "osm_type": "node",
      "name": "Biserica Vițcani",
      "category": "place_of_worship",
      "lat": 47.9426346,
      "lon": 26.2097883,
      "tags": {
        "amenity": "place_of_worship",
        "building": "church",
        "denomination": "orthodox",
        "name": "Biserica Vițcani",
        "religion": "christian"
      }
    },
    {
      "id": "node/3683868855",
      "osm_id": 3683868855,
      "osm_type": "node",
      "name": "Biserica Cerchejeni",
      "category": "place_of_worship",
      "lat": 47.6901734,
      "lon": 26.8842807,
      "tags": {
        "amenity": "place_of_worship",
        "building": "church",
        "denomination": "orthodox",
        "name": "Biserica Cerchejeni",
        "religion": "christian"
      }
    },
    {
      "id": "node/3683869447",
      "osm_id": 3683869447,
      "osm_type": "node",
      "name": "Biserica Guranda",
      "category": "place_of_worship",
      "lat": 47.7783773,
      "lon": 27.0646506,
      "tags": {
        "amenity": "place_of_worship",
        "building": "church",
        "denomination": "orthodox",
        "name": "Biserica Guranda",
        "religion": "christian"
      }
    },
    {
      "id": "node/3683869549",
      "osm_id": 3683869549,
      "osm_type": "node",
      "name": "Fără nume",
      "category": "place_of_worship",
      "lat": 47.8815111,
      "lon": 26.8427721,
      "tags": {
        "amenity": "place_of_worship",
        "building": "church",
        "denomination": "orthodox",
        "religion": "christian"
      }
    },
    {
      "id": "node/3691239793",
      "osm_id": 3691239793,
      "osm_type": "node",
      "name": "Biserica Dumeni",
      "category": "place_of_worship",
      "lat": 48.0249697,
      "lon": 26.5158085,
      "tags": {
        "amenity": "place_of_worship",
        "building": "church",
        "denomination": "orthodox",
        "name": "Biserica Dumeni",
        "religion": "christian"
      }
    },
    {
      "id": "node/3706410738",
      "osm_id": 3706410738,
      "osm_type": "node",
      "name": "Fără nume",
      "category": "place_of_worship",
      "lat": 47.8004047,
      "lon": 26.867642,
      "tags": {
        "amenity": "place_of_worship",
        "building": "church",
        "denomination": "orthodox",
        "religion": "christian"
      }
    },
    {
      "id": "node/3706410861",
      "osm_id": 3706410861,
      "osm_type": "node",
      "name": "Biserica Știubieni",
      "category": "place_of_worship",
      "lat": 47.9729925,
      "lon": 26.7957215,
      "tags": {
        "amenity": "place_of_worship",
        "building": "church",
        "denomination": "orthodox",
        "name": "Biserica Știubieni",
        "religion": "christian"
      }
    },