{
  "city": "București",
  "generated_at": "2026-04-23T07:13:13.720Z",
  "counts": {
    "total": 1863,
    "schools": 1227,
    "churches": 636
  },
  "pois": [
    {
      "id": "node/218092022",
      "osm_id": 218092022,
      "osm_type": "node",
      "name": "Grădinița nr. 23",
      "category": "education",
      "lat": 44.4421989,
      "lon": 26.1783617,
      "tags": {
        "amenity": "kindergarten",
        "name": "Grădinița nr. 23"
      }
    },
    {
      "id": "node/271285333",
      "osm_id": 271285333,
      "osm_type": "node",
      "name": "Liceul Teoretic \"Ion Barbu\"",
      "category": "education",
      "lat": 44.4208153,
      "lon": 26.0614585,
      "tags": {
        "addr:city": "București",
        "addr:housenumber": "18",
        "addr:street": "Strada Năbucului",
        "amenity": "school",
        "grades": "0-12",
        "name": "Liceul Teoretic \"Ion Barbu\"",
        "website": "http://www.ltib.ro"
      }
    },
    {
      "id": "node/444361321",
      "osm_id": 444361321,
      "osm_type": "node",
      "name": "School no. 178",
      "category": "education",
      "lat": 44.4842108,
      "lon": 26.0553224,
      "tags": {
        "amenity": "school",
        "name": "School no. 178"
      }
    },
    {
      "id": "node/494791040",
      "osm_id": 494791040,
      "osm_type": "node",
      "name": "Colegiul Economic \"Hermes\"",
      "category": "education",
      "lat": 44.4371396,
      "lon": 26.1132579,
      "tags": {
        "addr:city": "București",
        "addr:country": "RO",
        "addr:housenumber": "152",
        "addr:postcode": "020882",
        "addr:street": "Calea Moșilor",
        "amenity": "school",
        "name": "Colegiul Economic \"Hermes\""
      }
    },
    {
      "id": "node/501932616",
      "osm_id": 501932616,
      "osm_type": "node",
      "name": "Grădinița Prikindel",
      "category": "education",
      "lat": 44.4260609,
      "lon": 26.0982821,
      "tags": {
        "amenity": "kindergarten",
        "name": "Grădinița Prikindel"
      }
    },
    {
      "id": "node/529233923",
      "osm_id": 529233923,
      "osm_type": "node",
      "name": "Grădinița nr. 217 \"Fluturașul\"",
      "category": "education",
      "lat": 44.4242473,
      "lon": 26.0323751,
      "tags": {
        "amenity": "kindergarten",
        "name": "Grădinița nr. 217 \"Fluturașul\""
      }
    },
    {
      "id": "node/535066423",
      "osm_id": 535066423,
      "osm_type": "node",
      "name": "Grădinița 238 București",
      "category": "education",
      "lat": 44.4930028,
      "lon": 26.0845488,
      "tags": {
        "addr:city": "București",
        "addr:country": "RO",
        "addr:housenumber": "39",
        "addr:postcode": "013952",
        "addr:street": "Strada Băneasa",
        "amenity": "kindergarten",
        "check_date": "2023-12-10",
        "name": "Grădinița 238 București"
      }
    },
    {
      "id": "node/597152973",
      "osm_id": 597152973,
      "osm_type": "node",
      "name": "Fostul Lic. Ind. 13",
      "category": "education",
      "lat": 44.424829,
      "lon": 26.0243144,
      "tags": {
        "amenity": "school",
        "name": "Fostul Lic. Ind. 13"
      }
    },
    {
      "id": "node/601723683",
      "osm_id": 601723683,
      "osm_type": "node",
      "name": "Școala Gimnazială George Bacovia",
      "category": "education",
      "lat": 44.395864,
      "lon": 26.0993999,
      "tags": {
        "addr:city": "București",
        "addr:housenumber": "72",
        "addr:street": "Strada Stoian Militaru",
        "amenity": "school",
        "building": "yes",
        "name": "Școala Gimnazială George Bacovia"
      }
    },
    {
      "id": "node/619936742",
      "osm_id": 619936742,
      "osm_type": "node",
      "name": "Facultatea de Jurnalism și Științele Comunicării",
      "category": "education",
      "lat": 44.4340346,
      "lon": 26.058091,
      "tags": {
        "addr:city": "București",
        "addr:housenumber": "1-3",
        "addr:postcode": "060117",
        "addr:street": "Bulevardul Iuliu Maniu",
        "amenity": "university",
        "name": "Facultatea de Jurnalism și Științele Comunicării",
        "source:addr:housenumber": "survey",
        "source:addr:street": "survey"
      }
    },
    {
      "id": "node/622331840",
      "osm_id": 622331840,
      "osm_type": "node",
      "name": "Facultatea de Știința și Ingineria Materialelor",
      "category": "education",
      "lat": 44.439628,
      "lon": 26.052754,
      "tags": {
        "amenity": "university",
        "education": "university",
        "faculty": "engineering",
        "internet_access": "yes",
        "internet_access:fee": "no",
        "name": "Facultatea de Știința și Ingineria Materialelor",
        "operator": "Universitatea Politehnica București"
      }
    },
    {
      "id": "node/622334142",
      "osm_id": 622334142,
      "osm_type": "node",
      "name": "Facultatea de Energetică",
      "category": "education",
      "lat": 44.4374461,
      "lon": 26.048606,
      "tags": {
        "amenity": "university",
        "education": "university",
        "faculty": "power_engineering",
        "internet_access": "yes",
        "internet_access:fee": "no",
        "name": "Facultatea de Energetică",
        "name:ro": "Facultatea de Energetică",
        "operator": "Universitatea Politehnica București",
        "website": "https://energ.upb.ro/"
      }
    },
    {
      "id": "node/623620886",
      "osm_id": 623620886,
      "osm_type": "node",
      "name": "Școala Generală nr. 89 \"Nicolae Labiș\"",
      "category": "education",
      "lat": 44.4150524,
      "lon": 26.160886,
      "tags": {
        "amenity": "school",
        "check_date": "2025-06-18",
        "name": "Școala Generală nr. 89 \"Nicolae Labiș\""
      }
    },
    {
      "id": "node/623681949",
      "osm_id": 623681949,
      "osm_type": "node",
      "name": "Școala Gimnazială nr. 195 \"Hamburg\"",
      "category": "education",
      "lat": 44.4216158,
      "lon": 26.1614689,
      "tags": {
        "addr:city": "București",
        "addr:housenumber": "2",
        "addr:street": "Strada Lunca Bradului",
        "amenity": "school",
        "check_date": "2025-12-07",
        "name": "Școala Gimnazială nr. 195 \"Hamburg\"",
        "source:addr:housenumber": "survey"
      }
    },
    {
      "id": "node/631271408",
      "osm_id": 631271408,
      "osm_type": "node",
      "name": "Grădinița de copii nr. 232",
      "category": "education",
      "lat": 44.4111775,
      "lon": 26.1660512,
      "tags": {
        "addr:city": "București",
        "amenity": "kindergarten",
        "education": "kindergarten",
        "name": "Grădinița de copii nr. 232"
      }
    },
    {
      "id": "node/631272510",
      "osm_id": 631272510,
      "osm_type": "node",
      "name": "Școala Generală nr.92",
      "category": "education",
      "lat": 44.4103889,
      "lon": 26.1692083,
      "tags": {
        "amenity": "school",
        "name": "Școala Generală nr.92"
      }
    },
    {
      "id": "node/631279952",
      "osm_id": 631279952,
      "osm_type": "node",
      "name": "Grădinița nr. 211",
      "category": "education",
      "lat": 44.409297,
      "lon": 26.1736259,
      "tags": {
        "amenity": "kindergarten",
        "name": "Grădinița nr. 211"
      }
    },
    {
      "id": "node/631302979",
      "osm_id": 631302979,
      "osm_type": "node",
      "name": "Școala Generală nr. 20 „Simion Mehedinți”",
      "category": "education",
      "lat": 44.4083249,
      "lon": 26.1748663,
      "tags": {
        "amenity": "school",
        "name": "Școala Generală nr. 20 „Simion Mehedinți”"
      }
    },
    {
      "id": "node/637696068",
      "osm_id": 637696068,
      "osm_type": "node",
      "name": "Grădinița nr. 240",
      "category": "education",
      "lat": 44.4169494,
      "lon": 26.1604245,
      "tags": {
        "amenity": "kindergarten",
        "check_date": "2025-06-18",
        "name": "Grădinița nr. 240"
      }
    },
    {
      "id": "node/640391847",
      "osm_id": 640391847,
      "osm_type": "node",
      "name": "Școala nr. 199",
      "category": "education",
      "lat": 44.430716,
      "lon": 26.1600592,
      "tags": {
        "amenity": "school",
        "name": "Școala nr. 199"
      }
    },
    {
      "id": "node/647192186",
      "osm_id": 647192186,
      "osm_type": "node",
      "name": "Universitatea \"Dimitrie Cantemir\"",
      "category": "education",
      "lat": 44.4145789,
      "lon": 26.1154205,
      "tags": {
        "amenity": "university",
        "check_date": "2026-02-01",
        "is_in:city": "București",
        "name": "Universitatea \"Dimitrie Cantemir\""
      }
    },
    {
      "id": "node/656547587",
      "osm_id": 656547587,
      "osm_type": "node",
      "name": "Grădinița nr. 192 (Pisicile aristocrate)",
      "category": "education",
      "lat": 44.4251395,
      "lon": 26.0969363,
      "tags": {
        "amenity": "kindergarten",
        "check_date": "2023-04-23",
        "name": "Grădinița nr. 192 (Pisicile aristocrate)"
      }
    },
    {
      "id": "node/662296416",
      "osm_id": 662296416,
      "osm_type": "node",
      "name": "Școala Generală nr. 22 \"Mexic\"",
      "category": "education",
      "lat": 44.4249731,
      "lon": 26.1775908,
      "tags": {
        "amenity": "school",
        "education": "school",
        "name": "Școala Generală nr. 22 \"Mexic\""
      }
    },
    {
      "id": "node/764370441",
      "osm_id": 764370441,
      "osm_type": "node",
      "name": "Facultatea de Biologie",
      "category": "education",
      "lat": 44.4332655,
      "lon": 26.0835967,
      "tags": {
        "addr:city": "București",
        "addr:country": "RO",
        "addr:housenumber": "91-95",
        "addr:interpolation": "odd",
        "addr:postcode": "050095",
        "addr:street": "Splaiul Independenței",
        "amenity": "university",
        "name": "Facultatea de Biologie",
        "name:fr": "Université de Biologie",
        "website": "https://www.bio.unibuc.ro/"
      }
    },
    {
      "id": "node/919559390",
      "osm_id": 919559390,
      "osm_type": "node",
      "name": "International School for Primary Education",
      "category": "education",
      "lat": 44.4967417,
      "lon": 26.057137,
      "tags": {
        "addr:city": "București",
        "addr:housenumber": "72",
        "addr:street": "Strada Petre S. Aurelian",
        "amenity": "school",
        "description": "The International School for Primary Education (InSPE), Bucharest is a combined Nursery and Primary School which takes children from 1 year old up to 11 years old. It was formerly know as the International Nursery School of Bucharest but in the last few y",
        "name": "International School for Primary Education",
        "website": "http://inspe.ro"
      }
    },
    {
      "id": "node/923488368",
      "osm_id": 923488368,
      "osm_type": "node",
      "name": "Școala Specială Nr. 8",
      "category": "education",
      "lat": 44.4879702,
      "lon": 26.0522342,
      "tags": {
        "amenity": "school",
        "check_date": "2024-09-24",
        "name": "Școala Specială Nr. 8"
      }
    },
    {
      "id": "node/959137490",
      "osm_id": 959137490,
      "osm_type": "node",
      "name": "Școala 181",
      "category": "education",
      "lat": 44.4945608,
      "lon": 26.0261258,
      "tags": {
        "amenity": "school",
        "name": "Școala 181"
      }
    },
    {
      "id": "node/1077805582",
      "osm_id": 1077805582,
      "osm_type": "node",
      "name": "Grădinița nr. 187",
      "category": "education",
      "lat": 44.4325198,
      "lon": 26.1939968,
      "tags": {
        "amenity": "kindergarten",
        "name": "Grădinița nr. 187"
      }
    },
    {
      "id": "node/1100416186",
      "osm_id": 1100416186,
      "osm_type": "node",
      "name": "Grădinița Ursuletu",
      "category": "education",
      "lat": 44.4899464,
      "lon": 26.0379305,
      "tags": {
        "amenity": "kindergarten",
        "education": "kindergarten",
        "name": "Grădinița Ursuletu"
      }
    },
    {
      "id": "node/1100418381",
      "osm_id": 1100418381,
      "osm_type": "node",
      "name": "Grădinița Ciupercuța",
      "category": "education",
      "lat": 44.4807136,
      "lon": 26.0501529,
      "tags": {
        "amenity": "kindergarten",
        "name": "Grădinița Ciupercuța"
      }
    },
    {
      "id": "node/1135489604",
      "osm_id": 1135489604,
      "osm_type": "node",
      "name": "Facultatea de Inginerie Electrică",
      "category": "education",
      "lat": 44.4362074,
      "lon": 26.0458196,
      "tags": {
        "amenity": "university",
        "education": "university",
        "faculty": "electrical_engineering",
        "internet_access": "yes",
        "internet_access:fee": "no",
        "name": "Facultatea de Inginerie Electrică",
        "operator": "Universitatea Politehnica București"
      }
    },
    {
      "id": "node/1334365630",
      "osm_id": 1334365630,
      "osm_type": "node",
      "name": "Școala Gimnaziala 11",
      "category": "education",
      "lat": 44.4462974,
      "lon": 26.0948883,
      "tags": {
        "addr:city": "București",
        "addr:housenumber": "22",
        "addr:street": "Strada General Christian Tell",
        "building": "school",
        "name": "Școala Gimnaziala 11"
      }
    },
    {
      "id": "node/1504208854",
      "osm_id": 1504208854,
      "osm_type": "node",
      "name": "Grădinița nr. 7",
      "category": "education",
      "lat": 44.461112,
      "lon": 26.118792,
      "tags": {
        "addr:city": "București",
        "amenity": "kindergarten",
        "name": "Grădinița nr. 7"
      }
    },
    {
      "id": "node/1544915641",
      "osm_id": 1544915641,
      "osm_type": "node",
      "name": "Paradisul Copiilor",
      "category": "education",
      "lat": 44.4633382,
      "lon": 26.1030019,
      "tags": {
        "addr:city": "București",
        "addr:housename": "Gradinița",
        "addr:housenumber": "25",
        "addr:street": "Strada Serghei Vasilievici Rahmaninov",
        "amenity": "kindergarten",
        "check_date": "2025-03-31",
        "name": "Paradisul Copiilor"
      }
    },
    {
      "id": "node/1636785369",
      "osm_id": 1636785369,
      "osm_type": "node",
      "name": "Facultatea de Geografie",
      "category": "education",
      "lat": 44.4360329,
      "lon": 26.1017646,
      "tags": {
        "addr:city": "București",
        "amenity": "university",
        "check_date": "2024-06-14",
        "is_in:city": "București",
        "name": "Facultatea de Geografie",
        "name:de": "Fakultät für Geographie",
        "name:en": "Faculty of Geography"
      }
    },
    {
      "id": "node/1754330697",
      "osm_id": 1754330697,
      "osm_type": "node",
      "name": "Facultatea de Istorie",
      "category": "education",
      "lat": 44.435416,
      "lon": 26.1006051,
      "tags": {
        "addr:city": "București",
        "addr:housenumber": "4-12",
        "addr:street": "Bulevardul Regina Elisabeta",
        "amenity": "university",
        "contact:instagram": "istorie.unibuc",
        "is_in:city": "București",
        "name": "Facultatea de Istorie",
        "name:de": "Fakultät für Geschichte",
        "name:en": "Faculty of History",
        "name:ro": "Facultatea de Istorie"
      }
    },
    {
      "id": "node/1754330701",
      "osm_id": 1754330701,
      "osm_type": "node",
      "name": "Facultatea de Matematică și Informatică",
      "category": "education",
      "lat": 44.4340339,
      "lon": 26.040829,
      "tags": {
        "addr:city": "București",
        "addr:housenumber": "15G",
        "addr:street": "Bulevardul Iuliu Maniu",
        "amenity": "university",
        "check_date": "2026-02-09",
        "description": "Faculty of Mathematics and Computer Science of the University of Bucharest.",
        "email": "secretariat@fmi.unibuc.ro",
        "fax": "+40 21 315 6990",
        "internet_access": "yes",
        "internet_access:fee": "customers",
        "internet_access:ssid": "eduroam",
        "name": "Facultatea de Matematică și Informatică",
        "name:de": "Fakultät für Mathematik und Informatik",
        "name:en": "Faculty of Mathematics and Computer Science",
        "name:ro": "Facultatea de Matematică și Informatică",
        "note": "Facultatea s-a mutat temporar, din septembrie 2025, în Politehnica Business Tower, ca urmare a lucrărilor de renovare și modernizare a sediului din Palatul Universității. Durata estimată a lucrărilor este de un an și jumătate",
        "operator": "Ministry of Education and Research",
        "operator:type": "public",
        "website": "https://fmi.unibuc.ro",
        "wheelchair": "yes"
      }
    },
    {
      "id": "node/1820023017",
      "osm_id": 1820023017,
      "osm_type": "node",
      "name": "Grădinița Sakura",
      "category": "education",
      "lat": 44.4549487,
      "lon": 26.1335892,
      "tags": {
        "amenity": "kindergarten",
        "name": "Grădinița Sakura"
      }
    },
    {
      "id": "node/1911337554",
      "osm_id": 1911337554,
      "osm_type": "node",
      "name": "Facultatea de Limbi și Literaturi Străine",
      "category": "education",
      "lat": 44.4358915,
      "lon": 26.1011326,
      "tags": {
        "addr:city": "București",
        "addr:housenumber": "5-7",
        "addr:postcode": "010017",
        "addr:street": "Strada Edgar Quinet",
        "amenity": "university",
        "is_in:city": "București",
        "name": "Facultatea de Limbi și Literaturi Străine",
        "name:de": "Fakultät für Sprach- und Literaturwissenschaften",
        "name:en": "Faculty of Foreign Languages and Literatures",
        "name:ro": "Facultatea de Limbi și Literaturi Străine"
      }
    },
    {
      "id": "node/1935696088",
      "osm_id": 1935696088,
      "osm_type": "node",
      "name": "Universitatea Lumina",
      "category": "education",
      "lat": 44.4677092,
      "lon": 26.1428584,
      "tags": {
        "amenity": "university",
        "name": "Universitatea Lumina"
      }
    },
    {
      "id": "node/2012855430",
      "osm_id": 2012855430,
      "osm_type": "node",
      "name": "Montessori Kindergarden of Bucharest",
      "category": "education",
      "lat": 44.435573,
      "lon": 26.1290315,
      "tags": {
        "amenity": "kindergarten",
        "name": "Montessori Kindergarden of Bucharest",
        "source": "Bing"
      }
    },
    {
      "id": "node/2263259789",
      "osm_id": 2263259789,
      "osm_type": "node",
      "name": "Grădinița nr. 225 - Veseliei",
      "category": "education",
      "lat": 44.386207,
      "lon": 26.1070802,
      "tags": {
        "amenity": "kindergarten",
        "education": "kindergarten",
        "name": "Grădinița nr. 225 - Veseliei"
      }
    },
    {
      "id": "node/2288442046",
      "osm_id": 2288442046,
      "osm_type": "node",
      "name": "Iepurașul Bocănilă",
      "category": "education",
      "lat": 44.3881996,
      "lon": 26.1166587,
      "tags": {
        "addr:city": "București",
        "amenity": "kindergarten",
        "name": "Iepurașul Bocănilă"
      }
    },
    {
      "id": "node/2294097546",
      "osm_id": 2294097546,
      "osm_type": "node",
      "name": "Grădinița nr. 135",
      "category": "education",
      "lat": 44.4560035,
      "lon": 26.1267855,
      "tags": {
        "amenity": "kindergarten",
        "check_date": "2025-07-01",
        "name": "Grădinița nr. 135"
      }
    },
    {
      "id": "node/2353885037",
      "osm_id": 2353885037,
      "osm_type": "node",
      "name": "Școala Generală Nr. 109 Șerban Vodă",
      "category": "education",
      "lat": 44.388723,
      "lon": 26.0945414,
      "tags": {
        "amenity": "school",
        "name": "Școala Generală Nr. 109 Șerban Vodă"
      }
    },
    {
      "id": "node/2393439888",
      "osm_id": 2393439888,
      "osm_type": "node",
      "name": "Grădinița de copii nr. 270",
      "category": "education",
      "lat": 44.4054238,
      "lon": 26.0641319,
      "tags": {
        "amenity": "kindergarten",
        "name": "Grădinița de copii nr. 270"
      }
    },
    {
      "id": "node/2422522668",
      "osm_id": 2422522668,
      "osm_type": "node",
      "name": "Școala Gimnazială nr. 155",
      "category": "education",
      "lat": 44.4202375,
      "lon": 26.0243309,
      "tags": {
        "addr:city": "București",
        "addr:housenumber": "6",
        "addr:postcode": "062084",
        "addr:street": "Strada Pașcani",
        "amenity": "school",
        "grades": "0-8",
        "name": "Școala Gimnazială nr. 155",
        "old_name": "Școala Generală nr. 155"
      }
    },
    {
      "id": "node/2422522671",
      "osm_id": 2422522671,
      "osm_type": "node",
      "name": "Școala Gimnazială nr. 169",
      "category": "education",
      "lat": 44.4215025,
      "lon": 26.0247676,
      "tags": {
        "addr:city": "București",
        "addr:housenumber": "2",
        "addr:postcode": "062084",
        "addr:street": "Strada Pașcani",
        "amenity": "school",
        "grades": "0-8",
        "name": "Școala Gimnazială nr. 169",
        "old_name": "Școala Generală nr. 169"
      }
    },
    {
      "id": "node/2423813955",
      "osm_id": 2423813955,
      "osm_type": "node",
      "name": "Grădinița nr. 203 program prelungit",
      "category": "education",
      "lat": 44.4412058,
      "lon": 26.1027445,
      "tags": {
        "amenity": "kindergarten",
        "check_date": "2023-06-29",
        "name": "Grădinița nr. 203 program prelungit",
        "source:name": "survey"
      }
    },
    {
      "id": "node/2441256932",
      "osm_id": 2441256932,
      "osm_type": "node",
      "name": "Grădinița nr. 7",
      "category": "education",
      "lat": 44.4678869,
      "lon": 26.1154595,
      "tags": {
        "amenity": "kindergarten",
        "name": "Grădinița nr. 7",
        "source": "survey"
      }
    },
    {
      "id": "node/2441258024",
      "osm_id": 2441258024,
      "osm_type": "node",
      "name": "Grădinița nr. 138 cu program prelungit",
      "category": "education",
      "lat": 44.4513119,
      "lon": 26.106155,
      "tags": {
        "amenity": "kindergarten",
        "name": "Grădinița nr. 138 cu program prelungit",
        "source": "survey"
      }
    },
    {
      "id": "node/2441258025",
      "osm_id": 2441258025,
      "osm_type": "node",
      "name": "Școala nr. 24",
      "category": "education",
      "lat": 44.4511428,
      "lon": 26.1065792,
      "tags": {
        "amenity": "school",
        "name": "Școala nr. 24",
        "source": "survey"
      }
    },
    {
      "id": "node/2441431261",
      "osm_id": 2441431261,
      "osm_type": "node",
      "name": "Grădinița Nr. 71",
      "category": "education",
      "lat": 44.4177162,
      "lon": 26.1589551,
      "tags": {
        "amenity": "kindergarten",
        "check_date": "2025-07-09",
        "name": "Grădinița Nr. 71"
      }
    },
    {
      "id": "node/2442895941",
      "osm_id": 2442895941,
      "osm_type": "node",
      "name": "Ioanid",
      "category": "education",
      "lat": 44.4456531,
      "lon": 26.1036979,
      "tags": {
        "amenity": "kindergarten",
        "check_date": "2023-04-15",
        "name": "Ioanid"
      }
    },
    {
      "id": "node/2447999384",
      "osm_id": 2447999384,
      "osm_type": "node",
      "name": "Grădinița Nr. 132 \"Ghiocel\"",
      "category": "education",
      "lat": 44.449664,
      "lon": 26.1092113,
      "tags": {
        "amenity": "kindergarten",
        "name": "Grădinița Nr. 132 \"Ghiocel\"",
        "source": "survey"
      }
    },
    {
      "id": "node/2449754938",
      "osm_id": 2449754938,
      "osm_type": "node",
      "name": "Lexis școli de limbi străine",
      "category": "education",
      "lat": 44.446211,
      "lon": 26.1019992,
      "tags": {
        "amenity": "school",
        "name": "Lexis școli de limbi străine",
        "source": "survey"
      }
    },
    {
      "id": "node/2449889477",
      "osm_id": 2449889477,
      "osm_type": "node",
      "name": "Universitatea Populară \"Ioan I. Dalles\"",
      "category": "education",
      "lat": 44.4381254,
      "lon": 26.101366,
      "tags": {
        "addr:city": "București",
        "addr:postcode": "010052",
        "addr:street": "Bulevardul Nicolae Bălcescu",
        "amenity": "university",
        "check_date": "2024-05-15",
        "name": "Universitatea Populară \"Ioan I. Dalles\"",
        "source": "survey"
      }
    },
    {
      "id": "node/2454165448",
      "osm_id": 2454165448,
      "osm_type": "node",
      "name": "Colegiul Preuniversitar \"Dr. I. Cantacuzino\"",
      "category": "education",
      "lat": 44.4550588,
      "lon": 26.14417,
      "tags": {
        "amenity": "college",
        "name": "Colegiul Preuniversitar \"Dr. I. Cantacuzino\"",
        "source": "survey"
      }
    },
    {
      "id": "node/2456512001",
      "osm_id": 2456512001,
      "osm_type": "node",
      "name": "Universitatea Nicolae Titulescu",
      "category": "education",
      "lat": 44.4145898,
      "lon": 26.1142262,
      "tags": {
        "amenity": "university",
        "name": "Universitatea Nicolae Titulescu",
        "wikidata": "Q3551461"
      }
    },
    {
      "id": "node/2460684944",
      "osm_id": 2460684944,
      "osm_type": "node",
      "name": "Grădinița \"Căsuța lui Andrei\"",
      "category": "education",
      "lat": 44.4458868,
      "lon": 26.1343013,
      "tags": {
        "amenity": "kindergarten",
        "check_date": "2023-11-13",
        "name": "Grădinița \"Căsuța lui Andrei\"",
        "source": "survey"
      }
    },
    {
      "id": "node/2462561157",
      "osm_id": 2462561157,
      "osm_type": "node",
      "name": "Facultatea de Chimie",
      "category": "education",
      "lat": 44.43552,
      "lon": 26.1010332,
      "tags": {
        "addr:city": "București",
        "amenity": "university",
        "is_in:city": "București",
        "name": "Facultatea de Chimie",
        "name:de": "Fakultät für Chemie",
        "name:en": "Faculty of Chemistry",
        "source": "survey"
      }
    },
    {
      "id": "node/2463052715",
      "osm_id": 2463052715,
      "osm_type": "node",
      "name": "Colegiul Tehnic \"Miron Nicolescu\"",
      "category": "education",
      "lat": 44.3698924,
      "lon": 26.13932,
      "tags": {
        "amenity": "school",
        "name": "Colegiul Tehnic \"Miron Nicolescu\"",
        "source": "survey"
      }
    },
    {
      "id": "node/2463356683",
      "osm_id": 2463356683,
      "osm_type": "node",
      "name": "Grădinița nr. 231 A",
      "category": "education",
      "lat": 44.4202334,
      "lon": 26.1736707,
      "tags": {
        "amenity": "kindergarten",
        "name": "Grădinița nr. 231 A",
        "source": "survey"
      }
    },
    {
      "id": "node/2485364399",
      "osm_id": 2485364399,
      "osm_type": "node",
      "name": "Grădinița Yuki",
      "category": "education",
      "lat": 44.3939934,
      "lon": 26.1077816,
      "tags": {
        "amenity": "kindergarten",
        "name": "Grădinița Yuki",
        "source": "survey",
        "website": "www.yuki.ro"
      }
    },
    {
      "id": "node/2485614281",
      "osm_id": 2485614281,
      "osm_type": "node",
      "name": "Clubul Școlar Sportiv nr. 2",
      "category": "education",
      "lat": 44.4441994,
      "lon": 26.1318677,
      "tags": {
        "amenity": "school",
        "check_date": "2024-05-10",
        "name": "Clubul Școlar Sportiv nr. 2",
        "source:amenity": "survey"
      }
    },
    {
      "id": "node/2488190602",
      "osm_id": 2488190602,
      "osm_type": "node",
      "name": "Grădinița nr. 257 \"Alice\"",
      "category": "education",
      "lat": 44.4430069,
      "lon": 26.1088881,
      "tags": {
        "amenity": "kindergarten",
        "check_date": "2023-11-08",
        "name": "Grădinița nr. 257 \"Alice\"",
        "source": "survey"
      }
    },
    {
      "id": "node/2495692805",
      "osm_id": 2495692805,
      "osm_type": "node",
      "name": "Grădinița Nr. 36",
      "category": "education",
      "lat": 44.4440471,
      "lon": 26.1549476,
      "tags": {
        "amenity": "kindergarten",
        "name": "Grădinița Nr. 36"
      }
    },
    {
      "id": "node/2495694242",
      "osm_id": 2495694242,
      "osm_type": "node",
      "name": "International British School of Bucharest",
      "category": "education",
      "lat": 44.4391405,
      "lon": 26.1316493,
      "tags": {
        "amenity": "school",
        "check_date": "2025-10-04",
        "name": "International British School of Bucharest",
        "wikidata": "Q6048855",
        "wikipedia": "en:International British School of Bucharest"
      }
    },
    {
      "id": "node/2498560749",
      "osm_id": 2498560749,
      "osm_type": "node",
      "name": "Facultatea de Medicină Dentară",
      "category": "education",
      "lat": 44.4357348,
      "lon": 26.0852548,
      "tags": {
        "addr:city": "București",
        "addr:country": "RO",
        "addr:housenumber": "17-21",
        "addr:postcode": "010221",
        "addr:street": "Calea Plevnei",
        "alt_name": "Facultatea de Stomatologie",
        "amenity": "university",
        "name": "Facultatea de Medicină Dentară"
      }
    },
    {
      "id": "node/2498560750",
      "osm_id": 2498560750,
      "osm_type": "node",
      "name": "Facultatea de Moașe și Asistență Medicală",
      "category": "education",
      "lat": 44.4345844,
      "lon": 26.0699824,
      "tags": {
        "amenity": "university",
        "check_date": "2024-10-12",
        "is_in": "București",
        "name": "Facultatea de Moașe și Asistență Medicală"
      }
    },
    {
      "id": "node/2531868415",
      "osm_id": 2531868415,
      "osm_type": "node",
      "name": "Grădinița nr. 112",
      "category": "education",
      "lat": 44.4511426,
      "lon": 26.0765781,
      "tags": {
        "amenity": "kindergarten",
        "name": "Grădinița nr. 112"
      }
    },
    {
      "id": "node/2531868416",
      "osm_id": 2531868416,
      "osm_type": "node",
      "name": "Grădinița nr. 206",
      "category": "education",
      "lat": 44.4504902,
      "lon": 26.0761381,
      "tags": {
        "amenity": "kindergarten",
        "name": "Grădinița nr. 206"
      }
    },
    {
      "id": "node/2557505729",
      "osm_id": 2557505729,
      "osm_type": "node",
      "name": "Grădinița Era",
      "category": "education",
      "lat": 44.4264552,
      "lon": 26.1355691,
      "tags": {
        "amenity": "kindergarten",
        "is_in:city": "București",
        "name": "Grădinița Era"
      }
    },
    {
      "id": "node/2558783253",
      "osm_id": 2558783253,
      "osm_type": "node",
      "name": "Grădinița nr. 116",
      "category": "education",
      "lat": 44.4447743,
      "lon": 26.0963648,
      "tags": {
        "amenity": "kindergarten",
        "name": "Grădinița nr. 116",
        "source": "survey"
      }
    },
    {
      "id": "node/2559264816",
      "osm_id": 2559264816,
      "osm_type": "node",
      "name": "Grădinița nr. 281",
      "category": "education",
      "lat": 44.4645728,
      "lon": 26.0570029,
      "tags": {
        "amenity": "kindergarten",
        "check_date": "2024-04-19",
        "name": "Grădinița nr. 281",
        "source": "survey"
      }
    },
    {
      "id": "node/2559698820",
      "osm_id": 2559698820,
      "osm_type": "node",
      "name": "Grădinița nr. 43",
      "category": "education",
      "lat": 44.4661259,
      "lon": 26.0594525,
      "tags": {
        "amenity": "kindergarten",
        "check_date": "2026-03-03",
        "name": "Grădinița nr. 43",
        "source": "survey"
      }
    },
    {
      "id": "node/2569322689",
      "osm_id": 2569322689,
      "osm_type": "node",
      "name": "Colegiul Național de Arte Dinu Lipatti",
      "category": "education",
      "lat": 44.4225247,
      "lon": 26.0968645,
      "tags": {
        "amenity": "school",
        "grades": "0-12",
        "is_in": "București",
        "name": "Colegiul Național de Arte Dinu Lipatti",
        "old_name": "Liceul de Muzica \"Dinu Lipatti\"",
        "website": "https://cnadl.ro"
      }
    },
    {
      "id": "node/2574127477",
      "osm_id": 2574127477,
      "osm_type": "node",
      "name": "Facultatea de Inginerie Chimică și Biotehnologii",
      "category": "education",
      "lat": 44.4477086,
      "lon": 26.0797526,
      "tags": {
        "addr:city": "București",
        "addr:country": "RO",
        "addr:housenumber": "1-7",
        "addr:postcode": "011061",
        "addr:street": "Strada Gheorghe Polizu",
        "amenity": "university",
        "education": "university",
        "faculty": "chemistry",
        "name": "Facultatea de Inginerie Chimică și Biotehnologii",
        "name:en": "Faculty of Chemical Engineering and Biotechnology",
        "name:ro": "Facultatea de Inginerie Chimică și Biotehnologii",
        "operator": "Universitatea Politehnica din București",
        "operator:type": "university",
        "phone": "+40 21 402 39 27",
        "website": "https://chimie.upb.ro/"
      }
    },
    {
      "id": "node/2574127478",
      "osm_id": 2574127478,
      "osm_type": "node",
      "name": "Facultatea de Inginerie Aerospațială",
      "category": "education",
      "lat": 44.4473376,
      "lon": 26.0777652,
      "tags": {
        "addr:city": "București",
        "addr:country": "RO",
        "addr:housenumber": "1-7",
        "addr:postcode": "011061",
        "addr:street": "Strada Gheorghe Polizu",
        "amenity": "university",
        "education": "university",
        "faculty": "engineering",
        "name": "Facultatea de Inginerie Aerospațială",
        "operator": "Universitatea Politehnica din București",
        "operator:type": "university",
        "phone": "+40 21 402 38 12",
        "website": "http://www.aero.pub.ro/"
      }
    },
    {
      "id": "node/2574127479",
      "osm_id": 2574127479,
      "osm_type": "node",
      "name": "Facultatea de Inginerie Medicală",
      "category": "education",
      "lat": 44.4474941,
      "lon": 26.0790075,
      "tags": {
        "addr:city": "București",
        "addr:country": "RO",
        "addr:housenumber": "1-7",
        "addr:postcode": "011061",
        "addr:street": "Strada Gheorghe Polizu",
        "amenity": "university",
        "faculty": "engineering",
        "name": "Facultatea de Inginerie Medicală",
        "operator": "Universitatea Politehnica din București",
        "operator:type": "university",
        "phone": "+40 21 402 9039",
        "website": "https://fim.upb.ro/"
      }
    },
    {
      "id": "node/2575507117",
      "osm_id": 2575507117,
      "osm_type": "node",
      "name": "Școala nr. 62",
      "category": "education",
      "lat": 44.443398,
      "lon": 26.1641551,
      "tags": {
        "amenity": "school",
        "name": "Școala nr. 62"
      }
    },
    {
      "id": "node/2824864629",
      "osm_id": 2824864629,
      "osm_type": "node",
      "name": "Prâslea cel Voinic",
      "category": "education",
      "lat": 44.4416567,
      "lon": 26.1427607,
      "tags": {
        "amenity": "kindergarten",
        "name": "Prâslea cel Voinic",
        "phone": "0040723458945",
        "website": "https://prasleacelvoinic.ro/"
      }
    },
    {
      "id": "node/2838252532",
      "osm_id": 2838252532,
      "osm_type": "node",
      "name": "Afterschool inGenius",
      "category": "education",
      "lat": 44.4636674,
      "lon": 26.0683977,
      "tags": {
        "addr:city": "București",
        "addr:housenumber": "106",
        "addr:postcode": "011597",
        "addr:postcode:source": "Date de la Poșta Română, publicate sub Licența pentru Guvernare Deschisă v1.0 la http://date.gov.ro/organization/posta-romana",
        "addr:street": "Strada Virgil Pleșoianu",
        "amenity": "school",
        "name": "Afterschool inGenius",
        "opening_hours": "Mo-Fr 12:00-18:00",
        "source": "http://urbanism.pmb.ro ; legea 544/2001"
      }
    },
    {
      "id": "node/2864433637",
      "osm_id": 2864433637,
      "osm_type": "node",
      "name": "Grădinița Nr. 261 \"Micul Prinț\"",
      "category": "education",
      "lat": 44.3943651,
      "lon": 26.1083725,
      "tags": {
        "amenity": "kindergarten",
        "name": "Grădinița Nr. 261 \"Micul Prinț\""
      }
    },
    {
      "id": "node/2866039866",
      "osm_id": 2866039866,
      "osm_type": "node",
      "name": "Ursulețul de Pluș - Grădiniță de vară&afterschool",
      "category": "education",
      "lat": 44.3968986,
      "lon": 26.1024018,
      "tags": {
        "amenity": "kindergarten",
        "name": "Ursulețul de Pluș - Grădiniță de vară&afterschool"
      }
    },
    {
      "id": "node/2866169270",
      "osm_id": 2866169270,
      "osm_type": "node",
      "name": "Grădinița nr. 206",
      "category": "education",
      "lat": 44.4439927,
      "lon": 26.0733313,
      "tags": {
        "addr:city": "București",
        "addr:housenumber": "15",
        "addr:street": "Strada Witting",
        "amenity": "kindergarten",
        "name": "Grădinița nr. 206",
        "source:addr:housenumber": "survey",
        "source:addr:street": "survey"
      }
    },
    {
      "id": "node/2872402341",
      "osm_id": 2872402341,
      "osm_type": "node",
      "name": "Liceul Dimitrie Paciurea",
      "category": "education",
      "lat": 44.4833975,
      "lon": 26.0633263,
      "tags": {
        "addr:housenumber": "29",
        "addr:street": "Strada Băiculești",
        "amenity": "school",
        "grades": "9-12",
        "name": "Liceul Dimitrie Paciurea",
        "old_name": "Grup școlar de arte și meserii Dimitrie Paciurea",
        "website": "https://liceulpaciurea.ro"
      }
    },
    {
      "id": "node/2886624943",
      "osm_id": 2886624943,
      "osm_type": "node",
      "name": "Grădinița Zum-zum",
      "category": "education",
      "lat": 44.4453327,
      "lon": 26.0711204,
      "tags": {
        "addr:city": "București",
        "addr:housenumber": "37",
        "addr:postcode": "010921",
        "addr:postcode:source": "Date de la Poșta Română, publicate sub Licența pentru Guvernare Deschisă v1.0 la http://date.gov.ro/organization/posta-romana",
        "addr:street": "Strada Vespasian",
        "amenity": "kindergarten",
        "name": "Grădinița Zum-zum",
        "source:addr:housenumber": "survey",
        "source:addr:street": "survey",
        "website": "https://gradinitazumzum.ro/"
      }
    },
    {
      "id": "node/2886624949",
      "osm_id": 2886624949,
      "osm_type": "node",
      "name": "Grădinița Școala Gimnazială Uruguay",
      "category": "education",
      "lat": 44.4465514,
      "lon": 26.0691176,
      "tags": {
        "addr:city": "București",
        "addr:housename": "Școala Gimnazială Uruguay",
        "addr:housenumber": "31",
        "addr:postcode": "010931",
        "addr:street": "Strada Bihor",
        "amenity": "kindergarten",
        "name": "Grădinița Școala Gimnazială Uruguay",
        "source:addr:housenumber": "survey",
        "source:addr:street": "survey",
        "website": "https://scoala152.ro/"
      }
    },
    {
      "id": "node/2895273848",
      "osm_id": 2895273848,
      "osm_type": "node",
      "name": "Fără nume",
      "category": "education",
      "lat": 44.3900696,
      "lon": 26.1129907,
      "tags": {
        "addr:housename": "Grădinița nr.227 Raza de Soare",
        "amenity": "kindergarten",
        "education": "kindergarten",
        "source": "survey"
      }
    },
    {
      "id": "node/2981939443",
      "osm_id": 2981939443,
      "osm_type": "node",
      "name": "Grădinița Schritt fuer Schritt",
      "category": "education",
      "lat": 44.4399727,
      "lon": 26.1321669,
      "tags": {
        "amenity": "kindergarten",
        "check_date": "2024-05-10",
        "name": "Grădinița Schritt fuer Schritt",
        "website": "http://www.gradi-germana.ro/#!/"
      }
    },
    {
      "id": "node/3031951805",
      "osm_id": 3031951805,
      "osm_type": "node",
      "name": "Grădinița Miniterra",
      "category": "education",
      "lat": 44.4821133,
      "lon": 26.0955962,
      "tags": {
        "addr:city": "București",
        "addr:housenumber": "5",
        "addr:postcode": "014189",
        "addr:street": "Intrarea Măguricea Nouă",
        "amenity": "kindergarten",
        "contact:phone": "+40 723541899",
        "contact:website": "http://www.miniterra.ro",
        "name": "Grădinița Miniterra",
        "phone": "+40 722267644",
        "source:addr:housenumber": "survey",
        "website": "http://www.miniterra.ro"
      }
    },
    {
      "id": "node/3053046625",
      "osm_id": 3053046625,
      "osm_type": "node",
      "name": "Grădinița Goethe",
      "category": "education",
      "lat": 44.4461678,
      "lon": 26.0945916,
      "tags": {
        "addr:city": "București",
        "addr:housenumber": "22",
        "addr:street": "Strada General Christian Tell",
        "amenity": "kindergarten",
        "name": "Grădinița Goethe"
      }
    },
    {
      "id": "node/3072545261",
      "osm_id": 3072545261,
      "osm_type": "node",
      "name": "Grădinița nr. 73",
      "category": "education",
      "lat": 44.433925,
      "lon": 26.085866,
      "tags": {
        "addr:city": "București",
        "addr:housenumber": "68",
        "addr:postcode": "050086",
        "addr:street": "Splaiul Independenței",
        "amenity": "kindergarten",
        "name": "Grădinița nr. 73",
        "operator": "Ministery of Education",
        "operator:type": "public",
        "phone": "+40213154355",
        "preschool": "yes"
      }
    },
    {
      "id": "node/3073339276",
      "osm_id": 3073339276,
      "osm_type": "node",
      "name": "CROS - Universitatea Alternativa",
      "category": "education",
      "lat": 44.4488061,
      "lon": 26.1039088,
      "tags": {
        "amenity": "university",
        "name": "CROS - Universitatea Alternativa"
      }
    },
    {
      "id": "node/3111590867",
      "osm_id": 3111590867,
      "osm_type": "node",
      "name": "Cursuri Paleologu",
      "category": "education",
      "lat": 44.4407988,
      "lon": 26.1114845,
      "tags": {
        "amenity": "school",
        "name": "Cursuri Paleologu"
      }
    },
    {
      "id": "node/3135914029",
      "osm_id": 3135914029,
      "osm_type": "node",
      "name": "Universitatea Ecologică",
      "category": "education",
      "lat": 44.430514,
      "lon": 26.0981083,
      "tags": {
        "addr:city": "București",
        "addr:postcode": "030104",
        "addr:street": "Strada Franceză",
        "amenity": "university",
        "name": "Universitatea Ecologică"
      }
    },
    {
      "id": "node/3189841435",
      "osm_id": 3189841435,
      "osm_type": "node",
      "name": "Colegiul Tehnic \"Mihai Bravu\"",
      "category": "education",
      "lat": 44.4194365,
      "lon": 26.1356845,
      "tags": {
        "addr:city": "București",
        "addr:housenumber": "428",
        "addr:postcode": "030328",
        "addr:street": "Șoseaua Mihai Bravu",
        "amenity": "college",
        "education": "college",
        "name": "Colegiul Tehnic \"Mihai Bravu\"",
        "operator": "Ministerul Educației Naționale"
      }
    },
    {
      "id": "node/3292670073",
      "osm_id": 3292670073,
      "osm_type": "node",
      "name": "Facultatea de Cibernetică",
      "category": "education",
      "lat": 44.4477955,
      "lon": 26.0990494,
      "tags": {
        "addr:city": "București",
        "addr:country": "RO",
        "addr:housenumber": "15-17",
        "addr:postcode": "010552",
        "addr:street": "Calea Dorobanților",
        "amenity": "university",
        "name": "Facultatea de Cibernetică",
        "wheelchair": "limited"
      }
    },
    {
      "id": "node/3340819793",
      "osm_id": 3340819793,
      "osm_type": "node",
      "name": "Grădinița Nr. 43",
      "category": "education",
      "lat": 44.4635245,
      "lon": 26.0561582,
      "tags": {
        "amenity": "kindergarten",
        "check_date": "2024-04-19",
        "name": "Grădinița Nr. 43"
      }
    },
    {
      "id": "node/3364637198",
      "osm_id": 3364637198,
      "osm_type": "node",
      "name": "Școala de Muzică și Arte Plastice 1",
      "category": "education",
      "lat": 44.450634,
      "lon": 26.0761408,
      "tags": {
        "amenity": "school",
        "name": "Școala de Muzică și Arte Plastice 1"
      }
    },
    {
      "id": "node/3366919193",
      "osm_id": 3366919193,
      "osm_type": "node",
      "name": "Universitatea Atenaeum",
      "category": "education",
      "lat": 44.4613939,
      "lon": 26.1050417,
      "tags": {
        "amenity": "university",
        "check_date": "2025-04-04",
        "name": "Universitatea Atenaeum"
      }
    },
    {
      "id": "node/3459239893",
      "osm_id": 3459239893,
      "osm_type": "node",
      "name": "Grădinița 11 Ion Heliade Rădulescu",
      "category": "education",
      "lat": 44.4470556,
      "lon": 26.0930238,
      "tags": {
        "addr:city": "București",
        "amenity": "kindergarten",
        "name": "Grădinița 11 Ion Heliade Rădulescu"
      }
    },
    {
      "id": "node/3495740723",
      "osm_id": 3495740723,
      "osm_type": "node",
      "name": "Grădinița cu program normal nr. 147",
      "category": "education",
      "lat": 44.4344194,
      "lon": 26.1593905,
      "tags": {
        "amenity": "school",
        "name": "Grădinița cu program normal nr. 147"
      }
    },
    {
      "id": "node/3605116439",
      "osm_id": 3605116439,
      "osm_type": "node",
      "name": "EuroKid 3 afterschool",
      "category": "education",
      "lat": 44.3937028,
      "lon": 26.1010428,
      "tags": {
        "addr:city": "București",
        "amenity": "kindergarten",
        "name": "EuroKid 3 afterschool"
      }
    },
    {
      "id": "node/3757867770",
      "osm_id": 3757867770,
      "osm_type": "node",
      "name": "Centrul Educațional IBSEN",
      "category": "education",
      "lat": 44.4335943,
      "lon": 26.1063525,
      "tags": {
        "addr:city": "București",
        "addr:housenumber": "8",
        "addr:street": "Strada General Florescu Ion Emanoil",
        "amenity": "school",
        "name": "Centrul Educațional IBSEN",
        "office": "educational_institution",
        "opening_hours": "Mo-Fr 09:00-19:00",
        "phone": "+40746 644 773",
        "website": "https://ibsen.ro/"
      }
    },
    {
      "id": "node/3770362757",
      "osm_id": 3770362757,
      "osm_type": "node",
      "name": "Școala cu Clasele I-VIII RUT",
      "category": "education",
      "lat": 44.3931716,
      "lon": 26.0805958,
      "tags": {
        "addr:city": "București",
        "addr:housenumber": "9-13",
        "addr:postcode": "052464",
        "addr:street": "Strada Lacul Bucura",
        "amenity": "school",
        "name": "Școala cu Clasele I-VIII RUT",
        "phone": "+4021 451 0401",
        "source": "Field survey",
        "source:addr:housenumber": "survey",
        "source:addr:street": "survey",
        "website": "https://projectruth.ro/"
      }
    },
    {
      "id": "node/3831396372",
      "osm_id": 3831396372,
      "osm_type": "node",
      "name": "Grădinița Albă ca Zăpada și Piticii",
      "category": "education",
      "lat": 44.394084,
      "lon": 26.0993919,
      "tags": {
        "amenity": "kindergarten",
        "name": "Grădinița Albă ca Zăpada și Piticii"
      }
    },
    {
      "id": "node/3835348288",
      "osm_id": 3835348288,
      "osm_type": "node",
      "name": "Kids Palace",
      "category": "education",
      "lat": 44.3981952,
      "lon": 26.1124246,
      "tags": {
        "amenity": "kindergarten",
        "name": "Kids Palace"
      }
    },
    {
      "id": "node/3877013767",
      "osm_id": 3877013767,
      "osm_type": "node",
      "name": "Grădinița nr. 255",
      "category": "education",
      "lat": 44.4086712,
      "lon": 26.1421834,
      "tags": {
        "amenity": "kindergarten",
        "check_date": "2025-08-22",
        "name": "Grădinița nr. 255"
      }
    },
    {
      "id": "node/3880781128",
      "osm_id": 3880781128,
      "osm_type": "node",
      "name": "Clubul Sportiv Școlar nr. 5",
      "category": "education",
      "lat": 44.441479,
      "lon": 26.0731435,
      "tags": {
        "addr:city": "București",
        "addr:housenumber": "124",
        "addr:postcode": "010241",
        "addr:street": "Calea Plevnei",
        "amenity": "school",
        "name": "Clubul Sportiv Școlar nr. 5",
        "source:addr:housenumber": "survey",
        "source:addr:street": "survey"
      }
    },
    {
      "id": "node/3888313510",
      "osm_id": 3888313510,
      "osm_type": "node",
      "name": "Grădinița nr. 224",
      "category": "education",
      "lat": 44.4212629,
      "lon": 26.0937731,
      "tags": {
        "amenity": "kindergarten",
        "name": "Grădinița nr. 224"
      }
    },
    {
      "id": "node/4212139003",
      "osm_id": 4212139003,
      "osm_type": "node",
      "name": "Grădinița Plușica",
      "category": "education",
      "lat": 44.4214085,
      "lon": 26.1236321,
      "tags": {
        "amenity": "kindergarten",
        "name": "Grădinița Plușica"
      }
    },
    {
      "id": "node/4264728993",
      "osm_id": 4264728993,
      "osm_type": "node",
      "name": "Liceul Teoretic Internațional de Informatică",
      "category": "education",
      "lat": 44.4086796,
      "lon": 26.2107659,
      "tags": {
        "addr:city": "București",
        "addr:housenumber": "9",
        "addr:street": "Strada Balta Albina",
        "amenity": "school",
        "email": "info@ichb.ro",
        "name": "Liceul Teoretic Internațional de Informatică",
        "name:en": "International Computer High School of Bucharest",
        "opening_hours": "Mo-Fr 08:00-17:00; Sa 09:00-13:00",
        "phone": "+40213276570",
        "website": "https://ichb.ro/"
      }
    },
    {
      "id": "node/4363258289",
      "osm_id": 4363258289,
      "osm_type": "node",
      "name": "Gradinita Magica",
      "category": "education",
      "lat": 44.4365232,
      "lon": 26.1193235,
      "tags": {
        "amenity": "kindergarten",
        "name": "Gradinita Magica",
        "name:en": "Magica Kindergarten",
        "name:ro": "Gradinita Magica",
        "website": "https://www.gradinitamagica.ro/"
      }
    },
    {
      "id": "node/4365350292",
      "osm_id": 4365350292,
      "osm_type": "node",
      "name": "Grădinița nr. 12 Albinuța",
      "category": "education",
      "lat": 44.4640281,
      "lon": 26.1047087,
      "tags": {
        "addr:postcode": "020217",
        "addr:street": "Strada Dinu Lipatti",
        "amenity": "kindergarten",
        "name": "Grădinița nr. 12 Albinuța",
        "name:ro": "Grădinița nr. 12 Albinuța"
      }
    },
    {
      "id": "node/4367716116",
      "osm_id": 4367716116,
      "osm_type": "node",
      "name": "Grădinița cu program prelungit Copiii Soarelui",
      "category": "education",
      "lat": 44.4153979,
      "lon": 26.1006076,
      "tags": {
        "addr:city": "București",
        "amenity": "kindergarten",
        "check_date": "2023-12-15",
        "name": "Grădinița cu program prelungit Copiii Soarelui"
      }
    },
    {
      "id": "node/4398792090",
      "osm_id": 4398792090,
      "osm_type": "node",
      "name": "Școala Primară Just 4 Kids",
      "category": "education",
      "lat": 44.4183101,
      "lon": 26.1350047,
      "tags": {
        "amenity": "school",
        "name": "Școala Primară Just 4 Kids"
      }
    },
    {
      "id": "node/4488220921",
      "osm_id": 4488220921,
      "osm_type": "node",
      "name": "Grădinița Elefănțelul Curios",
      "category": "education",
      "lat": 44.3956748,
      "lon": 26.1111448,
      "tags": {
        "addr:city": "București",
        "addr:street": "Strada Pomârla",
        "amenity": "kindergarten",
        "name": "Grădinița Elefănțelul Curios"
      }
    },
    {
      "id": "node/4517779589",
      "osm_id": 4517779589,
      "osm_type": "node",
      "name": "Grădinița 167",
      "category": "education",
      "lat": 44.3777522,
      "lon": 26.106434,
      "tags": {
        "addr:city": "București",
        "addr:housenumber": "1",
        "addr:street": "Strada Izvorul Oltului",
        "addr:street:source": "survey",
        "amenity": "school",
        "name": "Grădinița 167",
        "name:ro": "Grădinița 167",
        "source:addr:housenumber": "survey",
        "source:addr:street": "survey"
      }
    },
    {
      "id": "node/4521922609",
      "osm_id": 4521922609,
      "osm_type": "node",
      "name": "Facultatea de Ingineria și Gestiunea Producțiilor Animaliere",
      "category": "education",
      "lat": 44.4705864,
      "lon": 26.0711224,
      "tags": {
        "amenity": "university",
        "building:levels": "5",
        "name": "Facultatea de Ingineria și Gestiunea Producțiilor Animaliere"
      }
    },
    {
      "id": "node/4544813392",
      "osm_id": 4544813392,
      "osm_type": "node",
      "name": "Fără nume",
      "category": "education",
      "lat": 44.3882974,
      "lon": 26.0479797,
      "tags": {
        "amenity": "kindergarten"
      }
    },
    {
      "id": "node/4572890394",
      "osm_id": 4572890394,
      "osm_type": "node",
      "name": "Școala nr. 115",
      "category": "education",
      "lat": 44.4217202,
      "lon": 26.0698484,
      "tags": {
        "amenity": "school",
        "education": "school",
        "name": "Școala nr. 115"
      }
    },
    {
      "id": "node/4580669901",
      "osm_id": 4580669901,
      "osm_type": "node",
      "name": "Fără nume",
      "category": "education",
      "lat": 44.4502125,
      "lon": 26.1061179,
      "tags": {
        "amenity": "kindergarten"
      }
    },
    {
      "id": "node/4586018789",
      "osm_id": 4586018789,
      "osm_type": "node",
      "name": "Fără nume",
      "category": "education",
      "lat": 44.4539361,
      "lon": 26.0789005,
      "tags": {
        "amenity": "school",
        "name:en": "Bucharest College of Oriental Medicine",
        "phone": "0769298091",
        "website": "http://www.bcoom.ro"
      }
    },
    {
      "id": "node/4752541422",
      "osm_id": 4752541422,
      "osm_type": "node",
      "name": "Asociația Academiei Elohim",
      "category": "education",
      "lat": 44.4242489,
      "lon": 26.099875,
      "tags": {
        "amenity": "school",
        "name": "Asociația Academiei Elohim",
        "name:en": "Elohim Academi",
        "name:ko": "엘로힘 아카데미 협회",
        "name:ro": "Asociația Academiei Elohim"
      }
    },
    {
      "id": "node/4774924531",
      "osm_id": 4774924531,
      "osm_type": "node",
      "name": "Gradinita Nr. 234 - Zori de zi",
      "category": "education",
      "lat": 44.4607367,
      "lon": 26.1216133,
      "tags": {
        "addr:city": "București",
        "addr:housenumber": "Nr. 1-5",
        "addr:street": "Intrarea Pontonului",
        "amenity": "kindergarten",
        "name": "Gradinita Nr. 234 - Zori de zi",
        "name:ro": "Gradinita Nr. 234 - Zori de zi",
        "operator": "Gradinita de stat cu program prelungit.",
        "operator:type": "government",
        "phone": "0212422748"
      }
    },
    {
      "id": "node/4800735777",
      "osm_id": 4800735777,
      "osm_type": "node",
      "name": "Grădinița Piticul Curajos",
      "category": "education",
      "lat": 44.4298994,
      "lon": 26.1553117,
      "tags": {
        "amenity": "school",
        "name": "Grădinița Piticul Curajos"
      }
    },
    {
      "id": "node/4861564466",
      "osm_id": 4861564466,
      "osm_type": "node",
      "name": "Grădinița King George",
      "category": "education",
      "lat": 44.3849645,
      "lon": 26.1110689,
      "tags": {
        "addr:city": "București",
        "addr:housenumber": "2",
        "addr:street": "Strada Cimpoierilor",
        "addr:street:source": "survey",
        "amenity": "school",
        "name": "Grădinița King George",
        "phone": "+40751024024",
        "source:addr:housenumber": "survey",
        "website": "http://www.king-george.ro"
      }
    },
    {
      "id": "node/4874877421",
      "osm_id": 4874877421,
      "osm_type": "node",
      "name": "Grădinița nr.133 \"Magnolia\"",
      "category": "education",
      "lat": 44.4466097,
      "lon": 26.1178695,
      "tags": {
        "addr:city": "București",
        "addr:housenumber": "25",
        "addr:street": "Strada Dragoș Vodă",
        "amenity": "kindergarten",
        "name": "Grădinița nr.133 \"Magnolia\"",
        "name:ro": "Grădinița nr.133 \"Magnolia\""
      }
    },
    {
      "id": "node/4892592969",
      "osm_id": 4892592969,
      "osm_type": "node",
      "name": "Grădinița Yannis & Yasmine",
      "category": "education",
      "lat": 44.3963458,
      "lon": 26.1219361,
      "tags": {
        "addr:city": "București",
        "addr:housenumber": "391",
        "addr:street": "Calea Văcărești",
        "addr:street:source": "survey",
        "amenity": "kindergarten",
        "name": "Grădinița Yannis & Yasmine",
        "phone": "+40749229691",
        "source:addr:housenumber": "survey",
        "website": "https://centruldestudiieuropean.ro/"
      }
    },
    {
      "id": "node/4897868813",
      "osm_id": 4897868813,
      "osm_type": "node",
      "name": "Grădinița 97",
      "category": "education",
      "lat": 44.4760021,
      "lon": 26.0360161,
      "tags": {
        "addr:city": "București",
        "addr:housename": "Grădinița 97",
        "addr:housenumber": "33",
        "addr:street": "Strada Minervei",
        "amenity": "kindergarten",
        "name": "Grădinița 97"
      }
    },
    {
      "id": "node/4897920155",
      "osm_id": 4897920155,
      "osm_type": "node",
      "name": "Grădinița 97",
      "category": "education",
      "lat": 44.4603047,
      "lon": 26.0656697,
      "tags": {
        "addr:city": "București",
        "addr:housename": "Grădinița 97",
        "addr:housenumber": "13",
        "addr:street": "Strada Islaz",
        "amenity": "kindergarten",
        "name": "Grădinița 97"
      }
    },
    {
      "id": "node/4980337521",
      "osm_id": 4980337521,
      "osm_type": "node",
      "name": "Școala Gimnazială nr.40",
      "category": "education",
      "lat": 44.4772339,
      "lon": 26.150768,
      "tags": {
        "addr:city": "București",
        "addr:housenumber": "27",
        "addr:postcode": "022717",
        "addr:street": "Strada Periș",
        "amenity": "school",
        "grades": "1-8",
        "name": "Școala Gimnazială nr.40",
        "name:ro": "Școala Gimnazială nr.40",
        "religion": "none"
      }
    },
    {
      "id": "node/5042337766",
      "osm_id": 5042337766,
      "osm_type": "node",
      "name": "Kidsland",
      "category": "education",
      "lat": 44.4288194,
      "lon": 26.0370002,
      "tags": {
        "amenity": "kindergarten",
        "name": "Kidsland"
      }
    },
    {
      "id": "node/5097170001",
      "osm_id": 5097170001,
      "osm_type": "node",
      "name": "Grădinița 283",
      "category": "education",
      "lat": 44.4922036,
      "lon": 26.0851166,
      "tags": {
        "amenity": "kindergarten",
        "name": "Grădinița 283"
      }
    },
    {
      "id": "node/5112585920",
      "osm_id": 5112585920,
      "osm_type": "node",
      "name": "Grădinița Hansel und Gretel",
      "category": "education",
      "lat": 44.4661744,
      "lon": 26.0696119,
      "tags": {
        "amenity": "kindergarten",
        "name": "Grădinița Hansel und Gretel",
        "source": "survey"
      }
    },
    {
      "id": "node/5207856223",
      "osm_id": 5207856223,
      "osm_type": "node",
      "name": "Grădinița Maxi",
      "category": "education",
      "lat": 44.4669791,
      "lon": 26.08843,
      "tags": {
        "amenity": "kindergarten",
        "name": "Grădinița Maxi"
      }
    },
    {
      "id": "node/5207977213",
      "osm_id": 5207977213,
      "osm_type": "node",
      "name": "Eurokid 1 afterschool",
      "category": "education",
      "lat": 44.3933494,
      "lon": 26.1007783,
      "tags": {
        "amenity": "kindergarten",
        "name": "Eurokid 1 afterschool"
      }
    },
    {
      "id": "node/5295093624",
      "osm_id": 5295093624,
      "osm_type": "node",
      "name": "GRĂDINIȚA NR.62",
      "category": "education",
      "lat": 44.3830202,
      "lon": 26.0947991,
      "tags": {
        "amenity": "kindergarten",
        "education": "kindergarten",
        "name": "GRĂDINIȚA NR.62"
      }
    },
    {
      "id": "node/5304667418",
      "osm_id": 5304667418,
      "osm_type": "node",
      "name": "Grădinița Aldo Moro",
      "category": "education",
      "lat": 44.4395895,
      "lon": 26.1083035,
      "tags": {
        "amenity": "kindergarten",
        "name": "Grădinița Aldo Moro"
      }
    },
    {
      "id": "node/5516323608",
      "osm_id": 5516323608,
      "osm_type": "node",
      "name": "Afterschool",
      "category": "education",
      "lat": 44.4219073,
      "lon": 26.1059837,
      "tags": {
        "amenity": "kindergarten",
        "name": "Afterschool"
      }
    },
    {
      "id": "node/5596483797",
      "osm_id": 5596483797,
      "osm_type": "node",
      "name": "Școala gimnazială nr. 190 nivel preșcolar",
      "category": "education",
      "lat": 44.3918801,
      "lon": 26.1092913,
      "tags": {
        "addr:street": "Bulevardul Constantin Brâncoveanu",
        "amenity": "school",
        "name": "Școala gimnazială nr. 190 nivel preșcolar"
      }
    },
    {
      "id": "node/6041877113",
      "osm_id": 6041877113,
      "osm_type": "node",
      "name": "Grădinița nr.30 Panseluța",
      "category": "education",
      "lat": 44.3833941,
      "lon": 26.1308663,
      "tags": {
        "addr:street": "Șoseaua Berceni",
        "amenity": "kindergarten",
        "name": "Grădinița nr.30 Panseluța"
      }
    },
    {
      "id": "node/6053554485",
      "osm_id": 6053554485,
      "osm_type": "node",
      "name": "Mathnasium",
      "category": "education",
      "lat": 44.4341689,
      "lon": 26.0161462,
      "tags": {
        "addr:city": "București",
        "addr:housenumber": "158A",
        "addr:postcode": "061117",
        "addr:street": "Bulevardul Iuliu Maniu",
        "amenity": "school",
        "name": "Mathnasium",
        "source:addr:housenumber": "survey",
        "source:addr:street": "survey"
      }
    },
    {
      "id": "node/6163608820",
      "osm_id": 6163608820,
      "osm_type": "node",
      "name": "Grădinița Licurici",
      "category": "education",
      "lat": 44.4379986,
      "lon": 26.1091443,
      "tags": {
        "amenity": "kindergarten",
        "check_date": "2024-11-15",
        "name": "Grădinița Licurici"
      }
    },
    {
      "id": "node/6235076871",
      "osm_id": 6235076871,
      "osm_type": "node",
      "name": "Școala de Șoferi",
      "category": "education",
      "lat": 44.376591,
      "lon": 26.0908931,
      "tags": {
        "addr:street": "Șoseaua Giurgiului",
        "amenity": "school",
        "name": "Școala de Șoferi"
      }
    },
    {
      "id": "node/6235076872",
      "osm_id": 6235076872,
      "osm_type": "node",
      "name": "Școala de Șoferi",
      "category": "education",
      "lat": 44.3787784,
      "lon": 26.0927573,
      "tags": {
        "addr:street": "Strada Luică",
        "amenity": "school",
        "check_date": "2025-04-21",
        "education": "school",
        "name": "Școala de Șoferi"
      }
    },
    {
      "id": "node/6245323838",
      "osm_id": 6245323838,
      "osm_type": "node",
      "name": "Grădinița Ada",
      "category": "education",
      "lat": 44.4386252,
      "lon": 26.0677765,
      "tags": {
        "addr:city": "București",
        "addr:housenumber": "10 bis",
        "addr:postcode": "060104",
        "addr:street": "Strada Doctor Ernest Juvara",
        "amenity": "kindergarten",
        "name": "Grădinița Ada",
        "name:en": "Ada Kindergarten",
        "source:addr:housenumber": "survey",
        "source:addr:street": "survey"
      }
    },
    {
      "id": "node/6886876161",
      "osm_id": 6886876161,
      "osm_type": "node",
      "name": "Gradinita Little Smile - Camy",
      "category": "education",
      "lat": 44.4164199,
      "lon": 26.1215045,
      "tags": {
        "addr:city": "București",
        "addr:housenumber": "1",
        "addr:street": "Strada Zizin",
        "alt_name": "Gradinita si After-School Little Smile",
        "amenity": "kindergarten",
        "name": "Gradinita Little Smile - Camy",
        "preschool": "yes"
      }
    },
    {
      "id": "node/6916750957",
      "osm_id": 6916750957,
      "osm_type": "node",
      "name": "Grădinița Fluturașilor",
      "category": "education",
      "lat": 44.4730543,
      "lon": 26.1641094,
      "tags": {
        "addr:city": "București",
        "addr:housenumber": "1E",
        "addr:street": "Strada Arbustului",
        "amenity": "kindergarten",
        "name": "Grădinița Fluturașilor",
        "source": "survey, field survey"
      }
    },
    {
      "id": "node/6932733856",
      "osm_id": 6932733856,
      "osm_type": "node",
      "name": "Gradinita Smiley Kindergarten",
      "category": "education",
      "lat": 44.4502868,
      "lon": 26.0591766,
      "tags": {
        "addr:city": "București",
        "addr:housenumber": "6",
        "addr:postcode": "060236",
        "addr:street": "Strada Gabriel Cioran",
        "amenity": "kindergarten",
        "name": "Gradinita Smiley Kindergarten",
        "website": "https://www.gradinitasmiley.ro/"
      }
    },
    {
      "id": "node/7063226488",
      "osm_id": 7063226488,
      "osm_type": "node",
      "name": "Scheaskpeare school",
      "category": "education",
      "lat": 44.3976063,
      "lon": 26.1168028,
      "tags": {
        "amenity": "school",
        "name": "Scheaskpeare school"
      }
    },
    {
      "id": "node/7194647985",
      "osm_id": 7194647985,
      "osm_type": "node",
      "name": "Scoala Gimnaziala Nr.92",
      "category": "education",
      "lat": 44.4100283,
      "lon": 26.1690338,
      "tags": {
        "amenity": "school",
        "name": "Scoala Gimnaziala Nr.92"
      }
    },
    {
      "id": "node/7416750767",
      "osm_id": 7416750767,
      "osm_type": "node",
      "name": "Facultatea de Agricultură",
      "category": "education",
      "lat": 44.4713422,
      "lon": 26.0707592,
      "tags": {
        "amenity": "university",
        "name": "Facultatea de Agricultură",
        "name:en": "Faculty of Agriculture",
        "name:ro": "Facultatea de Agricultură"
      }
    },
    {
      "id": "node/7416750768",
      "osm_id": 7416750768,
      "osm_type": "node",
      "name": "Facultatea de Management și Dezvoltare Rurală",
      "category": "education",
      "lat": 44.4709701,
      "lon": 26.0711568,
      "tags": {
        "amenity": "university",
        "name": "Facultatea de Management și Dezvoltare Rurală",
        "name:ro": "Facultatea de Management și Dezvoltare Rurală"
      }
    },
    {
      "id": "node/7828658353",
      "osm_id": 7828658353,
      "osm_type": "node",
      "name": "Creșă Teiul Doamnei",
      "category": "education",
      "lat": 44.4633144,
      "lon": 26.1260351,
      "tags": {
        "amenity": "kindergarten",
        "check_date": "2025-10-06",
        "name": "Creșă Teiul Doamnei"
      }
    },
    {
      "id": "node/8729099295",
      "osm_id": 8729099295,
      "osm_type": "node",
      "name": "Facultatea de Management",
      "category": "education",
      "lat": 44.4480782,
      "lon": 26.0967613,
      "tags": {
        "amenity": "university",
        "name": "Facultatea de Management"
      }
    },
    {
      "id": "node/8729099296",
      "osm_id": 8729099296,
      "osm_type": "node",
      "name": "Facultatea de Contabilitate și Informatica de Gestiune ( CIG )",
      "category": "education",
      "lat": 44.447903,
      "lon": 26.0967774,
      "tags": {
        "amenity": "university",
        "check_date": "2026-03-10",
        "name": "Facultatea de Contabilitate și Informatica de Gestiune ( CIG )"
      }
    },
    {
      "id": "node/8729121948",
      "osm_id": 8729121948,
      "osm_type": "node",
      "name": "Facultatea de Relaţii Economice Internaţionale (REI)",
      "category": "education",
      "lat": 44.4473784,
      "lon": 26.0987344,
      "tags": {
        "amenity": "university",
        "name": "Facultatea de Relaţii Economice Internaţionale (REI)",
        "short_name": "REI"
      }
    },
    {
      "id": "node/8750354967",
      "osm_id": 8750354967,
      "osm_type": "node",
      "name": "Facultatea de Geologie și Geofizică",
      "category": "education",
      "lat": 44.4357018,
      "lon": 26.1018077,
      "tags": {
        "amenity": "university",
        "check_date": "2024-10-12",
        "is_in:city": "București",
        "name": "Facultatea de Geologie și Geofizică",
        "name:en": "Faculty of Geology and Geophysics",
        "name:ro": "Facultatea de Geologie și Geofizică"
      }
    },
    {
      "id": "node/8750354968",
      "osm_id": 8750354968,
      "osm_type": "node",
      "name": "Facultatea de Administrație și Afaceri",
      "category": "education",
      "lat": 44.4355946,
      "lon": 26.1014573,
      "tags": {
        "addr:city": "București",
        "addr:housenumber": "4-12",
        "addr:postcode": "030018",
        "addr:street": "Bulevardul Regina Elisabeta",
        "amenity": "university",
        "is_in:city": "București",
        "name": "Facultatea de Administrație și Afaceri",
        "name:en": "Faculty of Administration and Business",
        "name:ro": "Facultatea de Administrație și Afaceri"
      }
    },
    {
      "id": "node/8750354969",
      "osm_id": 8750354969,
      "osm_type": "node",
      "name": "Facultatea de Litere",
      "category": "education",
      "lat": 44.4357453,
      "lon": 26.1005178,
      "tags": {
        "addr:city": "București",
        "addr:housenumber": "5-7",
        "addr:postcode": "010017",
        "addr:street": "Strada Edgar Quinet",
        "amenity": "university",
        "check_date": "2024-06-14",
        "is_in:city": "București",
        "name": "Facultatea de Litere",
        "name:en": "Faculty of Letters",
        "name:ro": "Facultatea de Litere",
        "wheelchair": "limited"
      }
    },
    {
      "id": "node/8957842178",
      "osm_id": 8957842178,
      "osm_type": "node",
      "name": "Dumbolino",
      "category": "education",
      "lat": 44.380088,
      "lon": 26.0989204,
      "tags": {
        "addr:city": "București",
        "amenity": "kindergarten",
        "name": "Dumbolino"
      }
    },
    {
      "id": "node/9019683297",
      "osm_id": 9019683297,
      "osm_type": "node",
      "name": "Grădinița Eurokid București ",
      "category": "education",
      "lat": 44.3926943,
      "lon": 26.1072542,
      "tags": {
        "amenity": "kindergarten",
        "name": "Grădinița Eurokid București "
      }
    },
    {
      "id": "node/9028910918",
      "osm_id": 9028910918,
      "osm_type": "node",
      "name": "Hub AutoVortex",
      "category": "education",
      "lat": 44.4397523,
      "lon": 26.0488179,
      "tags": {
        "amenity": "school",
        "name": "Hub AutoVortex",
        "name:en": "AutoVortex",
        "name:ro": "AutoVortex",
        "website": "https://autovortex.ro/"
      }
    },
    {
      "id": "node/9258373772",
      "osm_id": 9258373772,
      "osm_type": "node",
      "name": "Scoala Primara Politehnica",
      "category": "education",
      "lat": 44.4384234,
      "lon": 26.0432623,
      "tags": {
        "amenity": "school",
        "name": "Scoala Primara Politehnica",
        "opening_hours": "Mo-Fr 08:00-17:00",
        "website": "https://gradinita.upb.ro/"
      }
    },
    {
      "id": "node/9975045318",
      "osm_id": 9975045318,
      "osm_type": "node",
      "name": "Jerusalem School of Bucharest (JSB)",
      "category": "education",
      "lat": 44.4692501,
      "lon": 26.1408171,
      "tags": {
        "addr:housenumber": "14",
        "addr:street": "Strada Fabrica de Gheață",
        "amenity": "school",
        "check_date": "2025-10-07",
        "denomination": "sunni",
        "name": "Jerusalem School of Bucharest (JSB)",
        "name:ar": "مدرسة القدس",
        "operator": "Jerusalem School Foundation",
        "religion": "muslim",
        "website": "https://jerusalemschool.ro"
      }
    },
    {
      "id": "node/10629564341",
      "osm_id": 10629564341,
      "osm_type": "node",
      "name": "Școala Gimnazială Luca",
      "category": "education",
      "lat": 44.462375,
      "lon": 26.1102766,
      "tags": {
        "amenity": "school",
        "name": "Școala Gimnazială Luca"
      }
    },
    {
      "id": "node/10683190673",
      "osm_id": 10683190673,
      "osm_type": "node",
      "name": "Magic Land",
      "category": "education",
      "lat": 44.4114794,
      "lon": 26.1971546,
      "tags": {
        "amenity": "kindergarten",
        "education": "kindergarten",
        "name": "Magic Land"
      }
    },
    {
      "id": "node/10725166491",
      "osm_id": 10725166491,
      "osm_type": "node",
      "name": "Bubbles After School",
      "category": "education",
      "lat": 44.4052073,
      "lon": 26.0062185,
      "tags": {
        "amenity": "school",
        "name": "Bubbles After School"
      }
    },
    {
      "id": "node/10929269566",
      "osm_id": 10929269566,
      "osm_type": "node",
      "name": "Școala Montessori",
      "category": "education",
      "lat": 44.4364728,
      "lon": 26.1462334,
      "tags": {
        "amenity": "school",
        "name": "Școala Montessori"
      }
    },
    {
      "id": "node/10929269567",
      "osm_id": 10929269567,
      "osm_type": "node",
      "name": "Grădinița Montessori",
      "category": "education",
      "lat": 44.4364695,
      "lon": 26.1459622,
      "tags": {
        "amenity": "kindergarten",
        "name": "Grădinița Montessori"
      }
    },
    {
      "id": "node/11051367009",
      "osm_id": 11051367009,
      "osm_type": "node",
      "name": "Şcoala Postliceală Sanitară \"Carol Davila\"",
      "category": "education",
      "lat": 44.4384311,
      "lon": 26.1319365,
      "tags": {
        "amenity": "school",
        "name": "Şcoala Postliceală Sanitară \"Carol Davila\""
      }
    },
    {
      "id": "node/11067608283",
      "osm_id": 11067608283,
      "osm_type": "node",
      "name": "Montessori Universe",
      "category": "education",
      "lat": 44.4966072,
      "lon": 26.0630243,
      "tags": {
        "amenity": "kindergarten",
        "max_age": "3",
        "min_age": "0",
        "name": "Montessori Universe"
      }
    },
    {
      "id": "node/11088499133",
      "osm_id": 11088499133,
      "osm_type": "node",
      "name": "ARKEDO International School and Kindergarten",
      "category": "education",
      "lat": 44.4864821,
      "lon": 26.0914556,
      "tags": {
        "addr:city": "București",
        "addr:housenumber": "42-44",
        "addr:street": "Strada Daniel Danielopolu",
        "amenity": "kindergarten",
        "mobile": "+40 753 275 336",
        "name": "ARKEDO International School and Kindergarten",
        "operator:type": "private",
        "website": "https://www.arkedo.ro/"
      }
    },
    {
      "id": "node/11158650471",
      "osm_id": 11158650471,
      "osm_type": "node",
      "name": "Facultatea de Drept",
      "category": "education",
      "lat": 44.4350442,
      "lon": 26.0820687,
      "tags": {
        "amenity": "university",
        "name": "Facultatea de Drept"
      }
    },
    {
      "id": "node/11158650472",
      "osm_id": 11158650472,
      "osm_type": "node",
      "name": "Facultatea de Utilaj Tehnologic pentru Construcții București",
      "category": "education",
      "lat": 44.4365163,
      "lon": 26.0819896,
      "tags": {
        "amenity": "university",
        "name": "Facultatea de Utilaj Tehnologic pentru Construcții București"
      }
    },
    {
      "id": "node/11158650473",
      "osm_id": 11158650473,
      "osm_type": "node",
      "name": "Facultatea de Științe Politice",
      "category": "education",
      "lat": 44.4367447,
      "lon": 26.0807896,
      "tags": {
        "amenity": "university",
        "name": "Facultatea de Științe Politice"
      }
    },
    {
      "id": "node/11158694532",
      "osm_id": 11158694532,
      "osm_type": "node",
      "name": "Facultatea de Electronică, Telecomunicații și Tehnologia Informației",
      "category": "education",
      "lat": 44.4338169,
      "lon": 26.057419,
      "tags": {
        "amenity": "university",
        "name": "Facultatea de Electronică, Telecomunicații și Tehnologia Informației"
      }
    },
    {
      "id": "node/11158694533",
      "osm_id": 11158694533,
      "osm_type": "node",
      "name": "Facultatea de Chimie",
      "category": "education",
      "lat": 44.4301767,
      "lon": 26.0632461,
      "tags": {
        "amenity": "university",
        "name": "Facultatea de Chimie"
      }
    },
    {
      "id": "node/11158694534",
      "osm_id": 11158694534,
      "osm_type": "node",
      "name": "Facultatea de Administrație și Afaceri",
      "category": "education",
      "lat": 44.431143,
      "lon": 26.0615901,
      "tags": {
        "amenity": "university",
        "name": "Facultatea de Administrație și Afaceri"
      }
    },
    {
      "id": "node/11158694535",
      "osm_id": 11158694535,
      "osm_type": "node",
      "name": "Facultatea de Sociologie şi Asistenţă Socială",
      "category": "education",
      "lat": 44.4317282,
      "lon": 26.0614082,
      "tags": {
        "amenity": "university",
        "name": "Facultatea de Sociologie şi Asistenţă Socială"
      }
    },
    {
      "id": "node/11158694536",
      "osm_id": 11158694536,
      "osm_type": "node",
      "name": "Facultatea de Psihologie și Științele Educației",
      "category": "education",
      "lat": 44.4314375,
      "lon": 26.0624027,
      "tags": {
        "amenity": "university",
        "name": "Facultatea de Psihologie și Științele Educației"
      }
    },
    {
      "id": "node/11160789313",
      "osm_id": 11160789313,
      "osm_type": "node",
      "name": "Facultatea de Limbi și Literaturi Străine",
      "category": "education",
      "lat": 44.4419466,
      "lon": 26.1002534,
      "tags": {
        "amenity": "university",
        "name": "Facultatea de Limbi și Literaturi Străine"
      }
    },
    {
      "id": "node/11160792230",
      "osm_id": 11160792230,
      "osm_type": "node",
      "name": "Facultatea de Biologie",
      "category": "education",
      "lat": 44.4332274,
      "lon": 26.083565,
      "tags": {
        "amenity": "university",
        "name": "Facultatea de Biologie"
      }
    },
    {
      "id": "node/11160792231",
      "osm_id": 11160792231,
      "osm_type": "node",
      "name": "Facultatea de Medicină Veterinară",
      "category": "education",
      "lat": 44.4334351,
      "lon": 26.0809188,
      "tags": {
        "amenity": "university",
        "name": "Facultatea de Medicină Veterinară"
      }
    },
    {
      "id": "node/11171833819",
      "osm_id": 11171833819,
      "osm_type": "node",
      "name": "Facultatea de Finanțe, Asigurări, Bănci și Burse de Valori",
      "category": "education",
      "lat": 44.4458705,
      "lon": 26.0882222,
      "tags": {
        "amenity": "university",
        "name": "Facultatea de Finanțe, Asigurări, Bănci și Burse de Valori",
        "operator": "Academia de Studii Economice"
      }
    },
    {
      "id": "node/11171833820",
      "osm_id": 11171833820,
      "osm_type": "node",
      "name": "Facultatea Artelor Decorative și Designului din Universitatea Artelor",
      "category": "education",
      "lat": 44.4448358,
      "lon": 26.0870107,
      "tags": {
        "amenity": "university",
        "name": "Facultatea Artelor Decorative și Designului din Universitatea Artelor"
      }
    },
    {
      "id": "node/11283023484",
      "osm_id": 11283023484,
      "osm_type": "node",
      "name": "Facultatea de Științe Aplicate",
      "category": "education",
      "lat": 44.4399677,
      "lon": 26.0506895,
      "tags": {
        "addr:unit": "BN105",
        "amenity": "university",
        "education": "university",
        "faculty": "applied_sciences",
        "internet_access": "yes",
        "internet_access:fee": "no",
        "name": "Facultatea de Științe Aplicate",
        "operator": "Universitatea Politehnica București",
        "website": "http://fsa.pub.ro"
      }
    },
    {
      "id": "node/11283023485",
      "osm_id": 11283023485,
      "osm_type": "node",
      "name": "Facultatea de Antreprenoriat, Ingineria și Managementul Afacerilor",
      "category": "education",
      "lat": 44.4391672,
      "lon": 26.0504562,
      "tags": {
        "addr:unit": "BN208",
        "amenity": "university",
        "education": "university",
        "faculty": "business_management",
        "internet_access": "yes",
        "internet_access:fee": "no",
        "name": "Facultatea de Antreprenoriat, Ingineria și Managementul Afacerilor",
        "operator": "Universitatea Politehnica București",
        "website": "https://faima.upb.ro/"
      }
    },
    {
      "id": "node/11283281165",
      "osm_id": 11283281165,
      "osm_type": "node",
      "name": "Facultatea de Ingineria și Managementul Sistemelor Tehnologice",
      "category": "education",
      "lat": 44.4409827,
      "lon": 26.0491687,
      "tags": {
        "amenity": "university",
        "education": "university",
        "faculty": "engineering",
        "internet_access": "yes",
        "internet_access:fee": "no",
        "name": "Facultatea de Ingineria și Managementul Sistemelor Tehnologice",
        "operator": "Universitatea Politehnica București"
      }
    },
    {
      "id": "node/11283281166",
      "osm_id": 11283281166,
      "osm_type": "node",
      "name": "Facultatea de Inginerie Mecanică și Mecatronică",
      "category": "education",
      "lat": 44.4407242,
      "lon": 26.0484982,
      "tags": {
        "amenity": "university",
        "education": "university",
        "faculty": "mechanical_engineering",
        "internet_access": "yes",
        "internet_access:fee": "no",
        "name": "Facultatea de Inginerie Mecanică și Mecatronică",
        "operator": "Universitatea Politehnica București"
      }
    },
    {
      "id": "node/11283453159",
      "osm_id": 11283453159,
      "osm_type": "node",
      "name": "Facultatea de Ingineria Sistemelor Biotehnice",
      "category": "education",
      "lat": 44.4398566,
      "lon": 26.0459205,
      "tags": {
        "amenity": "university",
        "education": "university",
        "faculty": "engineering",
        "internet_access": "yes",
        "internet_access:fee": "no",
        "name": "Facultatea de Ingineria Sistemelor Biotehnice",
        "operator": "Universitatea Politehnica București",
        "website": "http://www.isb.pub.ro/"
      }
    },
    {
      "id": "node/11283453162",
      "osm_id": 11283453162,
      "osm_type": "node",
      "name": "Facultatea de Automatică și Calculatoare",
      "category": "education",
      "lat": 44.4357679,
      "lon": 26.0477941,
      "tags": {
        "amenity": "university",
        "education": "university",
        "faculty": "computer_science;automatic_control",
        "internet_access": "yes",
        "internet_access:fee": "no",
        "name": "Facultatea de Automatică și Calculatoare",
        "name:en": "Faculty of Automatic Control and Computer Science",
        "name:ro": "Facultatea de Automatică și Calculatoare",
        "operator": "Universitatea Politehnica București",
        "website": "https://acs.pub.ro/"
      }
    },
    {
      "id": "node/11283507025",
      "osm_id": 11283507025,
      "osm_type": "node",
      "name": "Facultatea de Transporturi",
      "category": "education",
      "lat": 44.4395837,
      "lon": 26.0529654,
      "tags": {
        "amenity": "university",
        "education": "university",
        "faculty": "traffic_engineering",
        "internet_access": "yes",
        "internet_access:fee": "no",
        "name": "Facultatea de Transporturi",
        "name:en": "Facultatea de Transporturi",
        "name:ro": "Faculty of Transportation",
        "operator": "Universitatea Politehnica București",
        "website": "http://transport.pub.ro/"
      }
    },
    {
      "id": "node/11283507028",
      "osm_id": 11283507028,
      "osm_type": "node",
      "name": "Facultatea de Inginerie în Limbi Străine",
      "category": "education",
      "lat": 44.439128,
      "lon": 26.0527709,
      "tags": {
        "amenity": "university",
        "education": "university",
        "faculty": "engineering",
        "internet_access": "yes",
        "internet_access:fee": "no",
        "name": "Facultatea de Inginerie în Limbi Străine",
        "operator": "Universitatea Politehnica București"
      }
    },
    {
      "id": "node/11366772092",
      "osm_id": 11366772092,
      "osm_type": "node",
      "name": "Maria International School of Bucharest",
      "category": "education",
      "lat": 44.4433311,
      "lon": 26.0940358,
      "tags": {
        "amenity": "school",
        "name": "Maria International School of Bucharest",
        "website": "https://www.misb.ro/"
      }
    },
    {
      "id": "node/11726465128",
      "osm_id": 11726465128,
      "osm_type": "node",
      "name": "Peek A Boo",
      "category": "education",
      "lat": 44.4968843,
      "lon": 26.062941,
      "tags": {
        "amenity": "kindergarten",
        "name": "Peek A Boo"
      }
    },
    {
      "id": "node/11786903099",
      "osm_id": 11786903099,
      "osm_type": "node",
      "name": "Școala Atlas",
      "category": "education",
      "lat": 44.4251716,
      "lon": 26.0127364,
      "tags": {
        "addr:city": "București",
        "addr:country": "RO",
        "addr:housenumber": "60D",
        "addr:postcode": "061334",
        "addr:street": "Bulevardul Timișoara",
        "amenity": "school",
        "grades": "1-13",
        "isced:level": "2;3;4",
        "level": "1",
        "name": "Școala Atlas",
        "operator:type": "private",
        "source:addr:housenumber": "survey",
        "source:addr:street": "survey",
        "website": "https://www.scoalaatlas.ro/"
      }
    },
    {
      "id": "node/12022774551",
      "osm_id": 12022774551,
      "osm_type": "node",
      "name": "Scoala Gimnaziala Speciala Nr.4",
      "category": "education",
      "lat": 44.3801257,
      "lon": 26.1422573,
      "tags": {
        "address": "Strada Caporal Marin Grigore 42-44, București 042094",
        "amenity": "school",
        "name:ro": "Scoala Gimnaziala Speciala Nr.4"
      }
    },
    {
      "id": "node/12022774552",
      "osm_id": 12022774552,
      "osm_type": "node",
      "name": "Cresa Bemindful Kids",
      "category": "education",
      "lat": 44.3803321,
      "lon": 26.1427445,
      "tags": {
        "address": "Strada Caporal Marin Grigore 42, București 042094",
        "amenity": "kindergarten",
        "education": "kindergarten",
        "name:en": "Bemindful Kids Kindergarten",
        "name:ro": "Cresa Bemindful Kids"
      }
    },
    {
      "id": "node/12041115433",
      "osm_id": 12041115433,
      "osm_type": "node",
      "name": "Școala Gimnazială Evrika - Școala din Centru",
      "category": "education",
      "lat": 44.4341342,
      "lon": 26.1083329,
      "tags": {
        "addr:city": "București",
        "addr:housenumber": "1A",
        "addr:postcode": "023951",
        "addr:street": "Strada Negustori",
        "amenity": "school",
        "check_date:opening_hours": "2024-07-08",
        "email": "contact@scoala-evrika.ro",
        "name": "Școala Gimnazială Evrika - Școala din Centru",
        "opening_hours": "Mo-Fr 07:45-05:00; Sa off; Su off; PH off",
        "phone": "0725173926",
        "website": "https://www.scoala-evrika.ro/"
      }
    },
    {
      "id": "node/12041147905",
      "osm_id": 12041147905,
      "osm_type": "node",
      "name": "Școala Gimnazială Evrika - Școala din Vest",
      "category": "education",
      "lat": 44.4450577,
      "lon": 26.0479027,
      "tags": {
        "addr:city": "Bucharest",
        "addr:housenumber": "319",
        "addr:place": "Cladirea OB5",
        "addr:postcode": "060042",
        "addr:street": "Splaiul Independenței",
        "amenity": "school",
        "email": "contact@scoala-evrika.ro",
        "name": "Școala Gimnazială Evrika - Școala din Vest",
        "phone": "0725173926",
        "website": "https://www.scoala-evrika.ro/",
        "wheelchair": "limited"
      }
    },
    {
      "id": "node/12107874922",
      "osm_id": 12107874922,
      "osm_type": "node",
      "name": "Grădinița \"La Turn\"",
      "category": "education",
      "lat": 44.4421298,
      "lon": 26.1671626,
      "tags": {
        "amenity": "kindergarten",
        "name": "Grădinița \"La Turn\""
      }
    },
    {
      "id": "node/12121683779",
      "osm_id": 12121683779,
      "osm_type": "node",
      "name": "Facultatea de Geodezie",
      "category": "education",
      "lat": 44.4637576,
      "lon": 26.1255373,
      "tags": {
        "amenity": "university",
        "name": "Facultatea de Geodezie"
      }
    },
    {
      "id": "node/12121683780",
      "osm_id": 12121683780,
      "osm_type": "node",
      "name": "Facultatea de Construcții Civile",
      "category": "education",
      "lat": 44.4635075,
      "lon": 26.1247693,
      "tags": {
        "amenity": "university",
        "name": "Facultatea de Construcții Civile"
      }
    },
    {
      "id": "node/12121683781",
      "osm_id": 12121683781,
      "osm_type": "node",
      "name": "Facultatea de Hidrotehnică",
      "category": "education",
      "lat": 44.4630099,
      "lon": 26.1242278,
      "tags": {
        "amenity": "university",
        "name": "Facultatea de Hidrotehnică"
      }
    },
    {
      "id": "node/12121683782",
      "osm_id": 12121683782,
      "osm_type": "node",
      "name": "Rectorat Universitatea Tehnică de Construcții",
      "category": "education",
      "lat": 44.4632423,
      "lon": 26.1246171,
      "tags": {
        "amenity": "university",
        "name": "Rectorat Universitatea Tehnică de Construcții"
      }
    },
    {
      "id": "node/12278073963",
      "osm_id": 12278073963,
      "osm_type": "node",
      "name": "Deutscher Kindergarten",
      "category": "education",
      "lat": 44.4455274,
      "lon": 26.1033007,
      "tags": {
        "amenity": "kindergarten",
        "name": "Deutscher Kindergarten"
      }
    },
    {
      "id": "node/12775608142",
      "osm_id": 12775608142,
      "osm_type": "node",
      "name": "Grădinița Electromagnetica",
      "category": "education",
      "lat": 44.4153158,
      "lon": 26.0773597,
      "tags": {
        "amenity": "kindergarten",
        "name": "Grădinița Electromagnetica"
      }
    },
    {
      "id": "node/12892518776",
      "osm_id": 12892518776,
      "osm_type": "node",
      "name": "Sixth Form College",
      "category": "education",
      "lat": 44.4382846,
      "lon": 26.1315487,
      "tags": {
        "amenity": "college",
        "name": "Sixth Form College"
      }
    },
    {
      "id": "node/13184323491",
      "osm_id": 13184323491,
      "osm_type": "node",
      "name": "Școala Nr. 94 \"Ienăchiță Văcărescu\"",
      "category": "education",
      "lat": 44.421451,
      "lon": 26.1023333,
      "tags": {
        "amenity": "school",
        "name": "Școala Nr. 94 \"Ienăchiță Văcărescu\""
      }
    },
    {
      "id": "node/13264553601",
      "osm_id": 13264553601,
      "osm_type": "node",
      "name": "Gradinita 224 - Scufița Roșie",
      "category": "education",
      "lat": 44.4162712,
      "lon": 26.1009447,
      "tags": {
        "addr:housenumber": "170",
        "addr:street": "Calea Șerban Vodă",
        "amenity": "kindergarten",
        "name": "Gradinita 224 - Scufița Roșie",
        "opening_hours": "Mo-Fr 07:30-17:30",
        "phone": "0766 541 207",
        "website": "https://gradinita-scufita-rosie.ro/"
      }
    },
    {
      "id": "node/13710550428",
      "osm_id": 13710550428,
      "osm_type": "node",
      "name": "Facultatea de Matematică și Informatică",
      "category": "education",
      "lat": 44.4354833,
      "lon": 26.0997131,
      "tags": {
        "addr:city": "București",
        "addr:housenumber": "14",
        "addr:postcode": "010014",
        "addr:street": "Strada Academiei",
        "amenity": "university",
        "check_date": "2024-06-14",
        "is_in:city": "București",
        "name": "Facultatea de Matematică și Informatică",
        "name:en": "Faculty of Mathematics & Computer Science",
        "name:ro": "Facultatea de Matematică și Informatică",
        "website": "https://fmi.unibuc.ro/",
        "wheelchair": "limited"
      }
    },
    {
      "id": "node/13729548689",
      "osm_id": 13729548689,
      "osm_type": "node",
      "name": "Bufnița din Tei",
      "category": "education",
      "lat": 44.3980054,
      "lon": 26.1112191,
      "tags": {
        "amenity": "kindergarten",
        "name": "Bufnița din Tei"
      }
    },
    {
      "id": "way/23556091",
      "osm_id": 23556091,
      "osm_type": "way",
      "name": "Institutul Medico-Militar",
      "category": "education",
      "lat": 44.4452296,
      "lon": 26.0728419,
      "tags": {
        "addr:city": "București",
        "addr:housenumber": "3-5",
        "addr:street": "Strada Institutul Medico-Militar",
        "amenity": "university",
        "description:ro": "Ministerul Apărării Naționale: Direcția Medicală, Institutul Medico-Militar",
        "name": "Institutul Medico-Militar",
        "source:addr:housenumber": "survey",
        "source:addr:street": "survey"
      }
    },
    {
      "id": "way/23574717",
      "osm_id": 23574717,
      "osm_type": "way",
      "name": "Universitatea Spiru Haret",
      "category": "education",
      "lat": 44.38025,
      "lon": 26.1331855,
      "tags": {
        "amenity": "university",
        "building": "university",
        "height": "18",
        "is_in:city": "București",
        "name": "Universitatea Spiru Haret"
      }
    },
    {
      "id": "way/23581130",
      "osm_id": 23581130,
      "osm_type": "way",
      "name": "Creșa \"Ion Vlad\"",
      "category": "education",
      "lat": 44.4426877,
      "lon": 26.1829221,
      "tags": {
        "CLC:details": "This item has been retagged to make it invisible in renderings, but still available for edits.",
        "CLC:explanation": "See http://wiki.openstreetmap.org/wiki/Romania_CLC_Import.",
        "amenity": "kindergarten",
        "name": "Creșa \"Ion Vlad\"",
        "pre-CLC:landuse": "retail"
      }
    },
    {
      "id": "way/23605779",
      "osm_id": 23605779,
      "osm_type": "way",
      "name": "Școala Gimnazială Constantin Brâncuși",
      "category": "education",
      "lat": 44.4373655,
      "lon": 26.0220304,
      "tags": {
        "addr:city": "București",
        "addr:housenumber": "41",
        "addr:postcode": "061012",
        "addr:street": "Strada Roșia Montană",
        "alt_name": "Școala Generala nr.174",
        "amenity": "school",
        "name": "Școala Gimnazială Constantin Brâncuși",
        "source:addr:housenumber": "survey",
        "source:addr:street": "survey",
        "wheelchair": "yes"
      }
    },
    {
      "id": "way/23606055",
      "osm_id": 23606055,
      "osm_type": "way",
      "name": "Școala Gimnazială nr. 156",
      "category": "education",
      "lat": 44.4372331,
      "lon": 26.0287667,
      "tags": {
        "addr:city": "București",
        "addr:housenumber": "35",
        "addr:postcode": "060864",
        "addr:street": "Strada Dealul Țugulea",
        "alt_name": "Școala Generală nr. 156",
        "amenity": "school",
        "name": "Școala Gimnazială nr. 156",
        "source:addr:housenumber": "survey",
        "source:addr:street": "survey",
        "wheelchair": "yes"
      }
    },
    {
      "id": "way/23606233",
      "osm_id": 23606233,
      "osm_type": "way",
      "name": "Institutul Teologic Penticostal",
      "category": "education",
      "lat": 44.4444781,
      "lon": 26.0196338,
      "tags": {
        "addr:city": "București",
        "addr:housenumber": "210-220",
        "addr:postcode": "060946",
        "addr:street": "Bulevardul Uverturii",
        "amenity": "university",
        "name": "Institutul Teologic Penticostal"
      }
    },
    {
      "id": "way/23608402",
      "osm_id": 23608402,
      "osm_type": "way",
      "name": "Universitatea Politehnica din București",
      "category": "education",
      "lat": 44.4393472,
      "lon": 26.0489971,
      "tags": {
        "addr:city": "București",
        "addr:housenumber": "313",
        "addr:postcode": "060042",
        "addr:street": "Splaiul Independenței",
        "amenity": "university",
        "education": "university",
        "heritage": "2",
        "heritage:operator": "lmi",
        "name": "Universitatea Politehnica din București",
        "name:de": "Polytechnische Universität Bukarest",
        "name:en": "Politehnica University of Bucharest",
        "ref:RO:lmi": "B-I-s-B-17888",
        "ref:RO:ran": "179132.31",
        "website": "https://www.pub.ro/",
        "wikidata": "Q1465448",
        "wikipedia": "en:Politehnica University of Bucharest"
      }
    },
    {
      "id": "way/23608434",
      "osm_id": 23608434,
      "osm_type": "way",
      "name": "Complexul Studențesc Leu",
      "category": "education",
      "lat": 44.4332673,
      "lon": 26.0566167,
      "tags": {
        "addr:city": "București",
        "addr:housenumber": "1",
        "addr:postcode": "061071",
        "addr:street": "Bulevardul Iuliu Maniu",
        "amenity": "university",
        "check_date": "2026-03-26",
        "internet_access": "yes",
        "internet_access:fee": "yes",
        "is_in:city": "București",
        "leisure": "park",
        "name": "Complexul Studențesc Leu",
        "source:addr:housenumber": "survey",
        "source:addr:street": "survey"
      }
    },