{
  "city": "Călărași",
  "generated_at": "2026-04-23T09:35:40.080Z",
  "counts": {
    "total": 482,
    "schools": 154,
    "churches": 328
  },
  "pois": [
    {
      "id": "node/417771537",
      "osm_id": 417771537,
      "osm_type": "node",
      "name": "Liceul Agricol Sandu Aldea",
      "category": "education",
      "lat": 44.2008617,
      "lon": 27.3183373,
      "tags": {
        "amenity": "school",
        "name": "Liceul Agricol Sandu Aldea"
      }
    },
    {
      "id": "node/474982133",
      "osm_id": 474982133,
      "osm_type": "node",
      "name": "Școala Profesională Specială Sfânta Maria",
      "category": "education",
      "lat": 44.1977161,
      "lon": 27.3317722,
      "tags": {
        "amenity": "school",
        "name": "Școala Profesională Specială Sfânta Maria"
      }
    },
    {
      "id": "node/706747607",
      "osm_id": 706747607,
      "osm_type": "node",
      "name": "Colegiul Tehnic Ștefan Bănulescu Călărași",
      "category": "education",
      "lat": 44.1920879,
      "lon": 27.3622527,
      "tags": {
        "amenity": "school",
        "name": "Colegiul Tehnic Ștefan Bănulescu Călărași"
      }
    },
    {
      "id": "node/717715867",
      "osm_id": 717715867,
      "osm_type": "node",
      "name": "Școala cu classele I-VIII",
      "category": "education",
      "lat": 44.2758777,
      "lon": 27.1614318,
      "tags": {
        "amenity": "school",
        "name": "Școala cu classele I-VIII"
      }
    },
    {
      "id": "node/717715884",
      "osm_id": 717715884,
      "osm_type": "node",
      "name": "Școala cu classele I-VIII",
      "category": "education",
      "lat": 44.275361,
      "lon": 27.1606693,
      "tags": {
        "amenity": "school",
        "name": "Școala cu classele I-VIII"
      }
    },
    {
      "id": "node/892706054",
      "osm_id": 892706054,
      "osm_type": "node",
      "name": "Școala clasele I - VIII",
      "category": "education",
      "lat": 44.3407976,
      "lon": 27.0913941,
      "tags": {
        "amenity": "school",
        "name": "Școala clasele I - VIII"
      }
    },
    {
      "id": "node/892706055",
      "osm_id": 892706055,
      "osm_type": "node",
      "name": "Școala",
      "category": "education",
      "lat": 44.3472344,
      "lon": 27.0728925,
      "tags": {
        "amenity": "school",
        "name": "Școala"
      }
    },
    {
      "id": "node/904341503",
      "osm_id": 904341503,
      "osm_type": "node",
      "name": "Grădinița",
      "category": "education",
      "lat": 44.2376058,
      "lon": 26.4671117,
      "tags": {
        "amenity": "school",
        "name": "Grădinița"
      }
    },
    {
      "id": "node/953964795",
      "osm_id": 953964795,
      "osm_type": "node",
      "name": "Grădinița Nr. 2 Prichindel",
      "category": "education",
      "lat": 44.1934593,
      "lon": 27.334277,
      "tags": {
        "addr:city": "Călărași",
        "addr:housenumber": "16",
        "addr:street": "Strada 13 Decembrie",
        "amenity": "kindergarten",
        "name": "Grădinița Nr. 2 Prichindel"
      }
    },
    {
      "id": "node/954628460",
      "osm_id": 954628460,
      "osm_type": "node",
      "name": "Școala Gimnaziala Carol 1",
      "category": "education",
      "lat": 44.1925123,
      "lon": 27.3319259,
      "tags": {
        "addr:city": "Călărași",
        "addr:housenumber": "159",
        "addr:street": "Strada București",
        "amenity": "school",
        "name": "Școala Gimnaziala Carol 1"
      }
    },
    {
      "id": "node/954628568",
      "osm_id": 954628568,
      "osm_type": "node",
      "name": "Școala 4 Carol 1",
      "category": "education",
      "lat": 44.1952277,
      "lon": 27.3259189,
      "tags": {
        "amenity": "school",
        "name": "Școala 4 Carol 1"
      }
    },
    {
      "id": "node/1258004171",
      "osm_id": 1258004171,
      "osm_type": "node",
      "name": "Școala nr. 2",
      "category": "education",
      "lat": 44.1969171,
      "lon": 27.390511,
      "tags": {
        "amenity": "school",
        "name": "Școala nr. 2",
        "source": "photograph"
      }
    },
    {
      "id": "node/1852468778",
      "osm_id": 1852468778,
      "osm_type": "node",
      "name": "Școala Gimnazială",
      "category": "education",
      "lat": 44.1077583,
      "lon": 26.5687925,
      "tags": {
        "FIXME": "L BANK ATM",
        "amenity": "school",
        "name": "Școala Gimnazială"
      }
    },
    {
      "id": "node/1854456768",
      "osm_id": 1854456768,
      "osm_type": "node",
      "name": "Școala Gimnazială",
      "category": "education",
      "lat": 44.2104514,
      "lon": 26.9001018,
      "tags": {
        "addr:housenumber": "15",
        "amenity": "school",
        "name": "Școala Gimnazială",
        "shop": "food"
      }
    },
    {
      "id": "node/2359393828",
      "osm_id": 2359393828,
      "osm_type": "node",
      "name": "Școala Generală",
      "category": "education",
      "lat": 44.1235297,
      "lon": 26.7894832,
      "tags": {
        "amenity": "school",
        "name": "Școala Generală"
      }
    },
    {
      "id": "node/2627452402",
      "osm_id": 2627452402,
      "osm_type": "node",
      "name": "Liceul Nicolae Bălcescu",
      "category": "education",
      "lat": 44.077116,
      "lon": 26.6380418,
      "tags": {
        "addr:city": "Oltenița",
        "addr:housenumber": "3",
        "addr:postcode": "915400",
        "addr:street": "Șoseaua Portului",
        "amenity": "school",
        "name": "Liceul Nicolae Bălcescu"
      }
    },
    {
      "id": "node/2627476609",
      "osm_id": 2627476609,
      "osm_type": "node",
      "name": "Liceul Neagoe Basarab",
      "category": "education",
      "lat": 44.0833469,
      "lon": 26.6376504,
      "tags": {
        "addr:city": "Oltenița",
        "addr:postcode": "915400",
        "addr:street": "Strada Mihai Eminescu",
        "amenity": "school",
        "name": "Liceul Neagoe Basarab"
      }
    },
    {
      "id": "node/3985659637",
      "osm_id": 3985659637,
      "osm_type": "node",
      "name": "Școala Generală cu Clasele I-IV",
      "category": "education",
      "lat": 44.2859078,
      "lon": 26.4411218,
      "tags": {
        "amenity": "school",
        "name": "Școala Generală cu Clasele I-IV"
      }
    },
    {
      "id": "node/4343404257",
      "osm_id": 4343404257,
      "osm_type": "node",
      "name": "LEAGAN COPII",
      "category": "education",
      "lat": 44.2004312,
      "lon": 27.3216897,
      "tags": {
        "building": "school",
        "name": "LEAGAN COPII"
      }
    },
    {
      "id": "node/4437372996",
      "osm_id": 4437372996,
      "osm_type": "node",
      "name": "Școala Gimanziala Nr.2 Mitreni",
      "category": "education",
      "lat": 44.1698211,
      "lon": 26.6072839,
      "tags": {
        "amenity": "school",
        "name": "Școala Gimanziala Nr.2 Mitreni",
        "name:am": "School",
        "name:en": "School Mitreni"
      }
    },
    {
      "id": "node/4830777274",
      "osm_id": 4830777274,
      "osm_type": "node",
      "name": "Școala gimnazială Călărași Structura Bogata",
      "category": "education",
      "lat": 46.5134803,
      "lon": 23.8146345,
      "tags": {
        "amenity": "school",
        "name": "Școala gimnazială Călărași Structura Bogata"
      }
    },
    {
      "id": "node/4874120085",
      "osm_id": 4874120085,
      "osm_type": "node",
      "name": "Școala Generală Chiselet",
      "category": "education",
      "lat": 44.1677617,
      "lon": 26.8553374,
      "tags": {
        "amenity": "school",
        "name": "Școala Generală Chiselet"
      }
    },
    {
      "id": "node/4874164842",
      "osm_id": 4874164842,
      "osm_type": "node",
      "name": "Școala Generală",
      "category": "education",
      "lat": 44.1437117,
      "lon": 26.717869,
      "tags": {
        "amenity": "school",
        "name": "Școala Generală"
      }
    },
    {
      "id": "node/5338636818",
      "osm_id": 5338636818,
      "osm_type": "node",
      "name": "Școala Generală Călărași",
      "category": "education",
      "lat": 46.4842195,
      "lon": 23.8544457,
      "tags": {
        "amenity": "school",
        "name": "Școala Generală Călărași"
      }
    },
    {
      "id": "node/6129484586",
      "osm_id": 6129484586,
      "osm_type": "node",
      "name": "Liceul Barbu Știrbei",
      "category": "education",
      "lat": 44.2060419,
      "lon": 27.3110835,
      "tags": {
        "amenity": "school",
        "name": "Liceul Barbu Știrbei"
      }
    },
    {
      "id": "node/6370292481",
      "osm_id": 6370292481,
      "osm_type": "node",
      "name": "Liceul „Alexandru Odobescu” Lehliu-Gară",
      "category": "education",
      "lat": 44.4413192,
      "lon": 26.8550631,
      "tags": {
        "addr:city": "Lehliu-Gară",
        "addr:postcode": "915300",
        "addr:street": "Bulevardul Gării",
        "amenity": "school",
        "name": "Liceul „Alexandru Odobescu” Lehliu-Gară"
      }
    },
    {
      "id": "node/6370406013",
      "osm_id": 6370406013,
      "osm_type": "node",
      "name": "Școala Dor Mărunt",
      "category": "education",
      "lat": 44.437962,
      "lon": 26.9481533,
      "tags": {
        "amenity": "school",
        "name": "Școala Dor Mărunt"
      }
    },
    {
      "id": "node/6513151649",
      "osm_id": 6513151649,
      "osm_type": "node",
      "name": "Școala Generală Făurei",
      "category": "education",
      "lat": 44.29136,
      "lon": 26.8966716,
      "tags": {
        "amenity": "school",
        "name": "Școala Generală Făurei"
      }
    },
    {
      "id": "node/6720232614",
      "osm_id": 6720232614,
      "osm_type": "node",
      "name": "Grădinița cu program normal nr. 5",
      "category": "education",
      "lat": 44.341371,
      "lon": 26.3771115,
      "tags": {
        "addr:city": "Podu Pitarului",
        "amenity": "kindergarten",
        "name": "Grădinița cu program normal nr. 5"
      }
    },
    {
      "id": "node/8143968123",
      "osm_id": 8143968123,
      "osm_type": "node",
      "name": "Fără nume",
      "category": "education",
      "lat": 44.1977408,
      "lon": 27.0748018,
      "tags": {
        "amenity": "kindergarten"
      }
    },
    {
      "id": "node/8143968125",
      "osm_id": 8143968125,
      "osm_type": "node",
      "name": "Școala Ciocănești",
      "category": "education",
      "lat": 44.1975403,
      "lon": 27.0662087,
      "tags": {
        "amenity": "school",
        "name": "Școala Ciocănești"
      }
    },
    {
      "id": "node/10209488713",
      "osm_id": 10209488713,
      "osm_type": "node",
      "name": "Școala Gimnazială nr. 1 Plătărești",
      "category": "education",
      "lat": 44.352933,
      "lon": 26.3617093,
      "tags": {
        "addr:city": "Plătărești",
        "addr:housenumber": "10",
        "addr:street": "Strada Mănăstirea Plătărești",
        "amenity": "school",
        "name": "Școala Gimnazială nr. 1 Plătărești"
      }
    },
    {
      "id": "node/11137034608",
      "osm_id": 11137034608,
      "osm_type": "node",
      "name": "Grădinița cu Program Normal",
      "category": "education",
      "lat": 43.7741414,
      "lon": 24.0324667,
      "tags": {
        "addr:city": "Călărași",
        "addr:housenumber": "33",
        "addr:street": "Strada Școlii",
        "amenity": "kindergarten",
        "name": "Grădinița cu Program Normal"
      }
    },
    {
      "id": "node/11911381269",
      "osm_id": 11911381269,
      "osm_type": "node",
      "name": "Liceu nr 1 fundulea",
      "category": "education",
      "lat": 44.4492073,
      "lon": 26.5253647,
      "tags": {
        "amenity": "school",
        "name": "Liceu nr 1 fundulea"
      }
    },
    {
      "id": "node/11911398169",
      "osm_id": 11911398169,
      "osm_type": "node",
      "name": "Scoala mircea nedelcu",
      "category": "education",
      "lat": 44.470419,
      "lon": 26.5082627,
      "tags": {
        "amenity": "school",
        "name": "Scoala mircea nedelcu"
      }
    },
    {
      "id": "node/11911413769",
      "osm_id": 11911413769,
      "osm_type": "node",
      "name": "Gradinita nr1 si Crangu",
      "category": "education",
      "lat": 44.4671246,
      "lon": 26.5093551,
      "tags": {
        "amenity": "school",
        "name": "Gradinita nr1 si Crangu"
      }
    },
    {
      "id": "node/11911541072",
      "osm_id": 11911541072,
      "osm_type": "node",
      "name": "Scoala Gimn Sarulesti Gara",
      "category": "education",
      "lat": 44.4476798,
      "lon": 26.6551183,
      "tags": {
        "amenity": "school",
        "name": "Scoala Gimn Sarulesti Gara"
      }
    },
    {
      "id": "node/11911578469",
      "osm_id": 11911578469,
      "osm_type": "node",
      "name": "Gradinita Sarulesti Gara",
      "category": "education",
      "lat": 44.4423221,
      "lon": 26.6553991,
      "tags": {
        "amenity": "school",
        "name": "Gradinita Sarulesti Gara"
      }
    },
    {
      "id": "node/11911590569",
      "osm_id": 11911590569,
      "osm_type": "node",
      "name": "Gradinita Sandulita",
      "category": "education",
      "lat": 44.4177837,
      "lon": 26.6319098,
      "tags": {
        "amenity": "school",
        "name": "Gradinita Sandulita"
      }
    },
    {
      "id": "node/11911624969",
      "osm_id": 11911624969,
      "osm_type": "node",
      "name": "Scoala si Gradinita Gurbanesti",
      "category": "education",
      "lat": 44.3821317,
      "lon": 26.6906003,
      "tags": {
        "amenity": "school",
        "name": "Scoala si Gradinita Gurbanesti"
      }
    },
    {
      "id": "node/11911640069",
      "osm_id": 11911640069,
      "osm_type": "node",
      "name": "gradinita cotifanca",
      "category": "education",
      "lat": 44.3821534,
      "lon": 26.6904376,
      "tags": {
        "amenity": "school",
        "name": "gradinita cotifanca"
      }
    },
    {
      "id": "node/11911672069",
      "osm_id": 11911672069,
      "osm_type": "node",
      "name": "Scoala si gradinita Valea Argovei si silistea",
      "category": "education",
      "lat": 44.3519453,
      "lon": 26.7887977,
      "tags": {
        "amenity": "school",
        "name": "Scoala si gradinita Valea Argovei si silistea"
      }
    },
    {
      "id": "node/11911715969",
      "osm_id": 11911715969,
      "osm_type": "node",
      "name": "Scoala Luptatoru",
      "category": "education",
      "lat": 44.3023486,
      "lon": 26.8086085,
      "tags": {
        "amenity": "school",
        "name": "Scoala Luptatoru"
      }
    },
    {
      "id": "node/11911746869",
      "osm_id": 11911746869,
      "osm_type": "node",
      "name": "Gradinita frasinetu de jos",
      "category": "education",
      "lat": 44.3100897,
      "lon": 26.8226587,
      "tags": {
        "amenity": "school",
        "name": "Gradinita frasinetu de jos"
      }
    },
    {
      "id": "node/11911784269",
      "osm_id": 11911784269,
      "osm_type": "node",
      "name": "Gradinita Coconi",
      "category": "education",
      "lat": 44.2444708,
      "lon": 26.8788134,
      "tags": {
        "amenity": "school",
        "name": "Gradinita Coconi"
      }
    },
    {
      "id": "node/11911837569",
      "osm_id": 11911837569,
      "osm_type": "node",
      "name": "Scoala Varasti",
      "category": "education",
      "lat": 44.2150531,
      "lon": 26.9709451,
      "tags": {
        "amenity": "school",
        "name": "Scoala Varasti"
      }
    },
    {
      "id": "node/11911851969",
      "osm_id": 11911851969,
      "osm_type": "node",
      "name": "Gradinita nr1 Chiselet",
      "category": "education",
      "lat": 44.1685125,
      "lon": 26.857261,
      "tags": {
        "amenity": "school",
        "name": "Gradinita nr1 Chiselet"
      }
    },
    {
      "id": "node/11911876675",
      "osm_id": 11911876675,
      "osm_type": "node",
      "name": "Scoala nr1 Chiselet",
      "category": "education",
      "lat": 44.1678572,
      "lon": 26.8559578,
      "tags": {
        "amenity": "school",
        "name": "Scoala nr1 Chiselet"
      }
    },
    {
      "id": "node/11911939769",
      "osm_id": 11911939769,
      "osm_type": "node",
      "name": "Scoala Stancea",
      "category": "education",
      "lat": 44.1369573,
      "lon": 26.8086368,
      "tags": {
        "amenity": "school",
        "name": "Scoala Stancea"
      }
    },
    {
      "id": "node/12031728899",
      "osm_id": 12031728899,
      "osm_type": "node",
      "name": "Scoala nr. 5 Oltenita",
      "category": "education",
      "lat": 44.0847591,
      "lon": 26.6320848,
      "tags": {
        "amenity": "school",
        "name": "Scoala nr. 5 Oltenita"
      }
    },
    {
      "id": "node/12031728905",
      "osm_id": 12031728905,
      "osm_type": "node",
      "name": "Clubul Copiilor Oltenita",
      "category": "education",
      "lat": 44.0933945,
      "lon": 26.636839,
      "tags": {
        "amenity": "school",
        "name": "Clubul Copiilor Oltenita"
      }
    },
    {
      "id": "node/12031738674",
      "osm_id": 12031738674,
      "osm_type": "node",
      "name": "Scoala nr 2 Oltenita",
      "category": "education",
      "lat": 44.0932441,
      "lon": 26.6408566,
      "tags": {
        "amenity": "school",
        "name": "Scoala nr 2 Oltenita"
      }
    },
    {
      "id": "node/12031745901",
      "osm_id": 12031745901,
      "osm_type": "node",
      "name": "Scoala nr. 1 Oltenita",
      "category": "education",
      "lat": 44.0835752,
      "lon": 26.6391735,
      "tags": {
        "amenity": "school",
        "name": "Scoala nr. 1 Oltenita"
      }
    },
    {
      "id": "node/12031762285",
      "osm_id": 12031762285,
      "osm_type": "node",
      "name": "Scoala nr. 3 Oltenita",
      "category": "education",
      "lat": 44.1004343,
      "lon": 26.639346,
      "tags": {
        "amenity": "school",
        "name": "Scoala nr. 3 Oltenita"
      }
    },
    {
      "id": "way/42737969",
      "osm_id": 42737969,
      "osm_type": "way",
      "name": "Școala 11 - Tudor Vladimirescu",
      "category": "education",
      "lat": 44.2075948,
      "lon": 27.3141664,
      "tags": {
        "amenity": "school",
        "name": "Școala 11 - Tudor Vladimirescu"
      }
    },
    {
      "id": "way/81814800",
      "osm_id": 81814800,
      "osm_type": "way",
      "name": "Grupul Școlar Industrial De Transporturi Auto",
      "category": "education",
      "lat": 44.1996153,
      "lon": 27.336981,
      "tags": {
        "amenity": "school",
        "is_in:city": "Călărași",
        "name": "Grupul Școlar Industrial De Transporturi Auto"
      }
    },
    {
      "id": "way/81825720",
      "osm_id": 81825720,
      "osm_type": "way",
      "name": "Școala 5. Nicolae Titulescu",
      "category": "education",
      "lat": 44.2027708,
      "lon": 27.320233,
      "tags": {
        "amenity": "school",
        "is_in:city": "Călărași",
        "name": "Școala 5. Nicolae Titulescu",
        "source": "extrapolation"
      }
    },
    {
      "id": "way/81825722",
      "osm_id": 81825722,
      "osm_type": "way",
      "name": "Școala 10 Mihai Viteazul",
      "category": "education",
      "lat": 44.2018829,
      "lon": 27.3173064,
      "tags": {
        "addr:city": "Călărași",
        "addr:housenumber": "12",
        "addr:street": "Prelungirea București",
        "amenity": "school",
        "is_in:city": "Călărași",
        "name": "Școala 10 Mihai Viteazul",
        "source": "extrapolation"
      }
    },
    {
      "id": "way/81825724",
      "osm_id": 81825724,
      "osm_type": "way",
      "name": "Grădinița Țara Copilăriei",
      "category": "education",
      "lat": 44.2031569,
      "lon": 27.3195194,
      "tags": {
        "amenity": "kindergarten",
        "is_in:city": "Călărași",
        "name": "Grădinița Țara Copilăriei",
        "source": "extrapolation"
      }
    },
    {
      "id": "way/81825725",
      "osm_id": 81825725,
      "osm_type": "way",
      "name": "Grupul Școlar Dan Mateescu",
      "category": "education",
      "lat": 44.2028279,
      "lon": 27.3186588,
      "tags": {
        "addr:city": "Călărași",
        "addr:housenumber": "8-12",
        "addr:street": "Strada Belsugului",
        "amenity": "school",
        "is_in:city": "Călărași",
        "name": "Grupul Școlar Dan Mateescu",
        "source": "extrapolation"
      }
    },
    {
      "id": "way/81825726",
      "osm_id": 81825726,
      "osm_type": "way",
      "name": "Liceul Teoretic Mihai Eminescu",
      "category": "education",
      "lat": 44.2025268,
      "lon": 27.3171822,
      "tags": {
        "addr:city": "Călărași",
        "addr:housenumber": "8-12",
        "addr:street": "Prelungirea București",
        "amenity": "school",
        "is_in:city": "Călărași",
        "name": "Liceul Teoretic Mihai Eminescu",
        "source": "extrapolation"
      }
    },
    {
      "id": "way/81893784",
      "osm_id": 81893784,
      "osm_type": "way",
      "name": "Școala nr. 8 Mircea Vodă",
      "category": "education",
      "lat": 44.2088581,
      "lon": 27.3075362,
      "tags": {
        "addr:city": "Călărași",
        "addr:housenumber": "189",
        "addr:street": "Prelungirea București",
        "amenity": "school",
        "is_in:city": "Călărași",
        "name": "Școala nr. 8 Mircea Vodă",
        "website": "https://scoalamirceavoda.ro/"
      }
    },
    {
      "id": "way/103028456",
      "osm_id": 103028456,
      "osm_type": "way",
      "name": "Școala cu clasele I-VIII Roseți, Călărași, Corp E",
      "category": "education",
      "lat": 44.2094312,
      "lon": 27.4417909,
      "tags": {
        "amenity": "school",
        "building": "yes",
        "name": "Școala cu clasele I-VIII Roseți, Călărași, Corp E"
      }
    },
    {
      "id": "way/103048028",
      "osm_id": 103048028,
      "osm_type": "way",
      "name": "Elisabeta Rosetti",
      "category": "education",
      "lat": 44.2105758,
      "lon": 27.4497448,
      "tags": {
        "amenity": "kindergarten",
        "building": "yes",
        "name": "Elisabeta Rosetti"
      }
    },
    {
      "id": "way/103048029",
      "osm_id": 103048029,
      "osm_type": "way",
      "name": "Școala Generală, cls I-VIII",
      "category": "education",
      "lat": 44.2121252,
      "lon": 27.4498528,
      "tags": {
        "amenity": "school",
        "building": "yes",
        "name": "Școala Generală, cls I-VIII"
      }
    },
    {
      "id": "way/167194182",
      "osm_id": 167194182,
      "osm_type": "way",
      "name": "Sandu Aldea Agricultural College",
      "category": "education",
      "lat": 44.2012694,
      "lon": 27.3182671,
      "tags": {
        "addr:city": "Călărași",
        "addr:housenumber": "4",
        "addr:street": "Prelungirea București",
        "building": "school",
        "building:levels": "2",
        "heritage": "2",
        "heritage:operator": "lmi",
        "name": "Sandu Aldea Agricultural College",
        "ref:RO:lmi": "CL-II-m-B-14658",
        "source": "bing",
        "start_date": "1938"
      }
    },
    {
      "id": "way/194289251",
      "osm_id": 194289251,
      "osm_type": "way",
      "name": "Grup Școlar Danubius",
      "category": "education",
      "lat": 44.206693,
      "lon": 27.3190847,
      "tags": {
        "amenity": "school",
        "building": "yes",
        "name": "Grup Școlar Danubius",
        "source": "bing"
      }
    },
    {
      "id": "way/209742075",
      "osm_id": 209742075,
      "osm_type": "way",
      "name": "Fără nume",
      "category": "education",
      "lat": 46.4842502,
      "lon": 23.8546063,
      "tags": {
        "building": "school"
      }
    },
    {
      "id": "way/218861699",
      "osm_id": 218861699,
      "osm_type": "way",
      "name": "Creșa-grădiniță Nr. 3",
      "category": "education",
      "lat": 47.2504862,
      "lon": 28.3232613,
      "tags": {
        "addr:city": "Călărași",
        "amenity": "school",
        "barrier": "fence",
        "name": "Creșa-grădiniță Nr. 3"
      }
    },
    {
      "id": "way/236272830",
      "osm_id": 236272830,
      "osm_type": "way",
      "name": "Fără nume",
      "category": "education",
      "lat": 44.2516192,
      "lon": 26.6154137,
      "tags": {
        "amenity": "school",
        "building": "yes"
      }
    },
    {
      "id": "way/257146124",
      "osm_id": 257146124,
      "osm_type": "way",
      "name": "Fără nume",
      "category": "education",
      "lat": 44.0833502,
      "lon": 26.6377459,
      "tags": {
        "amenity": "college"
      }
    },
    {
      "id": "way/261742819",
      "osm_id": 261742819,
      "osm_type": "way",
      "name": "Grădină Flori",
      "category": "education",
      "lat": 44.293704,
      "lon": 26.3164744,
      "tags": {
        "amenity": "school",
        "building": "school",
        "name": "Grădină Flori"
      }
    },
    {
      "id": "way/261742848",
      "osm_id": 261742848,
      "osm_type": "way",
      "name": "Școala Gimnazială Budești",
      "category": "education",
      "lat": 44.2347312,
      "lon": 26.4622807,
      "tags": {
        "amenity": "school",
        "building": "school",
        "building:levels": "2",
        "name": "Școala Gimnazială Budești"
      }
    },
    {
      "id": "way/261742850",
      "osm_id": 261742850,
      "osm_type": "way",
      "name": "Fără nume",
      "category": "education",
      "lat": 44.2791827,
      "lon": 26.3341633,
      "tags": {
        "amenity": "school",
        "building": "school",
        "building:levels": "1"
      }
    },
    {
      "id": "way/261742853",
      "osm_id": 261742853,
      "osm_type": "way",
      "name": "Fără nume",
      "category": "education",
      "lat": 44.2318126,
      "lon": 26.5015422,
      "tags": {
        "amenity": "school",
        "building": "school"
      }
    },
    {
      "id": "way/261742854",
      "osm_id": 261742854,
      "osm_type": "way",
      "name": "Fără nume",
      "category": "education",
      "lat": 44.2311318,
      "lon": 26.4189182,
      "tags": {
        "amenity": "school",
        "building": "school",
        "building:levels": "1",
        "roof:levels": "0"
      }
    },
    {
      "id": "way/271846351",
      "osm_id": 271846351,
      "osm_type": "way",
      "name": "Helikon",
      "category": "education",
      "lat": 44.199615,
      "lon": 27.3323917,
      "tags": {
        "addr:city": "Călărași",
        "addr:housenumber": "49",
        "addr:street": "Strada Eroilor Revolutiei din 22 Decembrie 1989",
        "amenity": "kindergarten",
        "education": "kindergarten",
        "name": "Helikon"
      }
    },
    {
      "id": "way/271858076",
      "osm_id": 271858076,
      "osm_type": "way",
      "name": "Fără nume",
      "category": "education",
      "lat": 44.1997543,
      "lon": 27.3367665,
      "tags": {
        "building": "school"
      }
    },
    {
      "id": "way/271858077",
      "osm_id": 271858077,
      "osm_type": "way",
      "name": "Fără nume",
      "category": "education",
      "lat": 44.1994095,
      "lon": 27.3369425,
      "tags": {
        "building": "school"
      }
    },
    {
      "id": "way/271858078",
      "osm_id": 271858078,
      "osm_type": "way",
      "name": "Fără nume",
      "category": "education",
      "lat": 44.1997431,
      "lon": 27.3371954,
      "tags": {
        "building": "school"
      }
    },
    {
      "id": "way/283724116",
      "osm_id": 283724116,
      "osm_type": "way",
      "name": "Școala nr. 6 Pompei Samaritean",
      "category": "education",
      "lat": 44.1846622,
      "lon": 27.3505108,
      "tags": {
        "amenity": "school",
        "barrier": "fence",
        "name": "Școala nr. 6 Pompei Samaritean"
      }
    },
    {
      "id": "way/296882066",
      "osm_id": 296882066,
      "osm_type": "way",
      "name": "Fără nume",
      "category": "education",
      "lat": 44.1891405,
      "lon": 27.3365344,
      "tags": {
        "building": "school",
        "heritage": "2",
        "heritage:operator": "lmi",
        "ref:RO:lmi": "CL-II-m-B-14594",
        "start_date": "1929"
      }
    },
    {
      "id": "way/296882070",
      "osm_id": 296882070,
      "osm_type": "way",
      "name": "Colegiul Economic Călărași",
      "category": "education",
      "lat": 44.1891336,
      "lon": 27.3365992,
      "tags": {
        "addr:city": "Călărași",
        "addr:housenumber": "88",
        "addr:street": "Strada 1 Decembrie 1918",
        "amenity": "school",
        "grades": "9-12",
        "name": "Colegiul Economic Călărași"
      }
    },
    {
      "id": "way/304502463",
      "osm_id": 304502463,
      "osm_type": "way",
      "name": "Școala",
      "category": "education",
      "lat": 44.2664241,
      "lon": 26.5940673,
      "tags": {
        "amenity": "school",
        "name": "Școala"
      }
    },
    {
      "id": "way/306850770",
      "osm_id": 306850770,
      "osm_type": "way",
      "name": "Școala Gheorghe Florea",
      "category": "education",
      "lat": 44.1999634,
      "lon": 27.3379948,
      "tags": {
        "amenity": "school",
        "name": "Școala Gheorghe Florea"
      }
    },
    {
      "id": "way/307642874",
      "osm_id": 307642874,
      "osm_type": "way",
      "name": "Școala nr. 9 Constantin Brâncoveanu",
      "category": "education",
      "lat": 44.1904092,
      "lon": 27.3446799,
      "tags": {
        "addr:city": "Călărași",
        "addr:housenumber": "343",
        "addr:street": "Strada Grivița",
        "amenity": "school",
        "name": "Școala nr. 9 Constantin Brâncoveanu"
      }
    },
    {
      "id": "way/374278965",
      "osm_id": 374278965,
      "osm_type": "way",
      "name": "Fără nume",
      "category": "education",
      "lat": 47.2507041,
      "lon": 28.3170688,
      "tags": {
        "addr:city": "Călărași",
        "addr:country": "MD",
        "addr:housenumber": "15/1",
        "addr:street": "Strada 31 August 1989",
        "building": "kindergarten",
        "building:levels": "2"
      }
    },
    {
      "id": "way/374280208",
      "osm_id": 374280208,
      "osm_type": "way",
      "name": "Fără nume",
      "category": "education",
      "lat": 47.2501301,
      "lon": 28.3233571,
      "tags": {
        "addr:city": "Călărași",
        "addr:country": "MD",
        "addr:housenumber": "3/A",
        "addr:street": "Strada Bojole",
        "building": "kindergarten",
        "building:levels": "2"
      }
    },
    {
      "id": "way/397823106",
      "osm_id": 397823106,
      "osm_type": "way",
      "name": "Liceul Teoretic „Vasile Alecsandri“",
      "category": "education",
      "lat": 47.2499532,
      "lon": 28.3213615,
      "tags": {
        "addr:city": "Călărași",
        "addr:country": "MD",
        "addr:housenumber": "11",
        "addr:street": "Strada Toma Ciorbă",
        "amenity": "school",
        "barrier": "fence",
        "language:ro": "main",
        "name": "Liceul Teoretic „Vasile Alecsandri“",
        "name:ru": "Теоретический лицей им. Василе Александри",
        "name:uk": "Теоретичний ліцей ім. Василе Олександрі"
      }
    },
    {
      "id": "way/402825097",
      "osm_id": 402825097,
      "osm_type": "way",
      "name": "Internat liceul Alexandru Odobescu",
      "category": "education",
      "lat": 44.4417576,
      "lon": 26.8531119,
      "tags": {
        "building": "school",
        "name": "Internat liceul Alexandru Odobescu"
      }
    },
    {
      "id": "way/402825099",
      "osm_id": 402825099,
      "osm_type": "way",
      "name": "Grădiniță",
      "category": "education",
      "lat": 44.4406088,
      "lon": 26.8540188,
      "tags": {
        "amenity": "kindergarten",
        "name": "Grădiniță"
      }
    },
    {
      "id": "way/402825586",
      "osm_id": 402825586,
      "osm_type": "way",
      "name": "Școala generală cu clasele 1-8 Lehliu-Gară",
      "category": "education",
      "lat": 44.4411194,
      "lon": 26.8534078,
      "tags": {
        "building": "school",
        "name": "Școala generală cu clasele 1-8 Lehliu-Gară"
      }
    },
    {
      "id": "way/437876781",
      "osm_id": 437876781,
      "osm_type": "way",
      "name": "Fără nume",
      "category": "education",
      "lat": 44.2058256,
      "lon": 27.3110267,
      "tags": {
        "amenity": "school"
      }
    },
    {
      "id": "way/437882089",
      "osm_id": 437882089,
      "osm_type": "way",
      "name": "Creșa Nr.1",
      "category": "education",
      "lat": 44.2084833,
      "lon": 27.3167554,
      "tags": {
        "amenity": "kindergarten",
        "name": "Creșa Nr.1"
      }
    },
    {
      "id": "way/490937337",
      "osm_id": 490937337,
      "osm_type": "way",
      "name": "Fără nume",
      "category": "education",
      "lat": 46.5135049,
      "lon": 23.8146447,
      "tags": {
        "building": "school"
      }
    },
    {
      "id": "way/669543678",
      "osm_id": 669543678,
      "osm_type": "way",
      "name": "Creșa-grădiniță Nr. 2 „Guguță”",
      "category": "education",
      "lat": 47.250729,
      "lon": 28.3167113,
      "tags": {
        "addr:city": "Călărași",
        "addr:country": "MD",
        "addr:housenumber": "15/1",
        "addr:street": "Strada 31 August 1989",
        "amenity": "kindergarten",
        "barrier": "fence",
        "name": "Creșa-grădiniță Nr. 2 „Guguță”",
        "name:ru": "Детский сад №2 \"Гугуцэ\""
      }
    },
    {
      "id": "way/677601624",
      "osm_id": 677601624,
      "osm_type": "way",
      "name": "Fără nume",
      "category": "education",
      "lat": 47.2549155,
      "lon": 28.301909,
      "tags": {
        "addr:city": "Călărași",
        "addr:country": "MD",
        "addr:housenumber": "15",
        "addr:street": "Strada Mitropolit Varlaam",
        "building": "school",
        "building:levels": "2"
      }
    },
    {
      "id": "way/700742891",
      "osm_id": 700742891,
      "osm_type": "way",
      "name": "Școala cu clasele I-VIII",
      "category": "education",
      "lat": 44.3070944,
      "lon": 27.671624,
      "tags": {
        "building": "school",
        "name": "Școala cu clasele I-VIII"
      }
    },
    {
      "id": "way/700820624",
      "osm_id": 700820624,
      "osm_type": "way",
      "name": "Școala cu clasele I-VIII Iezeru",
      "category": "education",
      "lat": 44.2858141,
      "lon": 27.622323,
      "tags": {
        "building": "school",
        "name": "Școala cu clasele I-VIII Iezeru"
      }
    },
    {
      "id": "way/700832725",
      "osm_id": 700832725,
      "osm_type": "way",
      "name": "Școala cu clasele I-VIII",
      "category": "education",
      "lat": 44.2576811,
      "lon": 27.5951417,
      "tags": {
        "addr:city": "Unirea",
        "building": "school",
        "name": "Școala cu clasele I-VIII"
      }
    },
    {
      "id": "way/702816199",
      "osm_id": 702816199,
      "osm_type": "way",
      "name": "Liceul Teoretic „Mihail Sadoveanu“",
      "category": "education",
      "lat": 47.2507228,
      "lon": 28.3160253,
      "tags": {
        "addr:city": "Călărași",
        "addr:country": "MD",
        "addr:housenumber": "13",
        "addr:street": "Strada 31 August 1989",
        "amenity": "school",
        "language:ro": "main",
        "language:ru": "main",
        "name": "Liceul Teoretic „Mihail Sadoveanu“",
        "name:ru": "Теоретический лицей им. Михаила Садовяну",
        "name:uk": "Теоретичний ліцей ім. Михайла Садов'яну"
      }
    },
    {
      "id": "way/702982882",
      "osm_id": 702982882,
      "osm_type": "way",
      "name": "Gimnaziul „Ion Creangă“",
      "category": "education",
      "lat": 47.2549505,
      "lon": 28.3018657,
      "tags": {
        "addr:city": "Călărași",
        "addr:country": "MD",
        "addr:housenumber": "15",
        "addr:street": "Strada Mitropolit Varlaam",
        "amenity": "school",
        "barrier": "fence",
        "language:ro": "main",
        "name": "Gimnaziul „Ion Creangă“",
        "name:ru": "Гимназия им. Иона Крянгэ",
        "name:uk": "Гімназія ім. Іона Крянге"
      }
    },
    {
      "id": "way/707485257",
      "osm_id": 707485257,
      "osm_type": "way",
      "name": "Școala cu clasele I-VIII",
      "category": "education",
      "lat": 44.4368065,
      "lon": 27.4631835,
      "tags": {
        "addr:city": "Tudor Vladimirescu",
        "building": "school",
        "name": "Școala cu clasele I-VIII"
      }
    },
    {
      "id": "way/707497582",
      "osm_id": 707497582,
      "osm_type": "way",
      "name": "Școala cu clasele I-IV",
      "category": "education",
      "lat": 44.3565765,
      "lon": 27.1817525,
      "tags": {
        "building": "school",
        "name": "Școala cu clasele I-IV"
      }
    },
    {
      "id": "way/794760178",
      "osm_id": 794760178,
      "osm_type": "way",
      "name": "Fără nume",
      "category": "education",
      "lat": 47.2577659,
      "lon": 28.3190969,
      "tags": {
        "addr:city": "Călărași",
        "addr:country": "MD",
        "addr:housenumber": "42",
        "addr:street": "Strada Ștefan cel Mare și Sfânt",
        "building": "school",
        "building:levels": "4"
      }
    },
    {
      "id": "way/810795207",
      "osm_id": 810795207,
      "osm_type": "way",
      "name": "Școala primară",
      "category": "education",
      "lat": 44.3411298,
      "lon": 26.3770273,
      "tags": {
        "addr:city": "Podu Pitarului",
        "amenity": "school",
        "building": "yes",
        "name": "Școala primară"
      }
    },
    {
      "id": "way/904597056",
      "osm_id": 904597056,
      "osm_type": "way",
      "name": "Fără nume",
      "category": "education",
      "lat": 44.4668324,
      "lon": 26.5687619,
      "tags": {
        "building": "school"
      }
    },
    {
      "id": "way/904602693",
      "osm_id": 904602693,
      "osm_type": "way",
      "name": "Fără nume",
      "category": "education",
      "lat": 44.4837632,
      "lon": 26.5987425,
      "tags": {
        "building": "school"
      }
    },
    {
      "id": "way/925063414",
      "osm_id": 925063414,
      "osm_type": "way",
      "name": "Creșa-grădiniță Nr. 1",
      "category": "education",
      "lat": 47.253857,
      "lon": 28.3207313,
      "tags": {
        "addr:city": "Călărași",
        "amenity": "kindergarten",
        "barrier": "fence",
        "name": "Creșa-grădiniță Nr. 1"
      }
    },
    {
      "id": "way/967357755",
      "osm_id": 967357755,
      "osm_type": "way",
      "name": "Școala Gimnazială Dimitrie Ghica",
      "category": "education",
      "lat": 44.1924547,
      "lon": 26.5118152,
      "tags": {
        "amenity": "school",
        "name": "Școala Gimnazială Dimitrie Ghica"
      }
    },
    {
      "id": "way/1200683034",
      "osm_id": 1200683034,
      "osm_type": "way",
      "name": "Liceul Tehnologic Petre Baniță",
      "category": "education",
      "lat": 43.7981807,
      "lon": 24.0666773,
      "tags": {
        "amenity": "school",
        "name": "Liceul Tehnologic Petre Baniță"
      }
    },
    {
      "id": "way/1201163769",
      "osm_id": 1201163769,
      "osm_type": "way",
      "name": "Școala Gimnazială Călărași",
      "category": "education",
      "lat": 43.7939839,
      "lon": 24.0481161,
      "tags": {
        "addr:city": "Dăbuleni",
        "addr:housenumber": "133",
        "addr:street": "Strada Petre Baniță",
        "amenity": "school",
        "name": "Școala Gimnazială Călărași"
      }
    },
    {
      "id": "way/1201167438",
      "osm_id": 1201167438,
      "osm_type": "way",
      "name": "Școala Gimnazială Sărata",
      "category": "education",
      "lat": 43.7737051,
      "lon": 24.0316915,
      "tags": {
        "addr:city": "Călărași",
        "addr:housenumber": "31",
        "addr:street": "Strada Școlii",
        "amenity": "school",
        "name": "Școala Gimnazială Sărata"
      }
    },
    {
      "id": "way/1231934403",
      "osm_id": 1231934403,
      "osm_type": "way",
      "name": "Școala Gimnazială nr. 1",
      "category": "education",
      "lat": 44.3819475,
      "lon": 26.689912,
      "tags": {
        "building": "school",
        "name": "Școala Gimnazială nr. 1"
      }
    },
    {
      "id": "way/1242290781",
      "osm_id": 1242290781,
      "osm_type": "way",
      "name": "Școala Gimnazială nr. 2 Stancea",
      "category": "education",
      "lat": 44.1367728,
      "lon": 26.808964,
      "tags": {
        "amenity": "school",
        "name": "Școala Gimnazială nr. 2 Stancea"
      }
    },
    {
      "id": "way/1242292157",
      "osm_id": 1242292157,
      "osm_type": "way",
      "name": "Școala Gimnazială nr. 1 Modelu",
      "category": "education",
      "lat": 44.1937893,
      "lon": 27.3837576,
      "tags": {
        "amenity": "school",
        "name": "Școala Gimnazială nr. 1 Modelu"
      }
    },
    {
      "id": "way/1271794860",
      "osm_id": 1271794860,
      "osm_type": "way",
      "name": "Fără nume",
      "category": "education",
      "lat": 44.4270776,
      "lon": 27.6396319,
      "tags": {
        "amenity": "school",
        "building": "yes"
      }
    },
    {
      "id": "way/1271794862",
      "osm_id": 1271794862,
      "osm_type": "way",
      "name": "Fără nume",
      "category": "education",
      "lat": 44.4269456,
      "lon": 27.6401705,
      "tags": {
        "amenity": "school",
        "building": "yes"
      }
    },
    {
      "id": "way/1299320713",
      "osm_id": 1299320713,
      "osm_type": "way",
      "name": "Fără nume",
      "category": "education",
      "lat": 43.7739157,
      "lon": 24.0317949,
      "tags": {
        "building": "school"
      }
    },
    {
      "id": "way/1299320714",
      "osm_id": 1299320714,
      "osm_type": "way",
      "name": "Fără nume",
      "category": "education",
      "lat": 43.7737407,
      "lon": 24.0316024,
      "tags": {
        "building": "school"
      }
    },
    {
      "id": "way/1299320715",
      "osm_id": 1299320715,
      "osm_type": "way",
      "name": "Fără nume",
      "category": "education",
      "lat": 43.7734693,
      "lon": 24.0317642,
      "tags": {
        "building": "school"
      }
    },
    {
      "id": "way/1329441813",
      "osm_id": 1329441813,
      "osm_type": "way",
      "name": "Grădiniţa",
      "category": "education",
      "lat": 44.3353575,
      "lon": 26.8313035,
      "tags": {
        "building": "kindergarten",
        "name": "Grădiniţa"
      }
    },
    {
      "id": "way/1338231347",
      "osm_id": 1338231347,
      "osm_type": "way",
      "name": "Fără nume",
      "category": "education",
      "lat": 47.2539083,
      "lon": 28.3207617,
      "tags": {
        "addr:city": "Călărași",
        "building": "kindergarten",
        "building:levels": "2"
      }
    },
    {
      "id": "way/1338238079",
      "osm_id": 1338238079,
      "osm_type": "way",
      "name": "Fără nume",
      "category": "education",
      "lat": 47.2490209,
      "lon": 28.3207242,
      "tags": {
        "addr:city": "Călărași",
        "addr:country": "MD",
        "addr:housenumber": "35",
        "addr:street": "Strada Mihai Eminescu",
        "building": "school",
        "building:levels": "2"
      }
    },
    {
      "id": "way/1338238091",
      "osm_id": 1338238091,
      "osm_type": "way",
      "name": "Școala Sportivă Specializată de Rezerve Olimpice Călărași",
      "category": "education",
      "lat": 47.2479574,
      "lon": 28.3197016,
      "tags": {
        "addr:city": "Călărași",
        "addr:country": "MD",
        "addr:housenumber": "30",
        "addr:street": "Strada Pantelimon Halippa",
        "amenity": "school",
        "barrier": "fence",
        "name": "Școala Sportivă Specializată de Rezerve Olimpice Călărași"
      }
    },
    {
      "id": "way/1338238092",
      "osm_id": 1338238092,
      "osm_type": "way",
      "name": "Fără nume",
      "category": "education",
      "lat": 47.2480684,
      "lon": 28.319825,
      "tags": {
        "addr:city": "Călărași",
        "addr:country": "MD",
        "addr:housenumber": "30",
        "addr:street": "Strada Pantelimon Halippa",
        "building": "school"
      }
    },
    {
      "id": "way/1338246417",
      "osm_id": 1338246417,
      "osm_type": "way",
      "name": "Fără nume",
      "category": "education",
      "lat": 47.2513833,
      "lon": 28.3169278,
      "tags": {
        "addr:city": "Călărași",
        "addr:country": "MD",
        "addr:housenumber": "15",
        "addr:street": "Strada 31 August 1989",
        "building": "school",
        "building:levels": "3"
      }
    },
    {
      "id": "way/1338246418",
      "osm_id": 1338246418,
      "osm_type": "way",
      "name": "Fără nume",
      "category": "education",
      "lat": 47.250896,
      "lon": 28.3160573,
      "tags": {
        "addr:city": "Călărași",
        "addr:country": "MD",
        "addr:housenumber": "13",
        "addr:street": "Strada 31 August 1989",
        "building": "school",
        "building:levels": "3"
      }
    },
    {
      "id": "way/1338246423",
      "osm_id": 1338246423,
      "osm_type": "way",
      "name": "Școala Primară Călărași",
      "category": "education",
      "lat": 47.251645,
      "lon": 28.3168431,
      "tags": {
        "addr:city": "Călărași",
        "addr:country": "MD",
        "addr:housenumber": "15",
        "addr:street": "Strada 31 August 1989",
        "amenity": "school",
        "name": "Școala Primară Călărași",
        "official_name": "Institutia Publica Scoala Primara Calarasi din Orașul Calarasi, r-nul Calarasi"
      }
    },
    {
      "id": "way/1338246424",
      "osm_id": 1338246424,
      "osm_type": "way",
      "name": "Fără nume",
      "category": "education",
      "lat": 47.2520167,
      "lon": 28.3189056,
      "tags": {
        "addr:city": "Călărași",
        "addr:country": "MD",
        "addr:housenumber": "9",
        "addr:street": "Strada 1 Mai",
        "building": "school",
        "building:levels": "3"
      }
    },
    {
      "id": "way/1391889485",
      "osm_id": 1391889485,
      "osm_type": "way",
      "name": "Școală",
      "category": "education",
      "lat": 44.2582348,
      "lon": 26.8576916,
      "tags": {
        "building": "school",
        "name": "Școală"
      }
    },
    {
      "id": "way/1391889486",
      "osm_id": 1391889486,
      "osm_type": "way",
      "name": "Grădiniță",
      "category": "education",
      "lat": 44.2583274,
      "lon": 26.8562062,
      "tags": {
        "building": "kindergarten",
        "name": "Grădiniță"
      }
    },
    {
      "id": "way/1409666324",
      "osm_id": 1409666324,
      "osm_type": "way",
      "name": "Creșa-grădiniță",
      "category": "education",
      "lat": 47.2550778,
      "lon": 28.3138554,
      "tags": {
        "addr:city": "Călărași",
        "addr:street": "Strada Anton Makarenko",
        "amenity": "kindergarten",
        "barrier": "fence",
        "name": "Creșa-grădiniță"
      }
    },
    {
      "id": "way/1409666329",
      "osm_id": 1409666329,
      "osm_type": "way",
      "name": "Fără nume",
      "category": "education",
      "lat": 47.2550729,
      "lon": 28.3139267,
      "tags": {
        "building": "kindergarten"
      }
    },
    {
      "id": "way/1409666330",
      "osm_id": 1409666330,
      "osm_type": "way",
      "name": "Fără nume",
      "category": "education",
      "lat": 47.2550081,
      "lon": 28.3135075,
      "tags": {
        "building": "kindergarten"
      }
    },
    {
      "id": "way/1409696170",
      "osm_id": 1409696170,
      "osm_type": "way",
      "name": "Colegiul Pedagogic „Alexandru cel Bun” din Călărași",
      "category": "education",
      "lat": 47.2497953,
      "lon": 28.3054853,
      "tags": {
        "addr:city": "Călărași",
        "addr:country": "MD",
        "addr:housenumber": "70",
        "addr:street": "Strada Alexandru cel Bun",
        "amenity": "college",
        "name": "Colegiul Pedagogic „Alexandru cel Bun” din Călărași",
        "name:ru": "Педагогический колледж им. Александру чел Бун",
        "name:uk": "Педагогічний коледж ім. Олександру чол Бун"
      }
    },
    {
      "id": "way/1410090971",
      "osm_id": 1410090971,
      "osm_type": "way",
      "name": "Școala Profesională Călăraşi",
      "category": "education",
      "lat": 47.2573704,
      "lon": 28.3198532,
      "tags": {
        "addr:city": "Călărași",
        "addr:country": "MD",
        "addr:housenumber": "42",
        "addr:street": "Strada Ștefan cel Mare și Sfânt",
        "amenity": "college",
        "name": "Școala Profesională Călăraşi"
      }
    },
    {
      "id": "way/1410091020",
      "osm_id": 1410091020,
      "osm_type": "way",
      "name": "Școala de Arte din Călărași",
      "category": "education",
      "lat": 47.2490603,
      "lon": 28.3206985,
      "tags": {
        "addr:city": "Călărași",
        "addr:country": "MD",
        "addr:housenumber": "35",
        "addr:street": "Strada Mihai Eminescu",
        "amenity": "school",
        "name": "Școala de Arte din Călărași"
      }
    },
    {
      "id": "way/1418141083",
      "osm_id": 1418141083,
      "osm_type": "way",
      "name": "Fără nume",
      "category": "education",
      "lat": 44.1078507,
      "lon": 26.5687841,
      "tags": {
        "addr:city": "Chirnogi",
        "addr:housenumber": "12",
        "addr:street": "Strada Viilor",
        "building": "school"
      }
    },
    {
      "id": "way/1433358907",
      "osm_id": 1433358907,
      "osm_type": "way",
      "name": "Fără nume",
      "category": "education",
      "lat": 44.3830379,
      "lon": 26.3468648,
      "tags": {
        "building": "school"
      }
    },
    {
      "id": "way/1449438392",
      "osm_id": 1449438392,
      "osm_type": "way",
      "name": "Fără nume",
      "category": "education",
      "lat": 44.4339236,
      "lon": 27.3317094,
      "tags": {
        "building": "school"
      }
    },
    {
      "id": "way/1449438393",
      "osm_id": 1449438393,
      "osm_type": "way",
      "name": "Grădinița nr .1 Dragalina",
      "category": "education",
      "lat": 44.4346476,
      "lon": 27.3316822,
      "tags": {
        "addr:city": "Dragalina",
        "addr:street": "Strada General Ion Dragalina",
        "building": "kindergarten",
        "name": "Grădinița nr .1 Dragalina"
      }
    },
    {
      "id": "way/1449438394",
      "osm_id": 1449438394,
      "osm_type": "way",
      "name": "Școala Generală Dragalina",
      "category": "education",
      "lat": 44.4342421,
      "lon": 27.3318033,
      "tags": {
        "addr:city": "Dragalina",
        "amenity": "school",
        "education": "school",
        "name": "Școala Generală Dragalina"
      }
    },
    {
      "id": "way/1449438399",
      "osm_id": 1449438399,
      "osm_type": "way",
      "name": "Fără nume",
      "category": "education",
      "lat": 44.4322285,
      "lon": 27.3356316,
      "tags": {
        "building": "school"
      }
    },
    {
      "id": "way/1489671070",
      "osm_id": 1489671070,
      "osm_type": "way",
      "name": "Liceul Tehnologic Duiliu Zamfirescu",
      "category": "education",
      "lat": 44.4305028,
      "lon": 27.349803,
      "tags": {
        "addr:city": "Dragalina",
        "addr:housenumber": "6",
        "addr:street": "Strada Liceului",
        "amenity": "school",
        "education": "school",
        "name": "Liceul Tehnologic Duiliu Zamfirescu"
      }
    },
    {
      "id": "way/1489671108",
      "osm_id": 1489671108,
      "osm_type": "way",
      "name": "Școala Gimnazială Dragalina",
      "category": "education",
      "lat": 44.4322421,
      "lon": 27.3356235,
      "tags": {
        "addr:city": "Dragalina",
        "addr:housenumber": "20/23",
        "addr:street": "Strada General Ion Dragalina",
        "amenity": "school",
        "education": "school",
        "name": "Școala Gimnazială Dragalina"
      }
    },
    {
      "id": "way/1489671111",
      "osm_id": 1489671111,
      "osm_type": "way",
      "name": "Liceul Tehnologic Duiliu Zamfirescu Dragalina",
      "category": "education",
      "lat": 44.4338705,
      "lon": 27.3325051,
      "tags": {
        "addr:city": "Dragalina",
        "amenity": "school",
        "education": "school",
        "name": "Liceul Tehnologic Duiliu Zamfirescu Dragalina"
      }
    },
    {
      "id": "way/1489671112",
      "osm_id": 1489671112,
      "osm_type": "way",
      "name": "Fără nume",
      "category": "education",
      "lat": 44.4338116,
      "lon": 27.3324522,
      "tags": {
        "building": "school"
      }
    },
    {
      "id": "way/1490162999",
      "osm_id": 1490162999,
      "osm_type": "way",
      "name": "Școala Gimnazială Dragoș Marin",
      "category": "education",
      "lat": 44.4270485,
      "lon": 27.6400958,
      "tags": {
        "addr:city": "Ștefan cel Mare",
        "addr:housenumber": "30",
        "addr:postcode": "917245",
        "addr:street": "Strada Școlii",
        "amenity": "school",
        "education": "school",
        "name": "Școala Gimnazială Dragoș Marin"
      }
    },
    {
      "id": "way/1492568461",
      "osm_id": 1492568461,
      "osm_type": "way",
      "name": "Grădinița nr. 9 Voinicel",
      "category": "education",
      "lat": 44.2099216,
      "lon": 27.302804,
      "tags": {
        "addr:street": "Strada Crângului",
        "amenity": "kindergarten",
        "education": "kindergarten",
        "name": "Grădinița nr. 9 Voinicel",
        "website": "https://gradinitavoinicel.yolasite.com/"
      }
    },
    {
      "id": "way/1492568462",
      "osm_id": 1492568462,
      "osm_type": "way",
      "name": "Fără nume",
      "category": "education",
      "lat": 44.209948,
      "lon": 27.3028968,
      "tags": {
        "building": "kindergarten"
      }
    },
    {
      "id": "way/1492568464",
      "osm_id": 1492568464,
      "osm_type": "way",
      "name": "Fără nume",
      "category": "education",
      "lat": 44.2089215,
      "lon": 27.3078867,
      "tags": {
        "building": "school"
      }
    },
    {
      "id": "way/1492568465",
      "osm_id": 1492568465,
      "osm_type": "way",
      "name": "Fără nume",
      "category": "education",
      "lat": 44.2086611,
      "lon": 27.3072955,
      "tags": {
        "building": "school"
      }
    },
    {
      "id": "relation/18337999",
      "osm_id": 18337999,
      "osm_type": "relation",
      "name": "Fără nume",
      "category": "education",
      "lat": 47.2499471,
      "lon": 28.321345,
      "tags": {
        "addr:city": "Călărași",
        "addr:country": "MD",
        "addr:housenumber": "11",
        "addr:street": "Strada Toma Ciorbă",
        "building": "school",
        "type": "multipolygon"
      }
    },
    {
      "id": "node/534671065",
      "osm_id": 534671065,
      "osm_type": "node",
      "name": "Biserica Creștină Adventistă de Ziua a Șaptea",
      "category": "place_of_worship",
      "lat": 44.2056438,
      "lon": 27.3118545,
      "tags": {
        "amenity": "place_of_worship",
        "denomination": "catholic",
        "name": "Biserica Creștină Adventistă de Ziua a Șaptea",
        "religion": "christian"
      }
    },
    {
      "id": "node/534691836",
      "osm_id": 534691836,
      "osm_type": "node",
      "name": "Biserica Sfântul Gheorghe",
      "category": "place_of_worship",
      "lat": 44.1890127,
      "lon": 27.3428472,
      "tags": {
        "amenity": "place_of_worship",
        "denomination": "orthodox",
        "name": "Biserica Sfântul Gheorghe",
        "religion": "christian"
      }
    },
    {
      "id": "node/2527513774",
      "osm_id": 2527513774,
      "osm_type": "node",
      "name": "biserica",
      "category": "place_of_worship",
      "lat": 44.1818072,
      "lon": 26.6375993,
      "tags": {
        "amenity": "place_of_worship",
        "denomination": "orthodox",
        "name": "biserica",
        "religion": "christian"
      }
    },
    {
      "id": "node/2673373808",
      "osm_id": 2673373808,
      "osm_type": "node",
      "name": "Fără nume",
      "category": "place_of_worship",
      "lat": 44.2312881,
      "lon": 26.4920282,
      "tags": {
        "denomination": "romanian_orthodox",
        "historic": "wayside_shrine",
        "religion": "christian"
      }
    },
    {
      "id": "node/4830777271",
      "osm_id": 4830777271,
      "osm_type": "node",
      "name": "Református Imahaz",
      "category": "place_of_worship",
      "lat": 46.5161549,
      "lon": 23.8118339,
      "tags": {
        "amenity": "place_of_worship",
        "denomination": "reformed",
        "name": "Református Imahaz",
        "name:hu": "Református Imahaz",
        "religion": "christian"
      }
    },
    {
      "id": "node/4984736024",
      "osm_id": 4984736024,
      "osm_type": "node",
      "name": "Sala Regatului a Martorilor lui Iehova",
      "category": "place_of_worship",
      "lat": 44.172603,
      "lon": 26.8571976,
      "tags": {
        "amenity": "place_of_worship",
        "denomination": "jehovahs_witness",
        "name": "Sala Regatului a Martorilor lui Iehova",
        "name:ro": "Sala Regatului a Martorilor lui Iehova",
        "religion": "christian"
      }
    },
    {
      "id": "node/4984739221",
      "osm_id": 4984739221,
      "osm_type": "node",
      "name": "Sala Regatului a Martorilor lui Iehova",
      "category": "place_of_worship",
      "lat": 44.1927472,
      "lon": 27.3327938,
      "tags": {
        "amenity": "place_of_worship",
        "denomination": "jehovahs_witness",
        "name": "Sala Regatului a Martorilor lui Iehova",
        "name:ro": "Sala Regatului a Martorilor lui Iehova",
        "religion": "christian"
      }
    },
    {
      "id": "node/4999281721",
      "osm_id": 4999281721,
      "osm_type": "node",
      "name": "Sala Regatului a Martorilor lui Iehova",
      "category": "place_of_worship",
      "lat": 44.0810298,
      "lon": 26.6389968,
      "tags": {
        "amenity": "place_of_worship",
        "denomination": "jehovahs_witness",
        "name": "Sala Regatului a Martorilor lui Iehova",
        "name:ro": "Sala Regatului a Martorilor lui Iehova",
        "religion": "christian"
      }
    },
    {
      "id": "node/5210718021",
      "osm_id": 5210718021,
      "osm_type": "node",
      "name": "Biserica Sfânta Maria",
      "category": "place_of_worship",
      "lat": 43.7939175,
      "lon": 24.0466317,
      "tags": {
        "addr:city": "Călărași",
        "amenity": "place_of_worship",
        "denomination": "greek_orthodox",
        "name": "Biserica Sfânta Maria",
        "religion": "christian"
      }
    },
    {
      "id": "node/8198741717",
      "osm_id": 8198741717,
      "osm_type": "node",
      "name": "Biserica pe rit vechi, aparținând de Biserica Ortodoxa Ucrainiana",
      "category": "place_of_worship",
      "lat": 44.4795094,
      "lon": 26.8293213,
      "tags": {
        "amenity": "place_of_worship",
        "name": "Biserica pe rit vechi, aparținând de Biserica Ortodoxa Ucrainiana"
      }
    },
    {
      "id": "node/10209578414",
      "osm_id": 10209578414,
      "osm_type": "node",
      "name": "Fără nume",
      "category": "place_of_worship",
      "lat": 44.3574585,
      "lon": 26.3678236,
      "tags": {
        "addr:city": "Plătărești",
        "amenity": "place_of_worship",
        "denomination": "orthodox",
        "religion": "christian"
      }
    },
    {
      "id": "node/10895769438",
      "osm_id": 10895769438,
      "osm_type": "node",
      "name": "Ansamblu de cruci de piatră",
      "category": "place_of_worship",
      "lat": 44.4979833,
      "lon": 26.8396364,
      "tags": {
        "heritage": "2",
        "heritage:operator": "lmi",
        "historic": "wayside_cross",
        "material": "stone",
        "name": "Ansamblu de cruci de piatră",
        "ref:RO:lmi": "CL-IV-a-B-14752",
        "religion": "christian"
      }
    },
    {
      "id": "node/10909464450",
      "osm_id": 10909464450,
      "osm_type": "node",
      "name": "Fără nume",
      "category": "place_of_worship",
      "lat": 44.4641159,
      "lon": 26.5674151,
      "tags": {
        "historic": "wayside_cross",
        "material": "stone",
        "religion": "christian"
      }
    },
    {
      "id": "node/11430910202",
      "osm_id": 11430910202,
      "osm_type": "node",
      "name": "Fără nume",
      "category": "place_of_worship",
      "lat": 44.4687201,
      "lon": 26.8214619,
      "tags": {
        "denomination": "orthodox",
        "historic": "wayside_shrine",
        "religion": "christian"
      }
    },
    {
      "id": "node/11920795890",
      "osm_id": 11920795890,
      "osm_type": "node",
      "name": "Fără nume",
      "category": "place_of_worship",
      "lat": 44.2709831,
      "lon": 27.3497502,
      "tags": {
        "historic": "wayside_shrine",
        "religion": "christian"
      }
    },
    {
      "id": "node/11945782361",
      "osm_id": 11945782361,
      "osm_type": "node",
      "name": "Fără nume",
      "category": "place_of_worship",
      "lat": 44.2742578,
      "lon": 27.4975353,
      "tags": {
        "historic": "wayside_shrine",
        "religion": "christian"
      }
    },
    {
      "id": "way/35679656",
      "osm_id": 35679656,
      "osm_type": "way",
      "name": "Cimitirul Central",
      "category": "place_of_worship",
      "lat": 44.1973392,
      "lon": 27.3381976,
      "tags": {
        "addr:city": "Călărași",
        "amenity": "grave_yard",
        "denomination": "orthodox",
        "is_in:city": "Călărași",
        "name": "Cimitirul Central",
        "religion": "christian",
        "source": "extrapolation"
      }
    },
    {
      "id": "way/40349353",
      "osm_id": 40349353,
      "osm_type": "way",
      "name": "Cimitirul Creștin Sfântul Gheorghe",
      "category": "place_of_worship",
      "lat": 44.2003267,
      "lon": 27.3373542,
      "tags": {
        "amenity": "grave_yard",
        "denomination": "orthodox",
        "is_in:city": "Călărași",
        "name": "Cimitirul Creștin Sfântul Gheorghe",
        "religion": "christian"
      }
    },
    {
      "id": "way/40427409",
      "osm_id": 40427409,
      "osm_type": "way",
      "name": "Biserica Sf Ioan (Alexe)",
      "category": "place_of_worship",
      "lat": 44.1921445,
      "lon": 27.3375593,
      "tags": {
        "amenity": "place_of_worship",
        "building": "yes",
        "denomination": "orthodox",
        "is_in:city": "Călărași",
        "name": "Biserica Sf Ioan (Alexe)",
        "religion": "christian"
      }
    },
    {
      "id": "way/42924557",
      "osm_id": 42924557,
      "osm_type": "way",
      "name": "Cimitirul Măgureni",
      "category": "place_of_worship",
      "lat": 44.1841731,
      "lon": 27.3664638,
      "tags": {
        "amenity": "grave_yard",
        "denomination": "orthodox",
        "is_in:city": "Călărași",
        "name": "Cimitirul Măgureni",
        "religion": "christian",
        "source": "extrapolation"
      }
    },
    {
      "id": "way/42934611",
      "osm_id": 42934611,
      "osm_type": "way",
      "name": "Cimitirul „Sfântul Lazăr\"",
      "category": "place_of_worship",
      "lat": 44.2012136,
      "lon": 27.345122,
      "tags": {
        "denomination": "orthodox",
        "landuse": "cemetery",
        "name": "Cimitirul „Sfântul Lazăr\"",
        "name:ro": "\"Saint Lazarus\" Cemetery",
        "religion": "christian",
        "source": "extrapolation"
      }
    },
    {
      "id": "way/57740940",
      "osm_id": 57740940,
      "osm_type": "way",
      "name": "Cimitirul Central Călărași",
      "category": "place_of_worship",
      "lat": 47.2563819,
      "lon": 28.3189643,
      "tags": {
        "barrier": "fence",
        "denomination": "orthodox",
        "landuse": "cemetery",
        "name": "Cimitirul Central Călărași",
        "name:ru": "Центральное кладбище",
        "name:uk": "Центральний цвинтар",
        "religion": "christian"
      }
    },
    {
      "id": "way/76662877",
      "osm_id": 76662877,
      "osm_type": "way",
      "name": "Biserica „Sfântul Ilie\"",
      "category": "place_of_worship",
      "lat": 44.2515331,
      "lon": 26.6147524,
      "tags": {
        "addr:city": "Valea Stânii",
        "amenity": "place_of_worship",
        "building": "yes",
        "denomination": "romanian_orthodox",
        "name": "Biserica „Sfântul Ilie\"",
        "religion": "christian",
        "start_date": "1938"
      }
    },
    {
      "id": "way/102862682",
      "osm_id": 102862682,
      "osm_type": "way",
      "name": "Biserica „Sfântul Ioan Botezătorul\"",
      "category": "place_of_worship",
      "lat": 44.217028,
      "lon": 27.4532201,
      "tags": {
        "addr:city": "Roșeți",
        "addr:street": "Strada General Dragalina",
        "amenity": "place_of_worship",
        "building": "yes",
        "denomination": "romanian_orthodox",
        "name": "Biserica „Sfântul Ioan Botezătorul\"",
        "religion": "christian",
        "start_date": "1865"
      }
    },
    {
      "id": "way/103028475",
      "osm_id": 103028475,
      "osm_type": "way",
      "name": "Biserica „Sfântul Ioan Botezătorul\"",
      "category": "place_of_worship",
      "lat": 44.2070568,
      "lon": 27.4339337,
      "tags": {
        "addr:city": "Roseți",
        "amenity": "place_of_worship",
        "building": "yes",
        "denomination": "romanian_orthodox",
        "name": "Biserica „Sfântul Ioan Botezătorul\"",
        "religion": "christian"
      }
    },
    {
      "id": "way/103028476",
      "osm_id": 103028476,
      "osm_type": "way",
      "name": "Fără nume",
      "category": "place_of_worship",
      "lat": 44.2139826,
      "lon": 27.4624691,
      "tags": {
        "amenity": "grave_yard",
        "denomination": "orthodox",
        "note": "Extrapolation base on photo and bing.",
        "religion": "christian",
        "source": "Bing, Extrapolation, Photograph"
      }
    },
    {
      "id": "way/103048070",
      "osm_id": 103048070,
      "osm_type": "way",
      "name": "Biserica „Sfântul Nicolae\", „Adormirea Maicii Domnului\"",
      "category": "place_of_worship",
      "lat": 44.2131447,
      "lon": 27.4550466,
      "tags": {
        "addr:city": "Roșeți",
        "amenity": "place_of_worship",
        "building": "yes",
        "denomination": "romanian_orthodox",
        "name": "Biserica „Sfântul Nicolae\", „Adormirea Maicii Domnului\"",
        "religion": "christian",
        "start_date": "1885"
      }
    },
    {
      "id": "way/110022130",
      "osm_id": 110022130,
      "osm_type": "way",
      "name": "Fără nume",
      "category": "place_of_worship",
      "lat": 44.1902987,
      "lon": 27.3873229,
      "tags": {
        "denomination": "orthodox",
        "landuse": "cemetery",
        "religion": "christian",
        "source": "extrapolation, photograph"
      }
    },
    {
      "id": "way/122094389",
      "osm_id": 122094389,
      "osm_type": "way",
      "name": "Cimitir",
      "category": "place_of_worship",
      "lat": 43.7986854,
      "lon": 24.0692351,
      "tags": {
        "amenity": "grave_yard",
        "denomination": "orthodox",
        "name": "Cimitir",
        "religion": "christian"
      }
    },
    {
      "id": "way/158678045",
      "osm_id": 158678045,
      "osm_type": "way",
      "name": "Biserica „Sfântul Apostol Andrei”",
      "category": "place_of_worship",
      "lat": 44.3736499,
      "lon": 26.3539386,
      "tags": {
        "abandoned:building": "ruins",
        "addr:city": "Fundeni",
        "amenity": "place_of_worship",
        "building": "church",
        "denomination": "romanian_orthodox",
        "heritage": "2",
        "heritage:operator": "lmi",
        "historic": "church",
        "name": "Biserica „Sfântul Apostol Andrei”",
        "name:en": "Saint Andrew's church in Fundeni",
        "ref:RO:lmi": "CL-II-m-A-14688.01",
        "religion": "christian",
        "start_date": "1732",
        "wikidata": "Q42870722"
      }
    },
    {
      "id": "way/159025659",
      "osm_id": 159025659,
      "osm_type": "way",
      "name": "Biserica „Sfântul Nicolae” (ruine)",
      "category": "place_of_worship",
      "lat": 44.3636408,
      "lon": 26.3429038,
      "tags": {
        "building": "church",
        "heritage": "2",
        "heritage:operator": "lmi",
        "historic": "ruins",
        "name": "Biserica „Sfântul Nicolae” (ruine)",
        "ref:RO:lmi": "CL-II-m-B-14708",
        "ref:RO:ran": "102990.01",
        "ruins": "church",
        "start_date": "1796",
        "website": "https://turismneconventional.ro/index.php/Biserica_Sf%C3%A2ntul_Nicolae_din_Pi%C8%9Bigaia"
      }
    },
    {
      "id": "way/194261923",
      "osm_id": 194261923,
      "osm_type": "way",
      "name": "Biserica „Sfinții Împărați Constantin și Elena” - Volna",
      "category": "place_of_worship",
      "lat": 44.1944041,
      "lon": 27.3287162,
      "tags": {
        "amenity": "place_of_worship",
        "building": "yes",
        "denomination": "romanian_orthodox",
        "heritage": "2",
        "heritage:operator": "lmi",
        "name": "Biserica „Sfinții Împărați Constantin și Elena” - Volna",
        "ref:RO:lmi": "CL-II-m-B-14620",
        "religion": "christian",
        "start_date": "1856"
      }
    },
    {
      "id": "way/194289288",
      "osm_id": 194289288,
      "osm_type": "way",
      "name": "Catedrala Ortodoxă Călărași",
      "category": "place_of_worship",
      "lat": 44.2066465,
      "lon": 27.3171599,
      "tags": {
        "amenity": "place_of_worship",
        "building": "yes",
        "denomination": "orthodox",
        "name": "Catedrala Ortodoxă Călărași",
        "religion": "christian",
        "source": "bing"
      }
    },
    {
      "id": "way/194342444",
      "osm_id": 194342444,
      "osm_type": "way",
      "name": "Biserica „Sfântul Nicolae\" - Măgureni",
      "category": "place_of_worship",
      "lat": 44.1835282,
      "lon": 27.3575144,
      "tags": {
        "addr:city": "Călărași",
        "addr:housenumber": "23",
        "addr:street": "Strada Păcii",
        "amenity": "place_of_worship",
        "building": "yes",
        "denomination": "romanian_orthodox",
        "name": "Biserica „Sfântul Nicolae\" - Măgureni",
        "religion": "christian",
        "start_date": "1979"
      }
    },
    {
      "id": "way/217512232",
      "osm_id": 217512232,
      "osm_type": "way",
      "name": "Biserica „Sfântul Mercurie”",
      "category": "place_of_worship",
      "lat": 44.3516996,
      "lon": 26.3624992,
      "tags": {
        "addr:city": "Plătărești",
        "amenity": "place_of_worship",
        "building": "church",
        "denomination": "romanian_orthodox",
        "heritage": "2",
        "heritage:operator": "lmi",
        "name": "Biserica „Sfântul Mercurie”",
        "ref:RO:lmi": "CL-II-m-A-14710.01",
        "religion": "christian"
      }
    },
    {
      "id": "way/220021674",
      "osm_id": 220021674,
      "osm_type": "way",
      "name": "Biserica de lemn „Sfânta Parascheva\"",
      "category": "place_of_worship",
      "lat": 44.2095234,
      "lon": 27.3161868,
      "tags": {
        "addr:city": "Călărași",
        "addr:housenumber": "12A",
        "addr:street": "Strada Mușețelului",
        "amenity": "place_of_worship",
        "building": "yes",
        "building:material": "wood",
        "denomination": "romanian_orthodox",
        "description:ro": "Biserica a fost adusă din Sălciva, județul Hunedoara în perioada iunie-septembrie 2011.",
        "heritage": "2",
        "heritage:operator": "lmi",
        "name": "Biserica de lemn „Sfânta Parascheva\"",
        "ref:RO:lmi": "CL-II-m-A-03443",
        "religion": "christian"
      }
    },
    {
      "id": "way/226975269",
      "osm_id": 226975269,
      "osm_type": "way",
      "name": "Biserica „Înălțarea Domnului\" - Eroi",
      "category": "place_of_worship",
      "lat": 44.0936712,
      "lon": 26.6402509,
      "tags": {
        "addr:city": "Oltenița",
        "addr:street": "Bulevardul Tineretului",
        "amenity": "place_of_worship",
        "architect": "Henrieta Delavrancea-Gibory",
        "building": "yes",
        "denomination": "romanian_orthodox",
        "name": "Biserica „Înălțarea Domnului\" - Eroi",
        "religion": "christian",
        "start_date": "1939"
      }
    },
    {
      "id": "way/236272834",
      "osm_id": 236272834,
      "osm_type": "way",
      "name": "Biserica „Sfântul Nicolae\"",
      "category": "place_of_worship",
      "lat": 44.2301,
      "lon": 26.5865749,
      "tags": {
        "addr:city": "Luica",
        "amenity": "place_of_worship",
        "building": "yes",
        "denomination": "romanian_orthodox",
        "name": "Biserica „Sfântul Nicolae\"",
        "religion": "christian",
        "start_date": "1961"
      }
    },
    {
      "id": "way/236272835",
      "osm_id": 236272835,
      "osm_type": "way",
      "name": "Fără nume",
      "category": "place_of_worship",
      "lat": 44.2329145,
      "lon": 26.4164719,
      "tags": {
        "amenity": "place_of_worship",
        "building": "yes",
        "denomination": "orthodox",
        "religion": "christian"
      }
    },
    {
      "id": "way/236272838",
      "osm_id": 236272838,
      "osm_type": "way",
      "name": "Biserica „Sfântul Gheorghe\"",
      "category": "place_of_worship",
      "lat": 44.2228688,
      "lon": 26.52256,
      "tags": {
        "addr:city": "Șoldanu",
        "addr:street": "Șoseaua Olteniței",
        "amenity": "place_of_worship",
        "building": "yes",
        "denomination": "romanian_orthodox",
        "name": "Biserica „Sfântul Gheorghe\"",
        "religion": "christian",
        "start_date": "1935"
      }
    },
    {
      "id": "way/236272840",
      "osm_id": 236272840,
      "osm_type": "way",
      "name": "Biserica „Sfinții Împărați Constantin și Elena\"",
      "category": "place_of_worship",
      "lat": 44.2276025,
      "lon": 26.5067649,
      "tags": {
        "addr:city": "Negoești",
        "amenity": "place_of_worship",
        "building": "yes",
        "denomination": "romanian_orthodox",
        "heritage": "2",
        "heritage:operator": "lmi",
        "name": "Biserica „Sfinții Împărați Constantin și Elena\"",
        "ref:RO:lmi": "CL-II-m-A-14694.01",
        "ref:RO:ran": "105400.01.01",
        "religion": "christian"
      }
    },
    {
      "id": "way/245575729",
      "osm_id": 245575729,
      "osm_type": "way",
      "name": "Cimitirul Plătărești",
      "category": "place_of_worship",
      "lat": 44.3606055,
      "lon": 26.3651913,
      "tags": {
        "denomination": "romanian_orthodox",
        "landuse": "cemetery",
        "name": "Cimitirul Plătărești",
        "religion": "christian"
      }
    },
    {
      "id": "way/249319216",
      "osm_id": 249319216,
      "osm_type": "way",
      "name": "Cimtir Călărași",
      "category": "place_of_worship",
      "lat": 43.7986268,
      "lon": 24.0465824,
      "tags": {
        "denomination": "greek_orthodox",
        "landuse": "cemetery",
        "name": "Cimtir Călărași",
        "religion": "christian"
      }
    },
    {
      "id": "way/249319883",
      "osm_id": 249319883,
      "osm_type": "way",
      "name": "Fără nume",
      "category": "place_of_worship",
      "lat": 43.7986854,
      "lon": 24.0692351,
      "tags": {
        "denomination": "greek_orthodox",
        "landuse": "cemetery",
        "religion": "christian"
      }
    },
    {
      "id": "way/260953290",
      "osm_id": 260953290,
      "osm_type": "way",
      "name": "Biserica „Sfântul Ioan Botezătorul\"",
      "category": "place_of_worship",
      "lat": 44.2753904,
      "lon": 27.1614686,
      "tags": {
        "addr:city": "Independența",
        "amenity": "place_of_worship",
        "building": "church",
        "denomination": "romanian_orthodox",
        "name": "Biserica „Sfântul Ioan Botezătorul\"",
        "religion": "christian",
        "start_date": "1914"
      }
    },
    {
      "id": "way/261462333",
      "osm_id": 261462333,
      "osm_type": "way",
      "name": "Sfântul Gheorghe",
      "category": "place_of_worship",
      "lat": 44.0801022,
      "lon": 26.6355297,
      "tags": {
        "amenity": "place_of_worship",
        "building": "church",
        "denomination": "orthodox",
        "name": "Sfântul Gheorghe",
        "religion": "christian"
      }
    },
    {
      "id": "way/261742826",
      "osm_id": 261742826,
      "osm_type": "way",
      "name": "Fără nume",
      "category": "place_of_worship",
      "lat": 44.2455367,
      "lon": 26.6120109,
      "tags": {
        "denomination": "orthodox",
        "landuse": "cemetery",
        "religion": "christian"
      }
    },
    {
      "id": "way/261742827",
      "osm_id": 261742827,
      "osm_type": "way",
      "name": "Fără nume",
      "category": "place_of_worship",
      "lat": 44.2308726,
      "lon": 26.588128,
      "tags": {
        "denomination": "orthodox",
        "landuse": "cemetery",
        "religion": "christian"
      }
    },
    {
      "id": "way/271858086",
      "osm_id": 271858086,
      "osm_type": "way",
      "name": "Biserica „Sfinții Martiri Brâncoveni\"",
      "category": "place_of_worship",
      "lat": 44.1964355,
      "lon": 27.3350539,
      "tags": {
        "addr:city": "Călărași",
        "amenity": "place_of_worship",
        "building": "yes",
        "denomination": "romanian_orthodox",
        "name": "Biserica „Sfinții Martiri Brâncoveni\"",
        "religion": "christian"
      }
    },
    {
      "id": "way/271863128",
      "osm_id": 271863128,
      "osm_type": "way",
      "name": "Biserica „Sfântul Nicolae\"",
      "category": "place_of_worship",
      "lat": 44.1904344,
      "lon": 27.3355035,
      "tags": {
        "addr:city": "Călărași",
        "amenity": "place_of_worship",
        "building": "church",
        "denomination": "romanian_orthodox",
        "name": "Biserica „Sfântul Nicolae\"",
        "religion": "christian"
      }
    },
    {
      "id": "way/281399645",
      "osm_id": 281399645,
      "osm_type": "way",
      "name": "Biserica „Sfinții Împărați Constantin și Elena”",
      "category": "place_of_worship",
      "lat": 44.4773937,
      "lon": 27.4124591,
      "tags": {
        "addr:city": "Constantin Brâncoveanu",
        "addr:street": "Strada Busuiocului",
        "amenity": "place_of_worship",
        "building": "church",
        "denomination": "romanian_orthodox",
        "name": "Biserica „Sfinții Împărați Constantin și Elena”",
        "religion": "christian"
      }
    },
    {
      "id": "way/294126023",
      "osm_id": 294126023,
      "osm_type": "way",
      "name": "Biserica ortodoxă Lehliu Gară",
      "category": "place_of_worship",
      "lat": 44.4341667,
      "lon": 26.8599923,
      "tags": {
        "amenity": "place_of_worship",
        "building": "yes",
        "denomination": "orthodox",
        "name": "Biserica ortodoxă Lehliu Gară",
        "religion": "christian",
        "source": "Bing, survey"
      }
    },
    {
      "id": "way/304534032",
      "osm_id": 304534032,
      "osm_type": "way",
      "name": "Biserica „Adormirea Maicii Domnului\", „Sfântul Nicolae\"",
      "category": "place_of_worship",
      "lat": 44.2668398,
      "lon": 26.5933497,
      "tags": {
        "addr:city": "Nana",
        "addr:housenumber": "61",
        "addr:street": "Strada Sfânta Maria",
        "amenity": "place_of_worship",
        "building": "church",
        "denomination": "romanian_orthodox",
        "is_in:city": "Nana",
        "is_in:country": "România",
        "is_in:county": "Călărași",
        "name": "Biserica „Adormirea Maicii Domnului\", „Sfântul Nicolae\"",
        "religion": "christian",
        "start_date": "1936"
      }
    },
    {
      "id": "way/334317674",
      "osm_id": 334317674,
      "osm_type": "way",
      "name": "Biserica „Sfântul Gheorghe\"",
      "category": "place_of_worship",
      "lat": 44.2632346,
      "lon": 27.3770638,
      "tags": {
        "amenity": "place_of_worship",
        "building": "yes",
        "denomination": "romanian_orthodox",
        "name": "Biserica „Sfântul Gheorghe\"",
        "religion": "christian",
        "start_date": "1913"
      }
    },
    {
      "id": "way/344588303",
      "osm_id": 344588303,
      "osm_type": "way",
      "name": "Biserica „Adormirea Maicii Domnului\"",
      "category": "place_of_worship",
      "lat": 44.3583539,
      "lon": 26.4620038,
      "tags": {
        "addr:city": "Progresu",
        "addr:street": "Strada București",
        "amenity": "place_of_worship",
        "building": "yes",
        "denomination": "romanian_orthodox",
        "name": "Biserica „Adormirea Maicii Domnului\"",
        "religion": "christian",
        "start_date": "1891"
      }
    },
    {
      "id": "way/357477399",
      "osm_id": 357477399,
      "osm_type": "way",
      "name": "Fără nume",
      "category": "place_of_worship",
      "lat": 44.3880135,
      "lon": 26.9200653,
      "tags": {
        "denomination": "orthodox",
        "landuse": "cemetery",
        "religion": "christian"
      }
    },
    {
      "id": "way/369896598",
      "osm_id": 369896598,
      "osm_type": "way",
      "name": "Biserica „Adormirea Maicii Domnului”",
      "category": "place_of_worship",
      "lat": 44.1686324,
      "lon": 26.8576892,
      "tags": {
        "addr:city": "Chiselet",
        "amenity": "place_of_worship",
        "building": "yes",
        "denomination": "romanian_orthodox",
        "heritage": "2",
        "heritage:operator": "lmi",
        "is_in:country": "România",
        "name": "Biserica „Adormirea Maicii Domnului”",
        "note": "Hram: Adormirea Maicii Domnului",
        "ref:RO:lmi": "CL-II-m-B-14677",
        "religion": "christian",
        "source": "http://www.cesavezi.ro",
        "start_date": "1860"
      }
    },
    {
      "id": "way/369896599",
      "osm_id": 369896599,
      "osm_type": "way",
      "name": "Biserica „Adormirea Maicii Domnului”",
      "category": "place_of_worship",
      "lat": 44.2643299,
      "lon": 26.4971183,
      "tags": {
        "addr:city": "Aprozi",
        "amenity": "place_of_worship",
        "building": "church",
        "denomination": "romanian_orthodox",
        "heritage": "2",
        "heritage:operator": "lmi",
        "is_in:country": "România",
        "is_in:county": "Călărași",
        "name": "Biserica „Adormirea Maicii Domnului”",
        "note": "Hram: Adormirea Maicii Domnului (15 august)",
        "ref:RO:lmi": "CL-II-m-B-14669",
        "religion": "christian",
        "start_date": "1841"
      }
    },
    {
      "id": "way/374279102",
      "osm_id": 374279102,
      "osm_type": "way",
      "name": "Biserică",
      "category": "place_of_worship",
      "lat": 47.251768,
      "lon": 28.3329258,
      "tags": {
        "addr:city": "Călărași",
        "addr:country": "MD",
        "addr:housenumber": "1/A",
        "addr:street": "Stradela 1 Grigore Ureche",
        "amenity": "place_of_worship",
        "building": "yes",
        "name": "Biserică",
        "religion": "christian"
      }
    },
    {
      "id": "way/385172176",
      "osm_id": 385172176,
      "osm_type": "way",
      "name": "Fără nume",
      "category": "place_of_worship",
      "lat": 44.3044345,
      "lon": 26.3972219,
      "tags": {
        "landuse": "cemetery",
        "religion": "christian"
      }
    },
    {
      "id": "way/435571604",
      "osm_id": 435571604,
      "osm_type": "way",
      "name": "Biserica Ortodoxă",
      "category": "place_of_worship",
      "lat": 44.2067285,
      "lon": 27.3066295,
      "tags": {
        "amenity": "place_of_worship",
        "building": "yes",
        "name": "Biserica Ortodoxă"
      }
    },
    {
      "id": "way/435595929",
      "osm_id": 435595929,
      "osm_type": "way",
      "name": "Biserica „Nașterea Sfântului Ioan Botezătorul\"",
      "category": "place_of_worship",
      "lat": 44.2069877,
      "lon": 27.3134777,
      "tags": {
        "addr:city": "Călărași",
        "addr:housenumber": "1",
        "addr:street": "Strada Zefirului",
        "amenity": "place_of_worship",
        "building": "church",
        "denomination": "romanian_orthodox",
        "name": "Biserica „Nașterea Sfântului Ioan Botezătorul\"",
        "religion": "christian"
      }
    },
    {
      "id": "way/436459022",
      "osm_id": 436459022,
      "osm_type": "way",
      "name": "Biserica Sfinții Apostoli Petru și Pavel",
      "category": "place_of_worship",
      "lat": 44.1991245,
      "lon": 27.3161524,
      "tags": {
        "amenity": "place_of_worship",
        "building": "church",
        "denomination": "orthodox",
        "name": "Biserica Sfinții Apostoli Petru și Pavel",
        "religion": "christian"
      }
    },
    {
      "id": "way/479893687",
      "osm_id": 479893687,
      "osm_type": "way",
      "name": "Biserica Ortodoxă",
      "category": "place_of_worship",
      "lat": 46.4835483,
      "lon": 23.8526127,
      "tags": {
        "amenity": "place_of_worship",
        "building": "church",
        "denomination": "orthodox",
        "name": "Biserica Ortodoxă",
        "religion": "christian"
      }
    },
    {
      "id": "way/483774044",
      "osm_id": 483774044,
      "osm_type": "way",
      "name": "Biserica „Sfântul Dimitrie\", „Sfântul Nestor\"",
      "category": "place_of_worship",
      "lat": 44.2113732,
      "lon": 26.9035004,
      "tags": {
        "addr:city": "Mânăstirea",
        "addr:street": "Strada Matei Basarab",
        "amenity": "place_of_worship",
        "building": "yes",
        "denomination": "romanian_orthodox",
        "heritage": "2",
        "heritage:operator": "lmi",
        "name": "Biserica „Sfântul Dimitrie\", „Sfântul Nestor\"",
        "ref:RO:lmi": "CL-II-m-A-14691",
        "religion": "christian",
        "start_date": "1660"
      }
    },
    {
      "id": "way/490937335",
      "osm_id": 490937335,
      "osm_type": "way",
      "name": "Biserica Sf. Arh. Mihail și Gavriil",
      "category": "place_of_worship",
      "lat": 46.5142263,
      "lon": 23.8139404,
      "tags": {
        "amenity": "place_of_worship",
        "building": "church",
        "denomination": "orthodox",
        "name": "Biserica Sf. Arh. Mihail și Gavriil",
        "religion": "christian"
      }
    },
    {
      "id": "way/495681436",
      "osm_id": 495681436,
      "osm_type": "way",
      "name": "Biserica „Sfântul Dimitrie Izvorâtorul de Mir\" - Surlari",
      "category": "place_of_worship",
      "lat": 44.1579,
      "lon": 26.8415629,
      "tags": {
        "addr:city": "Chiselet",
        "amenity": "place_of_worship",
        "building": "yes",
        "denomination": "romanian_orthodox",
        "name": "Biserica „Sfântul Dimitrie Izvorâtorul de Mir\" - Surlari",
        "religion": "christian",
        "start_date": "1939"
      }
    },
    {
      "id": "way/527751799",
      "osm_id": 527751799,
      "osm_type": "way",
      "name": "Biserica „Sfânta Treime\"",
      "category": "place_of_worship",
      "lat": 44.2679974,
      "lon": 27.4985606,
      "tags": {
        "addr:city": "Dichiseni",
        "amenity": "place_of_worship",
        "building": "yes",
        "denomination": "romanian_orthodox",
        "name": "Biserica „Sfânta Treime\"",
        "religion": "christian",
        "start_date": "1942"
      }
    },
    {
      "id": "way/529004187",
      "osm_id": 529004187,
      "osm_type": "way",
      "name": "Biserica „Sfântul Nicolae”",
      "category": "place_of_worship",
      "lat": 44.2999936,
      "lon": 26.827129,
      "tags": {
        "amenity": "place_of_worship",
        "building": "church",
        "denomination": "romanian_orthodox",
        "heritage": "2",
        "heritage:operator": "lmi",
        "name": "Biserica „Sfântul Nicolae”",
        "ref:RO:lmi": "CL-II-m-B-14722",
        "religion": "christian",
        "start_date": "1830"
      }
    },
    {
      "id": "way/529005446",
      "osm_id": 529005446,
      "osm_type": "way",
      "name": "Biserica „Izvorul Tãmãduirii\"",
      "category": "place_of_worship",
      "lat": 44.220476,
      "lon": 27.4860027,
      "tags": {
        "addr:city": "Dichiseni",
        "amenity": "place_of_worship",
        "building": "church",
        "denomination": "romanian_orthodox",
        "name": "Biserica „Izvorul Tãmãduirii\"",
        "religion": "christian"
      }
    },
    {
      "id": "way/645751427",
      "osm_id": 645751427,
      "osm_type": "way",
      "name": "Biserica „Sfântul Ioan Botezătorul\"",
      "category": "place_of_worship",
      "lat": 44.4765638,
      "lon": 26.8142357,
      "tags": {
        "addr:city": "Lehliu",
        "amenity": "place_of_worship",
        "building": "yes",
        "denomination": "romanian_orthodox",
        "image": "https://photos.app.goo.gl/RiasDGT1rKjHZJCG8",
        "mapillary": "814062876161380",
        "name": "Biserica „Sfântul Ioan Botezătorul\"",
        "religion": "christian",
        "start_date": "1893"
      }
    },
    {
      "id": "way/696090388",
      "osm_id": 696090388,
      "osm_type": "way",
      "name": "Mânăstirea Plătărești",
      "category": "place_of_worship",
      "lat": 44.3519087,
      "lon": 26.3623405,
      "tags": {
        "addr:city": "Plătărești",
        "addr:country": "RO",
        "addr:housenumber": "1",
        "addr:postcode": "917200",
        "addr:street": "Strada Matei Basarab",
        "amenity": "monastery",
        "denomination": "romanian_orthodox",
        "heritage": "2",
        "heritage:operator": "lmi",
        "landuse": "religious",
        "name": "Mânăstirea Plătărești",
        "ref:RO:lmi": "CL-II-a-A-14710",
        "religion": "christian",
        "start_date": "1642",
        "website": "https://www.crestinortodox.ro/biserici-manastiri/manastirea-plataresti-88231.html",
        "wikidata": "Q18545473",
        "wikipedia": "ro:Mănăstirea Plătărești"
      }
    },
    {
      "id": "way/700742890",
      "osm_id": 700742890,
      "osm_type": "way",
      "name": "Biserica „Sfântul Nicolae\"",
      "category": "place_of_worship",
      "lat": 44.3073231,
      "lon": 27.6721575,
      "tags": {
        "amenity": "place_of_worship",
        "building": "yes",
        "denomination": "romanian_orthodox",
        "name": "Biserica „Sfântul Nicolae\"",
        "religion": "christian",
        "start_date": "1896"
      }
    },
    {
      "id": "way/700812866",
      "osm_id": 700812866,
      "osm_type": "way",
      "name": "Biserica „Sfântul Nicolae\"",
      "category": "place_of_worship",
      "lat": 44.2889395,
      "lon": 27.6306305,
      "tags": {
        "addr:city": "Jegălia",
        "amenity": "place_of_worship",
        "building": "yes",
        "denomination": "romanian_orthodox",
        "name": "Biserica „Sfântul Nicolae\"",
        "religion": "christian",
        "start_date": "1938"
      }
    },
    {
      "id": "way/700820609",
      "osm_id": 700820609,
      "osm_type": "way",
      "name": "Biserica „Sfântul Nicolae\"",
      "category": "place_of_worship",
      "lat": 44.285591,
      "lon": 27.6240815,
      "tags": {
        "addr:city": "Iezeru",
        "addr:postcode": "917147",
        "addr:street": "Strada Parcului",
        "amenity": "place_of_worship",
        "building": "yes",
        "denomination": "romanian_orthodox",
        "name": "Biserica „Sfântul Nicolae\"",
        "religion": "christian",
        "start_date": "1947"
      }
    },
    {
      "id": "way/700832720",
      "osm_id": 700832720,
      "osm_type": "way",
      "name": "Biserica „Sfântul Nicolae\"",
      "category": "place_of_worship",
      "lat": 44.257886,
      "lon": 27.5957377,
      "tags": {
        "addr:city": "Unirea",
        "amenity": "place_of_worship",
        "building": "yes",
        "denomination": "romanian_orthodox",
        "name": "Biserica „Sfântul Nicolae\"",
        "religion": "christian",
        "start_date": "1887"
      }
    },
    {
      "id": "way/700832724",
      "osm_id": 700832724,
      "osm_type": "way",
      "name": "Fără nume",
      "category": "place_of_worship",
      "lat": 44.2581087,
      "lon": 27.5954648,
      "tags": {
        "addr:city": "Unirea",
        "amenity": "grave_yard",
        "religion": "christian"
      }
    },
    {
      "id": "way/701188848",
      "osm_id": 701188848,
      "osm_type": "way",
      "name": "Biserica „Adormirea Maicii Domnului\"",
      "category": "place_of_worship",
      "lat": 44.1421889,
      "lon": 26.6027614,
      "tags": {
        "addr:city": "Clătești",
        "amenity": "place_of_worship",
        "building": "yes",
        "denomination": "romanian_orthodox",
        "name": "Biserica „Adormirea Maicii Domnului\"",
        "religion": "christian"
      }
    },
    {
      "id": "way/707479479",
      "osm_id": 707479479,
      "osm_type": "way",
      "name": "Biserica „Sfinții Arhangheli Mihail și Gavriil\"",
      "category": "place_of_worship",
      "lat": 44.4220448,
      "lon": 27.3790446,
      "tags": {
        "addr:city": "Drajna Nouă",
        "amenity": "place_of_worship",
        "building": "yes",
        "denomination": "romanian_orthodox",
        "name": "Biserica „Sfinții Arhangheli Mihail și Gavriil\"",
        "religion": "christian",
        "start_date": "1977"
      }
    },
    {
      "id": "way/707485251",
      "osm_id": 707485251,
      "osm_type": "way",
      "name": "Biserica „Sfinții Împărați Constantin și Elena\"",
      "category": "place_of_worship",
      "lat": 44.4370507,
      "lon": 27.4639659,
      "tags": {
        "addr:city": "Tudor Vladimirescu",
        "amenity": "place_of_worship",
        "building": "yes",
        "denomination": "romanian_orthodox",
        "name": "Biserica „Sfinții Împărați Constantin și Elena\"",
        "religion": "christian",
        "year_of_construction": "1923"
      }
    },
    {
      "id": "way/707497578",
      "osm_id": 707497578,
      "osm_type": "way",
      "name": "Biserica „Sfinții Împărați Constantin și Elena\"",
      "category": "place_of_worship",
      "lat": 44.3572149,
      "lon": 27.1813107,
      "tags": {
        "addr:city": "Floroaica",
        "addr:street": "Strada Erou Constantin Mușat",
        "amenity": "place_of_worship",
        "building": "yes",
        "denomination": "romanian_orthodox",
        "name": "Biserica „Sfinții Împărați Constantin și Elena\"",
        "religion": "christian"
      }
    },
    {
      "id": "way/708743610",
      "osm_id": 708743610,
      "osm_type": "way",
      "name": "Cimitir",
      "category": "place_of_worship",
      "lat": 44.4877793,
      "lon": 26.4356344,
      "tags": {
        "denomination": "greek_orthodox",
        "landuse": "cemetery",
        "name": "Cimitir",
        "religion": "christian"
      }
    },
    {
      "id": "way/901201444",
      "osm_id": 901201444,
      "osm_type": "way",
      "name": "Biserica oricova",
      "category": "place_of_worship",
      "lat": 47.2927862,
      "lon": 28.2445948,
      "tags": {
        "addr:city": "Oricova",
        "addr:country": "MD",
        "addr:street": "Strada Tamara Ciobanu",
        "amenity": "place_of_worship",
        "building": "yes",
        "denomination": "orthodox",
        "name": "Biserica oricova",
        "religion": "christian"
      }
    },
    {
      "id": "way/904586078",
      "osm_id": 904586078,
      "osm_type": "way",
      "name": "Biserica „Sfântul Ilie\"",
      "category": "place_of_worship",
      "lat": 44.4421315,
      "lon": 26.6614262,
      "tags": {
        "addr:city": "Sărulești-Gară",
        "amenity": "place_of_worship",
        "building": "yes",
        "denomination": "romanian_orthodox",
        "name": "Biserica „Sfântul Ilie\"",
        "religion": "christian",
        "start_date": "1987"
      }
    },
    {
      "id": "way/904597125",
      "osm_id": 904597125,
      "osm_type": "way",
      "name": "Biserica „Sfânta Paraschiva”",
      "category": "place_of_worship",
      "lat": 44.4643007,
      "lon": 26.5676289,
      "tags": {
        "addr:city": "Tămădău Mare",
        "amenity": "place_of_worship",
        "building": "yes",
        "building:year_built": "1843",
        "denomination": "romanian_orthodox",
        "name": "Biserica „Sfânta Paraschiva”",
        "religion": "christian"
      }
    },
    {
      "id": "way/904602695",
      "osm_id": 904602695,
      "osm_type": "way",
      "name": "Biserica „Sfânta Parascheva\"",
      "category": "place_of_worship",
      "lat": 44.4834706,
      "lon": 26.5999977,
      "tags": {
        "amenity": "place_of_worship",
        "building": "yes",
        "denomination": "romanian_orthodox",
        "name": "Biserica „Sfânta Parascheva\"",
        "religion": "christian"
      }
    },
    {
      "id": "way/917109879",
      "osm_id": 917109879,
      "osm_type": "way",
      "name": "Biserica „Adormirea Maicii Domnului\"",
      "category": "place_of_worship",
      "lat": 44.3923934,
      "lon": 26.3511166,
      "tags": {
        "building": "church",
        "historic": "ruins",
        "name": "Biserica „Adormirea Maicii Domnului\"",
        "ruins": "church",
        "start_date": "1735",
        "website": "https://turismneconventional.ro/index.php/Biserica_din_Fundeni_-_Frunz%C4%83ne%C8%99ti"
      }
    },
    {
      "id": "way/939375751",
      "osm_id": 939375751,
      "osm_type": "way",
      "name": "Fără nume",
      "category": "place_of_worship",
      "lat": 44.4371115,
      "lon": 27.320489,
      "tags": {
        "landuse": "cemetery",
        "religion": "christian"
      }
    },
    {
      "id": "way/1010088995",
      "osm_id": 1010088995,
      "osm_type": "way",
      "name": "Biserica Reformată",
      "category": "place_of_worship",
      "lat": 46.4838821,
      "lon": 23.8556765,
      "tags": {
        "amenity": "place_of_worship",
        "building": "church",
        "denomination": "reformed",
        "name": "Biserica Reformată",
        "religion": "christian"
      }
    },
    {
      "id": "way/1010089308",
      "osm_id": 1010089308,
      "osm_type": "way",
      "name": "Biserica Catolică",
      "category": "place_of_worship",
      "lat": 46.4828647,
      "lon": 23.851321,
      "tags": {
        "amenity": "place_of_worship",
        "building": "church",
        "denomination": "roman_catholic",
        "name": "Biserica Catolică",
        "name:hu": "Szentháromság templom",
        "religion": "christian",
        "url:miserend": "https://miserend.hu/templom/3429"
      }
    },