[
  {
    "id": "node-503665154",
    "name": "Biserica Podgoria",
    "type": "church",
    "subcategory": "christian",
    "lat": 47.0595695,
    "lng": 22.0026115,
    "osmType": "node",
    "brand": null,
    "operator": null
  },
  {
    "id": "node-506504802",
    "name": "Biserica Mănăstirii Premonstratense Maica Îndurerată",
    "type": "church",
    "subcategory": "christian",
    "lat": 47.0600859,
    "lng": 21.9315468,
    "osmType": "node",
    "brand": null,
    "operator": null
  },
  {
    "id": "node-516102303",
    "name": "Școala Sportivă",
    "type": "school",
    "subcategory": "school",
    "lat": 47.050467,
    "lng": 21.9199967,
    "osmType": "node",
    "brand": null,
    "operator": null
  },
  {
    "id": "node-703825870",
    "name": "Universitatea Creștină Partium - Clădirea Sulyok",
    "type": "school",
    "subcategory": "university",
    "lat": 47.0570222,
    "lng": 21.922709,
    "osmType": "node",
    "brand": null,
    "operator": null
  },
  {
    "id": "node-703829100",
    "name": "Biserica Sfânta Ana (Mănăstirea Ursulinelor)",
    "type": "church",
    "subcategory": "christian",
    "lat": 47.0577192,
    "lng": 21.9323101,
    "osmType": "node",
    "brand": null,
    "operator": null
  },
  {
    "id": "node-1316063317",
    "name": "Mănăstirea Buna Vestire",
    "type": "church",
    "subcategory": "christian",
    "lat": 47.1033301,
    "lng": 21.8876023,
    "osmType": "node",
    "brand": null,
    "operator": null
  },
  {
    "id": "node-1737744565",
    "name": "Biserica Sf. Arhangheli Mihai și Gavril",
    "type": "church",
    "subcategory": "christian",
    "lat": 47.1033231,
    "lng": 21.8832676,
    "osmType": "node",
    "brand": null,
    "operator": null
  },
  {
    "id": "node-1999225317",
    "name": "Fără nume",
    "type": "church",
    "subcategory": "christian",
    "lat": 47.1145298,
    "lng": 21.9571351,
    "osmType": "node",
    "brand": null,
    "operator": null
  },
  {
    "id": "node-2000492192",
    "name": "Biserica Baptistă",
    "type": "church",
    "subcategory": "christian",
    "lat": 47.0854481,
    "lng": 21.9276267,
    "osmType": "node",
    "brand": null,
    "operator": null
  },
  {
    "id": "node-2000492353",
    "name": "Biserica Ortodoxă",
    "type": "church",
    "subcategory": "christian",
    "lat": 47.086175,
    "lng": 21.9250032,
    "osmType": "node",
    "brand": null,
    "operator": null
  },
  {
    "id": "node-2001715472",
    "name": "Biserica Catolică Episcopia Bihor",
    "type": "church",
    "subcategory": "christian",
    "lat": 47.1034188,
    "lng": 21.9003973,
    "osmType": "node",
    "brand": null,
    "operator": null
  },
  {
    "id": "node-2005216124",
    "name": "Fără nume",
    "type": "church",
    "subcategory": "christian",
    "lat": 47.090572,
    "lng": 21.9790099,
    "osmType": "node",
    "brand": null,
    "operator": null
  },
  {
    "id": "node-2011414125",
    "name": "Biserica Sf Trei Ierarhi",
    "type": "church",
    "subcategory": "christian",
    "lat": 47.0744392,
    "lng": 21.9128272,
    "osmType": "node",
    "brand": null,
    "operator": null
  },
  {
    "id": "node-2011414374",
    "name": "Adormirea Maicii Domnului",
    "type": "church",
    "subcategory": "christian",
    "lat": 47.0728056,
    "lng": 21.9221787,
    "osmType": "node",
    "brand": null,
    "operator": null
  },
  {
    "id": "node-2015477558",
    "name": "Biserica Sfinții Apostoli Petru și Pavel",
    "type": "church",
    "subcategory": "christian",
    "lat": 47.0530011,
    "lng": 21.9006057,
    "osmType": "node",
    "brand": null,
    "operator": null
  },
  {
    "id": "node-2019583040",
    "name": "Fără nume",
    "type": "church",
    "subcategory": "christian",
    "lat": 47.0127714,
    "lng": 22.0204921,
    "osmType": "node",
    "brand": null,
    "operator": null
  },
  {
    "id": "node-2026937841",
    "name": "Biserica Nouă",
    "type": "church",
    "subcategory": "christian",
    "lat": 47.0449927,
    "lng": 22.0303014,
    "osmType": "node",
    "brand": null,
    "operator": null
  },
  {
    "id": "node-2026937985",
    "name": "Biserica Veche",
    "type": "church",
    "subcategory": "christian",
    "lat": 47.0451609,
    "lng": 22.0298883,
    "osmType": "node",
    "brand": null,
    "operator": null
  },
  {
    "id": "node-2026937996",
    "name": "Biserica Reformată",
    "type": "church",
    "subcategory": "christian",
    "lat": 47.0441933,
    "lng": 22.0285743,
    "osmType": "node",
    "brand": null,
    "operator": null
  },
  {
    "id": "node-2034618952",
    "name": "Grădinița 20",
    "type": "school",
    "subcategory": "kindergarten",
    "lat": 47.0759866,
    "lng": 21.9105832,
    "osmType": "node",
    "brand": null,
    "operator": null
  },
  {
    "id": "node-2034618953",
    "name": "Liceul Lucian Blaga",
    "type": "school",
    "subcategory": "school",
    "lat": 47.0759939,
    "lng": 21.9119511,
    "osmType": "node",
    "brand": null,
    "operator": null
  },
  {
    "id": "node-3501759561",
    "name": "Biserică reformată",
    "type": "church",
    "subcategory": "christian",
    "lat": 47.0723182,
    "lng": 21.9330475,
    "osmType": "node",
    "brand": null,
    "operator": null
  },
  {
    "id": "node-4347914531",
    "name": "Biserica Greco-Catolică Sfinții Arhangheli",
    "type": "church",
    "subcategory": "christian",
    "lat": 47.0693104,
    "lng": 21.8526957,
    "osmType": "node",
    "brand": null,
    "operator": null
  },
  {
    "id": "node-4540081520",
    "name": "Gradinita cu program prelungit Nr. 35",
    "type": "school",
    "subcategory": "kindergarten",
    "lat": 47.076659,
    "lng": 21.9188031,
    "osmType": "node",
    "brand": null,
    "operator": null
  },
  {
    "id": "node-4564154290",
    "name": "Cabinet stomatologic",
    "type": "medical",
    "subcategory": "doctors",
    "lat": 47.0333909,
    "lng": 21.9459427,
    "osmType": "node",
    "brand": null,
    "operator": null
  },
  {
    "id": "node-4938688434",
    "name": "Universitatea Creștină Partium - Clădirea Partium",
    "type": "school",
    "subcategory": "school",
    "lat": 47.0577828,
    "lng": 21.9223764,
    "osmType": "node",
    "brand": null,
    "operator": "Partiumi Keresztény Egyetem"
  },
  {
    "id": "node-5052961321",
    "name": "Școala cu clasele I - VIII \"Szacsvay Imre\"",
    "type": "school",
    "subcategory": "school",
    "lat": 47.0622358,
    "lng": 21.9313387,
    "osmType": "node",
    "brand": null,
    "operator": null
  },
  {
    "id": "node-7981182385",
    "name": "Biserica de lemn",
    "type": "church",
    "subcategory": "christian",
    "lat": 47.0433001,
    "lng": 21.9195374,
    "osmType": "node",
    "brand": null,
    "operator": null
  },
  {
    "id": "node-7981215885",
    "name": "Fără nume",
    "type": "church",
    "subcategory": "place_of_worship",
    "lat": 47.0473425,
    "lng": 21.9233733,
    "osmType": "node",
    "brand": null,
    "operator": null
  },
  {
    "id": "node-8516264332",
    "name": "Biserica Mizericordienilor",
    "type": "church",
    "subcategory": "christian",
    "lat": 47.0602358,
    "lng": 21.9378721,
    "osmType": "node",
    "brand": null,
    "operator": null
  },
  {
    "id": "node-8628401578",
    "name": "Superbet",
    "type": "superbet",
    "subcategory": "betting",
    "lat": 47.0747144,
    "lng": 21.9016823,
    "osmType": "node",
    "brand": null,
    "operator": "Superbet Betting & Gaming SA"
  },
  {
    "id": "node-8628417614",
    "name": "Superbet",
    "type": "superbet",
    "subcategory": "betting",
    "lat": 47.06984,
    "lng": 21.934639,
    "osmType": "node",
    "brand": null,
    "operator": "Superbet Betting & Gaming SA"
  },
  {
    "id": "node-8628417822",
    "name": "Superbet",
    "type": "superbet",
    "subcategory": "betting",
    "lat": 47.032969,
    "lng": 21.949385,
    "osmType": "node",
    "brand": "Superbet",
    "operator": "Superbet Betting & Gaming SA"
  },
  {
    "id": "node-8628417855",
    "name": "Superbet",
    "type": "superbet",
    "subcategory": "betting",
    "lat": 47.0568901,
    "lng": 21.917738,
    "osmType": "node",
    "brand": "Superbet",
    "operator": "Superbet Betting & Gaming SA"
  },
  {
    "id": "node-8628417880",
    "name": "Superbet",
    "type": "superbet",
    "subcategory": "betting",
    "lat": 47.056565,
    "lng": 21.867943,
    "osmType": "node",
    "brand": null,
    "operator": "Superbet Betting & Gaming SA"
  },
  {
    "id": "node-8628417971",
    "name": "Superbet",
    "type": "superbet",
    "subcategory": "betting",
    "lat": 47.0367563,
    "lng": 21.9435396,
    "osmType": "node",
    "brand": "Superbet",
    "operator": "Superbet Betting & Gaming SA"
  },
  {
    "id": "node-8628418039",
    "name": "Superbet",
    "type": "superbet",
    "subcategory": "betting",
    "lat": 47.072739,
    "lng": 21.9172324,
    "osmType": "node",
    "brand": "Superbet",
    "operator": "Superbet Betting & Gaming SA"
  },
  {
    "id": "node-8628418056",
    "name": "Superbet",
    "type": "superbet",
    "subcategory": "betting",
    "lat": 47.0648547,
    "lng": 21.9103673,
    "osmType": "node",
    "brand": "Superbet",
    "operator": "Superbet Betting & Gaming SA"
  },
  {
    "id": "node-8628418091",
    "name": "Superbet",
    "type": "superbet",
    "subcategory": "betting",
    "lat": 47.0484618,
    "lng": 21.940282,
    "osmType": "node",
    "brand": "Superbet",
    "operator": "Superbet Betting & Gaming SA"
  },
  {
    "id": "node-8628418156",
    "name": "Superbet",
    "type": "superbet",
    "subcategory": "betting",
    "lat": 47.053425,
    "lng": 21.92825,
    "osmType": "node",
    "brand": "Superbet",
    "operator": "Superbet Betting & Gaming SA"
  },
  {
    "id": "node-8628418204",
    "name": "Superbet",
    "type": "superbet",
    "subcategory": "betting",
    "lat": 47.0501042,
    "lng": 21.9054,
    "osmType": "node",
    "brand": "Superbet",
    "operator": "Superbet Betting & Gaming SA"
  },
  {
    "id": "node-8628418358",
    "name": "Superbet",
    "type": "superbet",
    "subcategory": "betting",
    "lat": 47.0794928,
    "lng": 21.9188833,
    "osmType": "node",
    "brand": null,
    "operator": "Superbet Betting & Gaming SA"
  },
  {
    "id": "node-8628418393",
    "name": "Superbet",
    "type": "superbet",
    "subcategory": "betting",
    "lat": 47.0323893,
    "lng": 21.9495249,
    "osmType": "node",
    "brand": "Superbet",
    "operator": "Superbet Betting & Gaming SA"
  },
  {
    "id": "node-8628418400",
    "name": "Superbet",
    "type": "superbet",
    "subcategory": "betting",
    "lat": 47.069022,
    "lng": 21.9240627,
    "osmType": "node",
    "brand": null,
    "operator": "Superbet Betting & Gaming SA"
  },
  {
    "id": "node-9943134195",
    "name": "Lavinia Davidescu",
    "type": "medical",
    "subcategory": "clinic",
    "lat": 47.0563209,
    "lng": 21.9404042,
    "osmType": "node",
    "brand": null,
    "operator": null
  },
  {
    "id": "node-9943173919",
    "name": "Fără nume",
    "type": "medical",
    "subcategory": "doctors",
    "lat": 47.0583577,
    "lng": 21.9403182,
    "osmType": "node",
    "brand": null,
    "operator": null
  },
  {
    "id": "node-9943204798",
    "name": "Fără nume",
    "type": "medical",
    "subcategory": "doctors",
    "lat": 47.0570079,
    "lng": 21.9334962,
    "osmType": "node",
    "brand": null,
    "operator": null
  },
  {
    "id": "node-9945497409",
    "name": "Fără nume",
    "type": "medical",
    "subcategory": "doctors",
    "lat": 47.0547876,
    "lng": 21.9362826,
    "osmType": "node",
    "brand": null,
    "operator": null
  },
  {
    "id": "node-10167110667",
    "name": "Biserica lui Isus Hristos a Sfintilor din Zilele din Urma",
    "type": "church",
    "subcategory": "christian",
    "lat": 47.0552584,
    "lng": 21.9244512,
    "osmType": "node",
    "brand": null,
    "operator": null
  },
  {
    "id": "node-11254642058",
    "name": "Affidea",
    "type": "medical",
    "subcategory": "clinic",
    "lat": 47.0598868,
    "lng": 21.9385546,
    "osmType": "node",
    "brand": null,
    "operator": null
  },
  {
    "id": "node-11510831327",
    "name": "Fără nume",
    "type": "church",
    "subcategory": "christian",
    "lat": 47.1172854,
    "lng": 21.9942575,
    "osmType": "node",
    "brand": null,
    "operator": null
  },
  {
    "id": "node-11527411483",
    "name": "MedLife",
    "type": "medical",
    "subcategory": "clinic",
    "lat": 47.0502079,
    "lng": 21.9377932,
    "osmType": "node",
    "brand": null,
    "operator": null
  },
  {
    "id": "node-11843037982",
    "name": "Dr Iova",
    "type": "medical",
    "subcategory": "doctors",
    "lat": 47.0399526,
    "lng": 21.927591,
    "osmType": "node",
    "brand": null,
    "operator": null
  },
  {
    "id": "node-13476045110",
    "name": "Biserica Baptistă Maghiară Betlehem",
    "type": "church",
    "subcategory": "christian",
    "lat": 47.0458976,
    "lng": 21.93947,
    "osmType": "node",
    "brand": null,
    "operator": null
  },
  {
    "id": "node-13595604601",
    "name": "CMI DR. HIDI BERNADETT",
    "type": "medical",
    "subcategory": "doctors",
    "lat": 47.0598944,
    "lng": 21.9407255,
    "osmType": "node",
    "brand": null,
    "operator": null
  },
  {
    "id": "node-13798934207",
    "name": "Raze",
    "type": "medical",
    "subcategory": "clinic",
    "lat": 47.06187,
    "lng": 21.9191906,
    "osmType": "node",
    "brand": null,
    "operator": null
  },
  {
    "id": "way-41293449",
    "name": "Școala Octavian Goga",
    "type": "school",
    "subcategory": "school",
    "lat": 47.0657397,
    "lng": 21.9057217,
    "osmType": "way",
    "brand": null,
    "operator": null
  },
  {
    "id": "way-41293455",
    "name": "Liceul Tehnologic \"Constantin Brâncuși\"",
    "type": "school",
    "subcategory": "school",
    "lat": 47.0672006,
    "lng": 21.9018921,
    "osmType": "way",
    "brand": null,
    "operator": null
  },
  {
    "id": "way-41309511",
    "name": "Fără nume",
    "type": "school",
    "subcategory": "school",
    "lat": 47.0492894,
    "lng": 21.9331958,
    "osmType": "way",
    "brand": null,
    "operator": null
  },
  {
    "id": "way-41416611",
    "name": "Colegiul Național Mihai Eminescu",
    "type": "school",
    "subcategory": "college",
    "lat": 47.0605659,
    "lng": 21.930562,
    "osmType": "way",
    "brand": null,
    "operator": null
  },
  {
    "id": "way-190653989",
    "name": "Biserica catolică",
    "type": "church",
    "subcategory": "christian",
    "lat": 47.0516034,
    "lng": 21.9433941,
    "osmType": "way",
    "brand": null,
    "operator": null
  },
  {
    "id": "way-199191245",
    "name": "Spitalul Clinic Municipal Dr. Gavril Curteanu",
    "type": "medical",
    "subcategory": "hospital",
    "lat": 47.0749167,
    "lng": 21.917108,
    "osmType": "way",
    "brand": null,
    "operator": null
  },
  {
    "id": "way-199193080",
    "name": "Grădinița 45 cu program prelungit",
    "type": "school",
    "subcategory": "kindergarten",
    "lat": 47.0721563,
    "lng": 21.9151561,
    "osmType": "way",
    "brand": null,
    "operator": null
  },
  {
    "id": "way-199194115",
    "name": "Spitalul Clinic de Neurologie și Psihiatrie",
    "type": "medical",
    "subcategory": "hospital",
    "lat": 47.0638051,
    "lng": 21.9450195,
    "osmType": "way",
    "brand": null,
    "operator": null
  },
  {
    "id": "way-261607829",
    "name": "Biserica Betania",
    "type": "church",
    "subcategory": "christian",
    "lat": 47.0669165,
    "lng": 21.9251692,
    "osmType": "way",
    "brand": null,
    "operator": null
  },
  {
    "id": "way-262027659",
    "name": "Școala gimnazială „Lucreția Suciu”",
    "type": "school",
    "subcategory": "school",
    "lat": 47.0501773,
    "lng": 21.9472812,
    "osmType": "way",
    "brand": null,
    "operator": null
  },
  {
    "id": "way-262767448",
    "name": "Liceul Don Orione",
    "type": "school",
    "subcategory": "school",
    "lat": 47.0671287,
    "lng": 21.9061645,
    "osmType": "way",
    "brand": null,
    "operator": null
  },
  {
    "id": "way-262768555",
    "name": "Biserica Sfântul Duh Mângâietor",
    "type": "church",
    "subcategory": "christian",
    "lat": 47.0661082,
    "lng": 21.9095492,
    "osmType": "way",
    "brand": null,
    "operator": null
  },
  {
    "id": "way-262788659",
    "name": "Liceul Teologic Baptist Emanuel",
    "type": "school",
    "subcategory": "school",
    "lat": 47.0565524,
    "lng": 21.9159579,
    "osmType": "way",
    "brand": null,
    "operator": null
  },
  {
    "id": "way-262832955",
    "name": "Bazilica Romano-Catolică",
    "type": "church",
    "subcategory": "christian",
    "lat": 47.0690105,
    "lng": 21.9318817,
    "osmType": "way",
    "brand": null,
    "operator": null
  },
  {
    "id": "way-264909502",
    "name": "Liceul Don Orione",
    "type": "school",
    "subcategory": "school",
    "lat": 47.0672303,
    "lng": 21.906822,
    "osmType": "way",
    "brand": null,
    "operator": null
  },
  {
    "id": "way-264910458",
    "name": "Gradinita nr. 50",
    "type": "school",
    "subcategory": "childcare",
    "lat": 47.0654244,
    "lng": 21.9094525,
    "osmType": "way",
    "brand": null,
    "operator": null
  },
  {
    "id": "way-264917565",
    "name": "Biserica Sfântul Ladislau",
    "type": "church",
    "subcategory": "christian",
    "lat": 47.0555433,
    "lng": 21.9287875,
    "osmType": "way",
    "brand": null,
    "operator": null
  },
  {
    "id": "way-272752548",
    "name": "Fără nume",
    "type": "school",
    "subcategory": "kindergarten",
    "lat": 47.0576408,
    "lng": 21.9166981,
    "osmType": "way",
    "brand": null,
    "operator": null
  },
  {
    "id": "way-286239555",
    "name": "Biserica Concepție imaculată",
    "type": "church",
    "subcategory": "christian",
    "lat": 47.049639,
    "lng": 21.9505968,
    "osmType": "way",
    "brand": null,
    "operator": null
  },
  {
    "id": "way-286239556",
    "name": "Biserica Sfinții Arhangheli Mihail și Gavril",
    "type": "church",
    "subcategory": "christian",
    "lat": 47.0484868,
    "lng": 21.9526908,
    "osmType": "way",
    "brand": null,
    "operator": null
  },
  {
    "id": "way-286239557",
    "name": "Sinagoga ortodoxă",
    "type": "church",
    "subcategory": "jewish",
    "lat": 47.0522346,
    "lng": 21.9325418,
    "osmType": "way",
    "brand": null,
    "operator": null
  },
  {
    "id": "way-286245385",
    "name": "Catedrala greco-catolică Sfântul Nicolae",
    "type": "church",
    "subcategory": "christian",
    "lat": 47.0541255,
    "lng": 21.9275188,
    "osmType": "way",
    "brand": null,
    "operator": null
  },
  {
    "id": "way-286245387",
    "name": "Biserica reformată Orașul Nou",
    "type": "church",
    "subcategory": "christian",
    "lat": 47.0565841,
    "lng": 21.9234937,
    "osmType": "way",
    "brand": null,
    "operator": null
  },
  {
    "id": "way-286245390",
    "name": "Catedrala Episcopală Oradea",
    "type": "church",
    "subcategory": "christian",
    "lat": 47.052216,
    "lng": 21.939582,
    "osmType": "way",
    "brand": null,
    "operator": null
  },
  {
    "id": "way-286245391",
    "name": "Biserica \"Coborârea Sfântului Duh\"",
    "type": "church",
    "subcategory": "christian",
    "lat": 47.0608918,
    "lng": 21.9371937,
    "osmType": "way",
    "brand": null,
    "operator": null
  },
  {
    "id": "way-291005315",
    "name": "Sala Regatului a Martorilor lui Iehova",
    "type": "church",
    "subcategory": "christian",
    "lat": 47.0711015,
    "lng": 21.9271676,
    "osmType": "way",
    "brand": null,
    "operator": null
  },
  {
    "id": "way-312206820",
    "name": "Biserica Seminatului",
    "type": "church",
    "subcategory": "christian",
    "lat": 47.0565822,
    "lng": 21.939481,
    "osmType": "way",
    "brand": null,
    "operator": null
  },
  {
    "id": "way-380143518",
    "name": "Nepomuki Szent János-templom",
    "type": "church",
    "subcategory": "christian",
    "lat": 47.1177553,
    "lng": 21.9963757,
    "osmType": "way",
    "brand": null,
    "operator": null
  },
  {
    "id": "way-385361492",
    "name": "Biserica ecumenica",
    "type": "church",
    "subcategory": "christian",
    "lat": 47.0607546,
    "lng": 22.0050091,
    "osmType": "way",
    "brand": null,
    "operator": null
  },
  {
    "id": "way-420844002",
    "name": "Biserica Sfântul Apostol Andrei",
    "type": "church",
    "subcategory": "christian",
    "lat": 47.0690495,
    "lng": 21.9188684,
    "osmType": "way",
    "brand": null,
    "operator": null
  },
  {
    "id": "way-420902626",
    "name": "Iasmed",
    "type": "medical",
    "subcategory": "clinic",
    "lat": 47.0654083,
    "lng": 21.9541795,
    "osmType": "way",
    "brand": null,
    "operator": null
  },
  {
    "id": "way-421060544",
    "name": "Spitalul Clinic Judetean",
    "type": "medical",
    "subcategory": "hospital",
    "lat": 47.0640899,
    "lng": 21.9539593,
    "osmType": "way",
    "brand": null,
    "operator": null
  },
  {
    "id": "way-421282171",
    "name": "Biserica Sfântul Vasile cel Mare",
    "type": "church",
    "subcategory": "christian",
    "lat": 47.0289784,
    "lng": 21.9533021,
    "osmType": "way",
    "brand": null,
    "operator": null
  },
  {
    "id": "way-421285030",
    "name": "Biserica Providența",
    "type": "church",
    "subcategory": "christian",
    "lat": 47.0296479,
    "lng": 21.9471099,
    "osmType": "way",
    "brand": null,
    "operator": null
  },
  {
    "id": "way-421286567",
    "name": "Universitatea Emanuel",
    "type": "school",
    "subcategory": "university",
    "lat": 47.0270143,
    "lng": 21.9555837,
    "osmType": "way",
    "brand": null,
    "operator": null
  },
  {
    "id": "way-421766749",
    "name": "Biserica Nufărului",
    "type": "church",
    "subcategory": "christian",
    "lat": 47.0331649,
    "lng": 21.9491404,
    "osmType": "way",
    "brand": null,
    "operator": null
  },
  {
    "id": "way-421767355",
    "name": "Biserica Reformată Seleuș",
    "type": "church",
    "subcategory": "christian",
    "lat": 47.0338486,
    "lng": 21.951081,
    "osmType": "way",
    "brand": null,
    "operator": null
  },
  {
    "id": "way-421779708",
    "name": "Biserica Catolică Sfânta Treime",
    "type": "church",
    "subcategory": "christian",
    "lat": 47.0351157,
    "lng": 21.9572766,
    "osmType": "way",
    "brand": null,
    "operator": null
  },
  {
    "id": "way-421961371",
    "name": "Biserica Ortodoxă Sf. Ioan Iacob Hozevitul",
    "type": "church",
    "subcategory": "christian",
    "lat": 47.0368756,
    "lng": 21.9448314,
    "osmType": "way",
    "brand": null,
    "operator": null
  },
  {
    "id": "way-421967047",
    "name": "Biserica Ortodoxa Sf.Vineri",
    "type": "church",
    "subcategory": "christian",
    "lat": 47.0437279,
    "lng": 21.945465,
    "osmType": "way",
    "brand": null,
    "operator": null
  },
  {
    "id": "way-422011201",
    "name": "Biserica Schimbarea la Față",
    "type": "church",
    "subcategory": "christian",
    "lat": 47.0430014,
    "lng": 21.955466,
    "osmType": "way",
    "brand": null,
    "operator": null
  },
  {
    "id": "way-422175675",
    "name": "Szent Antal-kápolna",
    "type": "church",
    "subcategory": "christian",
    "lat": 47.037893,
    "lng": 21.9827421,
    "osmType": "way",
    "brand": null,
    "operator": null
  },
  {
    "id": "way-422521523",
    "name": "Biserica Ortodoxă",
    "type": "church",
    "subcategory": "christian",
    "lat": 47.0409648,
    "lng": 21.977063,
    "osmType": "way",
    "brand": null,
    "operator": null
  },
  {
    "id": "way-423118595",
    "name": "Facultatea de Drept",
    "type": "school",
    "subcategory": "university",
    "lat": 47.0587154,
    "lng": 21.9406282,
    "osmType": "way",
    "brand": null,
    "operator": ", Oradea"
  },
  {
    "id": "way-423122942",
    "name": "Biserica Romano-Catolică",
    "type": "church",
    "subcategory": "christian",
    "lat": 47.0526581,
    "lng": 21.9313876,
    "osmType": "way",
    "brand": null,
    "operator": null
  },
  {
    "id": "way-423122948",
    "name": "Sinagoga neologă Sion",
    "type": "church",
    "subcategory": "jewish",
    "lat": 47.0549221,
    "lng": 21.9324012,
    "osmType": "way",
    "brand": null,
    "operator": null
  },
  {
    "id": "way-423412051",
    "name": "Mănăstirea Sfintei Cruci",
    "type": "church",
    "subcategory": "christian",
    "lat": 47.0523194,
    "lng": 21.967754,
    "osmType": "way",
    "brand": null,
    "operator": null
  },
  {
    "id": "way-436548036",
    "name": "Biserica Nouă",
    "type": "church",
    "subcategory": "christian",
    "lat": 47.0710941,
    "lng": 21.8578052,
    "osmType": "way",
    "brand": null,
    "operator": null
  },
  {
    "id": "way-436650618",
    "name": "Spitalul Pelican",
    "type": "medical",
    "subcategory": "hospital",
    "lat": 47.0759891,
    "lng": 21.9162861,
    "osmType": "way",
    "brand": null,
    "operator": null
  },
  {
    "id": "way-436834235",
    "name": "Biserica Baptistă Rogériusz",
    "type": "church",
    "subcategory": "christian",
    "lat": 47.078715,
    "lng": 21.9105434,
    "osmType": "way",
    "brand": null,
    "operator": null
  },
  {
    "id": "way-436834261",
    "name": "Biserica romano-catolică „Sfântul Iosif”",
    "type": "church",
    "subcategory": "christian",
    "lat": 47.0777046,
    "lng": 21.9241137,
    "osmType": "way",
    "brand": null,
    "operator": null
  },
  {
    "id": "way-437148076",
    "name": "Fără nume",
    "type": "school",
    "subcategory": "school",
    "lat": 47.0659902,
    "lng": 21.8564744,
    "osmType": "way",
    "brand": null,
    "operator": null
  },
  {
    "id": "way-437149338",
    "name": "Biserica Sfinții Mihail și Gavril",
    "type": "church",
    "subcategory": "christian",
    "lat": 47.069259,
    "lng": 21.8526951,
    "osmType": "way",
    "brand": null,
    "operator": null
  },
  {
    "id": "way-489535792",
    "name": "Capela Sf. Elisabeta",
    "type": "church",
    "subcategory": "christian",
    "lat": 47.0437809,
    "lng": 21.9360621,
    "osmType": "way",
    "brand": null,
    "operator": null
  },
  {
    "id": "way-526787674",
    "name": "Școala Gimnazială nr. 16",
    "type": "school",
    "subcategory": "school",
    "lat": 47.0798219,
    "lng": 21.914357,
    "osmType": "way",
    "brand": null,
    "operator": null
  },
  {
    "id": "way-526790380",
    "name": "Fără nume",
    "type": "school",
    "subcategory": "school",
    "lat": 47.0762057,
    "lng": 21.9119341,
    "osmType": "way",
    "brand": null,
    "operator": null
  },
  {
    "id": "way-526791484",
    "name": "Fără nume",
    "type": "school",
    "subcategory": "school",
    "lat": 47.0516494,
    "lng": 21.9276295,
    "osmType": "way",
    "brand": null,
    "operator": null
  },
  {
    "id": "way-526935585",
    "name": "Fără nume",
    "type": "school",
    "subcategory": "school",
    "lat": 47.068509,
    "lng": 21.9282129,
    "osmType": "way",
    "brand": null,
    "operator": null
  },
  {
    "id": "way-544489782",
    "name": "Biserica Sf. Sebastian",
    "type": "church",
    "subcategory": "christian",
    "lat": 47.0547069,
    "lng": 21.9126667,
    "osmType": "way",
    "brand": null,
    "operator": null
  },
  {
    "id": "way-544503067",
    "name": "Convenția Bisericilor Creștine Baptiste Maghiare din România",
    "type": "church",
    "subcategory": "christian",
    "lat": 47.0560705,
    "lng": 21.9415235,
    "osmType": "way",
    "brand": null,
    "operator": null
  },
  {
    "id": "way-544505902",
    "name": "Biserica Ortodoxa Velența II",
    "type": "church",
    "subcategory": "christian",
    "lat": 47.0474185,
    "lng": 21.9580644,
    "osmType": "way",
    "brand": null,
    "operator": null
  },
  {
    "id": "way-544645098",
    "name": "Biserica Romano-Catolică Sfânta Tereza",
    "type": "church",
    "subcategory": "christian",
    "lat": 47.0586289,
    "lng": 21.9016073,
    "osmType": "way",
    "brand": null,
    "operator": null
  },
  {
    "id": "way-544741748",
    "name": "Capela Ortodoxă",
    "type": "church",
    "subcategory": "christian",
    "lat": 47.040241,
    "lng": 21.9210774,
    "osmType": "way",
    "brand": null,
    "operator": null
  },
  {
    "id": "way-544741749",
    "name": "Capela Catolică",
    "type": "church",
    "subcategory": "christian",
    "lat": 47.0413714,
    "lng": 21.9186737,
    "osmType": "way",
    "brand": null,
    "operator": null
  },
  {
    "id": "way-624042128",
    "name": "Creșă",
    "type": "school",
    "subcategory": "kindergarten",
    "lat": 47.0711982,
    "lng": 21.8592669,
    "osmType": "way",
    "brand": null,
    "operator": null
  },
  {
    "id": "way-624265570",
    "name": "Biserica Ortodoxă",
    "type": "church",
    "subcategory": "christian",
    "lat": 47.0662613,
    "lng": 21.853622,
    "osmType": "way",
    "brand": null,
    "operator": null
  },
  {
    "id": "way-651522972",
    "name": "Biserica cu Lună",
    "type": "church",
    "subcategory": "christian",
    "lat": 47.0536957,
    "lng": 21.9290046,
    "osmType": "way",
    "brand": null,
    "operator": null
  },
  {
    "id": "way-674630005",
    "name": "Biserica Romano-Catolică",
    "type": "church",
    "subcategory": "christian",
    "lat": 47.1150779,
    "lng": 21.9571398,
    "osmType": "way",
    "brand": null,
    "operator": null
  },
  {
    "id": "way-708873958",
    "name": "Spitalul Clinic Căi Ferate",
    "type": "medical",
    "subcategory": "hospital",
    "lat": 47.0670588,
    "lng": 21.9356638,
    "osmType": "way",
    "brand": null,
    "operator": null
  },
  {
    "id": "way-708876663",
    "name": "Spitalul Clinic de Urgență Avram Iancu",
    "type": "medical",
    "subcategory": "hospital",
    "lat": 47.0615135,
    "lng": 21.9365972,
    "osmType": "way",
    "brand": null,
    "operator": null
  },
  {
    "id": "way-710472254",
    "name": "Grădinița nr. 54",
    "type": "school",
    "subcategory": "kindergarten",
    "lat": 47.0725363,
    "lng": 21.9112038,
    "osmType": "way",
    "brand": null,
    "operator": null
  },
  {
    "id": "way-717090541",
    "name": "Biserica Ortodoxă Militară",
    "type": "church",
    "subcategory": "christian",
    "lat": 47.0445553,
    "lng": 21.9216355,
    "osmType": "way",
    "brand": null,
    "operator": null
  },
  {
    "id": "way-717090565",
    "name": "Laser System",
    "type": "medical",
    "subcategory": "clinic",
    "lat": 47.0404903,
    "lng": 21.9267446,
    "osmType": "way",
    "brand": null,
    "operator": null
  },
  {
    "id": "way-835601377",
    "name": "Fără nume",
    "type": "medical",
    "subcategory": "hospital",
    "lat": 47.0625381,
    "lng": 21.9400743,
    "osmType": "way",
    "brand": null,
    "operator": null
  },
  {
    "id": "way-883258099",
    "name": "Biserica Baptistă",
    "type": "church",
    "subcategory": "christian",
    "lat": 47.0737185,
    "lng": 21.9180838,
    "osmType": "way",
    "brand": null,
    "operator": null
  },
  {
    "id": "way-885321773",
    "name": "Fără nume",
    "type": "school",
    "subcategory": "school",
    "lat": 47.0620033,
    "lng": 21.9219003,
    "osmType": "way",
    "brand": null,
    "operator": null
  },
  {
    "id": "way-885324657",
    "name": "Liceul de Arte Oradea",
    "type": "school",
    "subcategory": "school",
    "lat": 47.0652312,
    "lng": 21.9266296,
    "osmType": "way",
    "brand": null,
    "operator": null
  },
  {
    "id": "way-914060058",
    "name": "Biserica de lemn din Corbești",
    "type": "church",
    "subcategory": "christian",
    "lat": 47.0527353,
    "lng": 21.9680536,
    "osmType": "way",
    "brand": null,
    "operator": null
  },
  {
    "id": "way-925805948",
    "name": "Capela Romano-Catolică Sfântul Ladislau",
    "type": "church",
    "subcategory": "christian",
    "lat": 47.0621119,
    "lng": 21.9309814,
    "osmType": "way",
    "brand": null,
    "operator": null
  },
  {
    "id": "way-1003402475",
    "name": "Universitatea din Oradea, Campus B",
    "type": "school",
    "subcategory": "university",
    "lat": 47.0434959,
    "lng": 21.9221363,
    "osmType": "way",
    "brand": null,
    "operator": null
  },
  {
    "id": "way-1085760795",
    "name": "MedEuropa",
    "type": "medical",
    "subcategory": "clinic",
    "lat": 47.064073,
    "lng": 21.9138434,
    "osmType": "way",
    "brand": null,
    "operator": null
  },
  {
    "id": "way-1210617912",
    "name": "Biserica reformată Rogerius",
    "type": "church",
    "subcategory": "christian",
    "lat": 47.0705855,
    "lng": 21.9246033,
    "osmType": "way",
    "brand": null,
    "operator": null
  },
  {
    "id": "way-1345006056",
    "name": "Faculty of Environmental Protection",
    "type": "school",
    "subcategory": "university",
    "lat": 47.05861,
    "lng": 21.9407973,
    "osmType": "way",
    "brand": null,
    "operator": null
  },
  {
    "id": "way-1349500949",
    "name": "Grădiniţa Program Prelungit NR. 44",
    "type": "school",
    "subcategory": "kindergarten",
    "lat": 47.0520627,
    "lng": 21.9056834,
    "osmType": "way",
    "brand": null,
    "operator": null
  },
  {
    "id": "way-1374968255",
    "name": "Liceul Greco-Catolic Iuliu Maniu",
    "type": "school",
    "subcategory": "school",
    "lat": 47.0544336,
    "lng": 21.926719,
    "osmType": "way",
    "brand": null,
    "operator": null
  },
  {
    "id": "way-1395145904",
    "name": "Grădinița nr. 7 „Albă ca Zăpada”",
    "type": "school",
    "subcategory": "kindergarten",
    "lat": 47.0805156,
    "lng": 21.9151525,
    "osmType": "way",
    "brand": null,
    "operator": null
  },
  {
    "id": "way-1395145905",
    "name": "Grădinița cu program prelungit nr. 53",
    "type": "school",
    "subcategory": "kindergarten",
    "lat": 47.0805184,
    "lng": 21.9155111,
    "osmType": "way",
    "brand": null,
    "operator": null
  },
  {
    "id": "way-1395146712",
    "name": "Grădinița cu program prelungit nr. 52;Creșa nr. 3 „Tărâmul Fermecat”",
    "type": "school",
    "subcategory": "kindergarten",
    "lat": 47.0790407,
    "lng": 21.9130543,
    "osmType": "way",
    "brand": null,
    "operator": null
  },
  {
    "id": "way-1455869295",
    "name": "Biserica Evanghelică",
    "type": "church",
    "subcategory": "christian",
    "lat": 47.0577846,
    "lng": 21.9247046,
    "osmType": "way",
    "brand": null,
    "operator": null
  },
  {
    "id": "relation-3530253",
    "name": "Biserica Baptistă Emanuel",
    "type": "church",
    "subcategory": "christian",
    "lat": 47.0569364,
    "lng": 21.9164511,
    "osmType": "relation",
    "brand": null,
    "operator": null
  },
  {
    "id": "relation-11842368",
    "name": "Universitatea din Oradea, Campus A",
    "type": "school",
    "subcategory": "university",
    "lat": 47.0445802,
    "lng": 21.9181619,
    "osmType": "relation",
    "brand": null,
    "operator": null
  }
]