[
  {
    "id": "node-357918496",
    "name": "Spitalul Județean Satu-Mare",
    "type": "medical",
    "subcategory": "hospital",
    "lat": 47.7828104,
    "lng": 22.8631551,
    "osmType": "node",
    "tags": {
      "amenity": "hospital",
      "name": "Spitalul Județean Satu-Mare",
      "wheelchair": "yes"
    }
  },
  {
    "id": "node-491016982",
    "name": "Universitatea Tehnica din Cluj-Napoca, extensia Satu Mare",
    "type": "school",
    "subcategory": "school",
    "lat": 47.7680585,
    "lng": 22.8833209,
    "osmType": "node",
    "tags": {
      "addr:street": "B-dul L. Blaga, nr. 121",
      "amenity": "school",
      "description": "The extension of the technical university of Cluj-Napoca in Satu Mare",
      "name": "Universitatea Tehnica din Cluj-Napoca, extensia Satu Mare",
      "opening_hours": "Mo-Sa 08:00-18:00",
      "phone": "+407261768100",
      "website": "https://www.utcluj.ro/universitatea/extensii/satu-mare"
    }
  },
  {
    "id": "node-522147985",
    "name": "Biserica Sf.Iosif",
    "type": "church",
    "subcategory": "christian",
    "lat": 47.7926817,
    "lng": 22.8887129,
    "osmType": "node",
    "tags": {
      "amenity": "place_of_worship",
      "building": "church",
      "denomination": "roman_catholic",
      "name": "Biserica Sf.Iosif",
      "name:hu": "Szent József-templom",
      "religion": "christian",
      "url:miserend": "http://miserend.hu/templom/4536"
    }
  },
  {
    "id": "node-522180337",
    "name": "Laborator de Sănătate Mintală",
    "type": "medical",
    "subcategory": "hospital",
    "lat": 47.7871125,
    "lng": 22.859015,
    "osmType": "node",
    "tags": {
      "amenity": "hospital",
      "name": "Laborator de Sănătate Mintală"
    }
  },
  {
    "id": "node-523433533",
    "name": "Biserica Ortodoxă Amați",
    "type": "church",
    "subcategory": "christian",
    "lat": 47.7410192,
    "lng": 22.921748,
    "osmType": "node",
    "tags": {
      "amenity": "place_of_worship",
      "denomination": "orthodox",
      "name": "Biserica Ortodoxă Amați",
      "religion": "christian"
    }
  },
  {
    "id": "node-741015257",
    "name": "Clinica privată de Chirurgie Plastică și Estetică ELISESTET",
    "type": "medical",
    "subcategory": "hospital",
    "lat": 47.7988666,
    "lng": 22.8622824,
    "osmType": "node",
    "tags": {
      "amenity": "hospital",
      "name": "Clinica privată de Chirurgie Plastică și Estetică ELISESTET"
    }
  },
  {
    "id": "node-773473998",
    "name": "Școala Dariu Pop",
    "type": "school",
    "subcategory": "school",
    "lat": 47.7881714,
    "lng": 22.8579189,
    "osmType": "node",
    "tags": {
      "amenity": "school",
      "name": "Școala Dariu Pop"
    }
  },
  {
    "id": "node-1718532454",
    "name": "Dr. Heim Manuela",
    "type": "medical",
    "subcategory": "hospital",
    "lat": 47.7938766,
    "lng": 22.8793562,
    "osmType": "node",
    "tags": {
      "amenity": "hospital",
      "designation": "Medic Specialist Obstetrica – Ginecologie",
      "emergency": "no",
      "healthcare": "doctor",
      "healthcare:speciality": "gynaecology",
      "name": "Dr. Heim Manuela"
    }
  },
  {
    "id": "node-1938581683",
    "name": "Fără nume",
    "type": "church",
    "subcategory": "christian",
    "lat": 47.8869404,
    "lng": 22.8860749,
    "osmType": "node",
    "tags": {
      "amenity": "place_of_worship",
      "denomination": "orthodox",
      "religion": "christian",
      "source": "Bing"
    }
  },
  {
    "id": "node-1940341442",
    "name": "Biserica Petea",
    "type": "church",
    "subcategory": "christian",
    "lat": 47.8531729,
    "lng": 22.7836606,
    "osmType": "node",
    "tags": {
      "amenity": "place_of_worship",
      "denomination": "orthodox",
      "name": "Biserica Petea",
      "religion": "christian",
      "source": "Bing"
    }
  },
  {
    "id": "node-1940341449",
    "name": "Biserica Reformată Atea",
    "type": "church",
    "subcategory": "christian",
    "lat": 47.8710772,
    "lng": 22.7883439,
    "osmType": "node",
    "tags": {
      "amenity": "place_of_worship",
      "denomination": "reformed",
      "name": "Biserica Reformată Atea",
      "religion": "christian",
      "source": "Bing"
    }
  },
  {
    "id": "node-1940341454",
    "name": "Fără nume",
    "type": "church",
    "subcategory": "christian",
    "lat": 47.8859534,
    "lng": 22.8190363,
    "osmType": "node",
    "tags": {
      "amenity": "place_of_worship",
      "building": "church",
      "denomination": "greek_catholic",
      "religion": "christian",
      "source": "Bing"
    }
  },
  {
    "id": "node-1940413698",
    "name": "Biserica de lemn Lazuri",
    "type": "church",
    "subcategory": "christian",
    "lat": 47.8460574,
    "lng": 22.8756453,
    "osmType": "node",
    "tags": {
      "amenity": "place_of_worship",
      "denomination": "orthodox",
      "name": "Biserica de lemn Lazuri",
      "religion": "christian",
      "source": "Bing"
    }
  },
  {
    "id": "node-1940498157",
    "name": "Biserica Greco-Catolică Botiz",
    "type": "church",
    "subcategory": "christian",
    "lat": 47.833299,
    "lng": 22.9470936,
    "osmType": "node",
    "tags": {
      "amenity": "place_of_worship",
      "denomination": "greek_catholic",
      "name": "Biserica Greco-Catolică Botiz",
      "religion": "christian"
    }
  },
  {
    "id": "node-1940498180",
    "name": "Biserica Ortodoxă Botiz",
    "type": "church",
    "subcategory": "christian",
    "lat": 47.834021,
    "lng": 22.942046,
    "osmType": "node",
    "tags": {
      "amenity": "place_of_worship",
      "denomination": "orthodox",
      "name": "Biserica Ortodoxă Botiz",
      "religion": "christian"
    }
  },
  {
    "id": "node-1940498228",
    "name": "Biserica Reformată Botiz",
    "type": "church",
    "subcategory": "christian",
    "lat": 47.8334484,
    "lng": 22.9486037,
    "osmType": "node",
    "tags": {
      "amenity": "place_of_worship",
      "denomination": "reformed",
      "name": "Biserica Reformată Botiz",
      "religion": "christian"
    }
  },
  {
    "id": "node-1948724174",
    "name": "Biserica Sfinții Apostoli Petru și Pavel",
    "type": "church",
    "subcategory": "christian",
    "lat": 47.7868503,
    "lng": 22.9370854,
    "osmType": "node",
    "tags": {
      "amenity": "place_of_worship",
      "denomination": "orthodox",
      "name": "Biserica Sfinții Apostoli Petru și Pavel",
      "religion": "christian"
    }
  },
  {
    "id": "node-1948724282",
    "name": "Biserica reformată",
    "type": "church",
    "subcategory": "christian",
    "lat": 47.7864935,
    "lng": 22.9388125,
    "osmType": "node",
    "tags": {
      "amenity": "place_of_worship",
      "denomination": "reformed",
      "name": "Biserica reformată",
      "religion": "christian"
    }
  },
  {
    "id": "node-1949532355",
    "name": "Biserica Ortodoxă Vetiș",
    "type": "church",
    "subcategory": "christian",
    "lat": 47.8011034,
    "lng": 22.7784053,
    "osmType": "node",
    "tags": {
      "amenity": "place_of_worship",
      "denomination": "orthodox",
      "name": "Biserica Ortodoxă Vetiș",
      "religion": "christian"
    }
  },
  {
    "id": "node-1950438752",
    "name": "Fără nume",
    "type": "church",
    "subcategory": "christian",
    "lat": 47.7602923,
    "lng": 22.8481702,
    "osmType": "node",
    "tags": {
      "amenity": "place_of_worship",
      "denomination": "orthodox",
      "religion": "christian"
    }
  },
  {
    "id": "node-1950480233",
    "name": "Biserica Ortodoxă Sătmărel",
    "type": "church",
    "subcategory": "christian",
    "lat": 47.7377418,
    "lng": 22.7913667,
    "osmType": "node",
    "tags": {
      "amenity": "place_of_worship",
      "denomination": "romanian_orthodox",
      "name": "Biserica Ortodoxă Sătmărel",
      "religion": "christian"
    }
  },
  {
    "id": "node-1950509861",
    "name": "Biserica Creștin Ortodoxă Sfântul Apostol Andrei",
    "type": "church",
    "subcategory": "christian",
    "lat": 47.7328568,
    "lng": 22.88195,
    "osmType": "node",
    "tags": {
      "amenity": "place_of_worship",
      "denomination": "orthodox",
      "name": "Biserica Creștin Ortodoxă Sfântul Apostol Andrei",
      "religion": "christian"
    }
  },
  {
    "id": "node-1951276464",
    "name": "Biserica Reformată Amați",
    "type": "church",
    "subcategory": "christian",
    "lat": 47.7438911,
    "lng": 22.9165239,
    "osmType": "node",
    "tags": {
      "amenity": "place_of_worship",
      "denomination": "reformed",
      "name": "Biserica Reformată Amați",
      "name:hu": "Amaci református temető",
      "name:ro": "Biserica Reformată Amați",
      "religion": "christian"
    }
  },
  {
    "id": "node-1951276621",
    "name": "Biserica Ambud",
    "type": "church",
    "subcategory": "christian",
    "lat": 47.7716093,
    "lng": 22.9407333,
    "osmType": "node",
    "tags": {
      "amenity": "place_of_worship",
      "denomination": "orthodox",
      "name": "Biserica Ambud",
      "religion": "christian"
    }
  },
  {
    "id": "node-1951318972",
    "name": "Biserica Cionchești",
    "type": "church",
    "subcategory": "christian",
    "lat": 47.6994912,
    "lng": 22.9134102,
    "osmType": "node",
    "tags": {
      "amenity": "place_of_worship",
      "denomination": "orthodox",
      "name": "Biserica Cionchești",
      "religion": "christian"
    }
  },
  {
    "id": "node-1951319150",
    "name": "Biserica Rușeni",
    "type": "church",
    "subcategory": "christian",
    "lat": 47.711698,
    "lng": 22.945583,
    "osmType": "node",
    "tags": {
      "amenity": "place_of_worship",
      "denomination": "orthodox",
      "name": "Biserica Rușeni",
      "religion": "christian"
    }
  },
  {
    "id": "node-2957020596",
    "name": "Școala \"Ion Creangă\" Satu Mare",
    "type": "school",
    "subcategory": "school",
    "lat": 47.7788705,
    "lng": 22.8896585,
    "osmType": "node",
    "tags": {
      "addr:city": "Satu Mare",
      "addr:housenumber": "6",
      "addr:street": "Strada Someșului",
      "amenity": "school",
      "name": "Școala \"Ion Creangă\" Satu Mare"
    }
  },
  {
    "id": "node-4057304299",
    "name": "Kindergarten Draga Mea",
    "type": "school",
    "subcategory": "kindergarten",
    "lat": 47.7819545,
    "lng": 22.880685,
    "osmType": "node",
    "tags": {
      "amenity": "kindergarten",
      "name": "Kindergarten Draga Mea"
    }
  },
  {
    "id": "node-6454078382",
    "name": "Școala Octavian Goga",
    "type": "school",
    "subcategory": "school",
    "lat": 47.7396633,
    "lng": 22.7924322,
    "osmType": "node",
    "tags": {
      "amenity": "school",
      "name": "Școala Octavian Goga"
    }
  },
  {
    "id": "node-7925286273",
    "name": "Fără nume",
    "type": "church",
    "subcategory": "christian",
    "lat": 47.8341428,
    "lng": 22.9392882,
    "osmType": "node",
    "tags": {
      "amenity": "place_of_worship",
      "religion": "christian"
    }
  },
  {
    "id": "node-8628417930",
    "name": "Superbet",
    "type": "betting",
    "subcategory": "Superbet",
    "lat": 47.8033684,
    "lng": 22.8911171,
    "osmType": "node",
    "tags": {
      "brand": "Superbet",
      "brand:wikidata": "Q61082636",
      "check_date:opening_hours": "2025-11-17",
      "contact:email": "suport@superbet.ro",
      "contact:facebook": "https://www.facebook.com/superbet.ro",
      "contact:instagram": "https://www.instagram.com/superbetromania/",
      "contact:phone": "+40 786 401 088",
      "contact:twitter": "https://twitter.com/SuperbetRomania",
      "contact:website": "https://www.superbet.ro/",
      "name": "Superbet",
      "opening_hours": "Mo-Su 10:00-22:00",
      "operator": "Superbet Betting & Gaming SA",
      "shop": "bookmaker"
    }
  },
  {
    "id": "node-8628417968",
    "name": "Superbet",
    "type": "betting",
    "subcategory": "Superbet Betting & Gaming SA",
    "lat": 47.7869327,
    "lng": 22.8562349,
    "osmType": "node",
    "tags": {
      "contact:email": "suport@superbet.ro",
      "contact:facebook": "https://www.facebook.com/superbet.ro",
      "contact:instagram": "https://www.instagram.com/superbetromania/",
      "contact:phone": "+40 786 401 088",
      "contact:twitter": "https://twitter.com/SuperbetRomania",
      "contact:website": "https://www.superbet.ro/",
      "name": "Superbet",
      "opening_hours": "Mo-Su 10:00-22:00",
      "operator": "Superbet Betting & Gaming SA",
      "shop": "bookmaker"
    }
  },
  {
    "id": "node-8628418009",
    "name": "Superbet",
    "type": "betting",
    "subcategory": "Superbet Betting & Gaming SA",
    "lat": 47.7821802,
    "lng": 22.8616449,
    "osmType": "node",
    "tags": {
      "contact:email": "suport@superbet.ro",
      "contact:facebook": "https://www.facebook.com/superbet.ro",
      "contact:instagram": "https://www.instagram.com/superbetromania/",
      "contact:phone": "+40 786 401 088",
      "contact:twitter": "https://twitter.com/SuperbetRomania",
      "contact:website": "https://www.superbet.ro/",
      "name": "Superbet",
      "opening_hours": "Mo-Su 10:00-22:00",
      "operator": "Superbet Betting & Gaming SA",
      "shop": "bookmaker"
    }
  },
  {
    "id": "node-8628418045",
    "name": "Superbet",
    "type": "betting",
    "subcategory": "Superbet",
    "lat": 47.793013,
    "lng": 22.880139,
    "osmType": "node",
    "tags": {
      "brand": "Superbet",
      "brand:wikidata": "Q61082636",
      "contact:email": "suport@superbet.ro",
      "contact:facebook": "https://www.facebook.com/superbet.ro",
      "contact:instagram": "https://www.instagram.com/superbetromania/",
      "contact:phone": "+40 786 401 088",
      "contact:twitter": "https://twitter.com/SuperbetRomania",
      "contact:website": "https://www.superbet.ro/",
      "name": "Superbet",
      "opening_hours": "Mo-Su 10:00-22:00",
      "operator": "Superbet Betting & Gaming SA",
      "shop": "bookmaker"
    }
  },
  {
    "id": "node-8628418052",
    "name": "Superbet",
    "type": "betting",
    "subcategory": "Superbet Betting & Gaming SA",
    "lat": 47.7693096,
    "lng": 22.884197,
    "osmType": "node",
    "tags": {
      "contact:email": "suport@superbet.ro",
      "contact:facebook": "https://www.facebook.com/superbet.ro",
      "contact:instagram": "https://www.instagram.com/superbetromania/",
      "contact:phone": "+40 786 401 088",
      "contact:twitter": "https://twitter.com/SuperbetRomania",
      "contact:website": "https://www.superbet.ro/",
      "name": "Superbet",
      "opening_hours": "Mo-Su 10:00-22:00",
      "operator": "Superbet Betting & Gaming SA",
      "shop": "bookmaker"
    }
  },
  {
    "id": "node-8628418069",
    "name": "Superbet",
    "type": "betting",
    "subcategory": "Superbet",
    "lat": 47.7821243,
    "lng": 22.8738892,
    "osmType": "node",
    "tags": {
      "brand": "Superbet",
      "brand:wikidata": "Q61082636",
      "contact:email": "suport@superbet.ro",
      "contact:facebook": "https://www.facebook.com/superbet.ro",
      "contact:instagram": "https://www.instagram.com/superbetromania/",
      "contact:phone": "+40 786 401 088",
      "contact:twitter": "https://twitter.com/SuperbetRomania",
      "contact:website": "https://www.superbet.ro/",
      "name": "Superbet",
      "opening_hours": "Mo-Su 10:00-22:00",
      "operator": "Superbet Betting & Gaming SA",
      "shop": "bookmaker"
    }
  },
  {
    "id": "node-8628418319",
    "name": "Superbet",
    "type": "betting",
    "subcategory": "Superbet Betting & Gaming SA",
    "lat": 47.7795001,
    "lng": 22.8834754,
    "osmType": "node",
    "tags": {
      "contact:email": "suport@superbet.ro",
      "contact:facebook": "https://www.facebook.com/superbet.ro",
      "contact:instagram": "https://www.instagram.com/superbetromania/",
      "contact:phone": "+40 786 401 088",
      "contact:twitter": "https://twitter.com/SuperbetRomania",
      "contact:website": "https://www.superbet.ro/",
      "name": "Superbet",
      "opening_hours": "Mo-Su 10:00-22:00",
      "operator": "Superbet Betting & Gaming SA",
      "shop": "bookmaker"
    }
  },
  {
    "id": "node-8628418320",
    "name": "Superbet",
    "type": "betting",
    "subcategory": "Superbet",
    "lat": 47.794119,
    "lng": 22.870209,
    "osmType": "node",
    "tags": {
      "brand": "Superbet",
      "brand:wikidata": "Q61082636",
      "contact:email": "suport@superbet.ro",
      "contact:facebook": "https://www.facebook.com/superbet.ro",
      "contact:instagram": "https://www.instagram.com/superbetromania/",
      "contact:phone": "+40 786 401 088",
      "contact:twitter": "https://twitter.com/SuperbetRomania",
      "contact:website": "https://www.superbet.ro/",
      "name": "Superbet",
      "opening_hours": "Mo-Su 10:00-22:00",
      "operator": "Superbet Betting & Gaming SA",
      "shop": "bookmaker"
    }
  },
  {
    "id": "node-8628418327",
    "name": "Superbet",
    "type": "betting",
    "subcategory": "Superbet",
    "lat": 47.7844006,
    "lng": 22.860277,
    "osmType": "node",
    "tags": {
      "brand": "Superbet",
      "brand:wikidata": "Q61082636",
      "contact:email": "suport@superbet.ro",
      "contact:facebook": "https://www.facebook.com/superbet.ro",
      "contact:instagram": "https://www.instagram.com/superbetromania/",
      "contact:phone": "+40 786 401 088",
      "contact:twitter": "https://twitter.com/SuperbetRomania",
      "contact:website": "https://www.superbet.ro/",
      "name": "Superbet",
      "opening_hours": "Mo-Su 10:00-22:00",
      "operator": "Superbet Betting & Gaming SA",
      "shop": "bookmaker"
    }
  },
  {
    "id": "node-9990485242",
    "name": "Casino Corso",
    "type": "gaming",
    "subcategory": "Casino Corso",
    "lat": 47.7936016,
    "lng": 22.875526,
    "osmType": "node",
    "tags": {
      "amenity": "casino",
      "name": "Casino Corso"
    }
  },
  {
    "id": "node-10006018917",
    "name": "Clinica Primamedica",
    "type": "medical",
    "subcategory": "clinic",
    "lat": 47.7780454,
    "lng": 22.9228256,
    "osmType": "node",
    "tags": {
      "addr:housenumber": "109",
      "addr:street": "Strada Principala",
      "amenity": "clinic",
      "name": "Clinica Primamedica",
      "name:en": "Primamedica Clinic"
    }
  },
  {
    "id": "node-10006304118",
    "name": "Scoala Generala Amati",
    "type": "school",
    "subcategory": "school",
    "lat": 47.7428939,
    "lng": 22.9170288,
    "osmType": "node",
    "tags": {
      "amenity": "school",
      "name": "Scoala Generala Amati",
      "name:en": "Elementary School Amati"
    }
  },
  {
    "id": "node-10006354427",
    "name": "Biserica Romano-Catolica",
    "type": "church",
    "subcategory": "christian",
    "lat": 47.7752263,
    "lng": 22.9301658,
    "osmType": "node",
    "tags": {
      "addr:city": "Satu Mare",
      "amenity": "place_of_worship",
      "denomination": "roman_catholic",
      "name": "Biserica Romano-Catolica",
      "name:en": "Romano-Catholic Chapel",
      "religion": "christian"
    }
  },
  {
    "id": "node-10006354823",
    "name": "Scoala Paulesti",
    "type": "school",
    "subcategory": "school",
    "lat": 47.7785282,
    "lng": 22.921033,
    "osmType": "node",
    "tags": {
      "amenity": "school",
      "name": "Scoala Paulesti",
      "name:en": "Paulesti School"
    }
  },
  {
    "id": "node-10009373860",
    "name": "Vitreum",
    "type": "medical",
    "subcategory": "doctors",
    "lat": 47.7838552,
    "lng": 22.8757852,
    "osmType": "node",
    "tags": {
      "addr:city": "Satu Mare",
      "addr:housenumber": "8",
      "addr:street": "Bulevardul Cloșca",
      "amenity": "doctors",
      "healthcare": "doctor",
      "healthcare:speciality": "ophthalmology",
      "name": "Vitreum",
      "opening_hours": "Mo-Fr 08:00-20:00; Sa 09:00-13:00",
      "website": "https://vitreum.ro/"
    }
  },
  {
    "id": "node-10065084917",
    "name": "Fără nume",
    "type": "medical",
    "subcategory": "doctors",
    "lat": 47.7902155,
    "lng": 22.8658496,
    "osmType": "node",
    "tags": {
      "addr:housenumber": "21",
      "addr:postcode": "440116",
      "addr:street": "Strada Alexiu Berinde",
      "amenity": "doctors",
      "email": "cabinetdrfarcas@gmail.com",
      "opening_hours": "Mo, Th 15:00-19:00",
      "phone": "0746024024"
    }
  },
  {
    "id": "node-10065205817",
    "name": "CMI Dr.Fărcaș Bogdan și Diana",
    "type": "medical",
    "subcategory": "clinic",
    "lat": 47.790204,
    "lng": 22.8658444,
    "osmType": "node",
    "tags": {
      "addr:housenumber": "21",
      "addr:postcode": "440116",
      "addr:street": "Strada Alexiu Berinde",
      "amenity": "clinic",
      "email": "cabinetdrfarcas@gmail.com",
      "name": "CMI Dr.Fărcaș Bogdan și Diana",
      "opening_hours": "Mo, Th 15:00-19:00",
      "phone": "0746024024"
    }
  },
  {
    "id": "node-10735931062",
    "name": "Doctor Coica",
    "type": "medical",
    "subcategory": "doctors",
    "lat": 47.7742605,
    "lng": 22.8842003,
    "osmType": "node",
    "tags": {
      "amenity": "doctors",
      "healthcare": "doctor",
      "name": "Doctor Coica"
    }
  },
  {
    "id": "node-11409309269",
    "name": "CMI Dr.Fǎrcaş Bogdan şi Diana",
    "type": "medical",
    "subcategory": "doctors",
    "lat": 47.7901694,
    "lng": 22.8657989,
    "osmType": "node",
    "tags": {
      "addr:housenumber": "21",
      "addr:postcode": "440116",
      "addr:street": "Strada Alexiu Berinde",
      "amenity": "doctors",
      "email": "cabinetdrfarcas@gmail.com",
      "name": "CMI Dr.Fǎrcaş Bogdan şi Diana",
      "opening_hours": "Mo,Th 15:00-18:00",
      "phone": "0746024024"
    }
  },
  {
    "id": "node-11586576855",
    "name": "Affidea",
    "type": "medical",
    "subcategory": "clinic",
    "lat": 47.7919929,
    "lng": 22.8786528,
    "osmType": "node",
    "tags": {
      "amenity": "clinic",
      "contact:email": "satumare@affidea.com",
      "contact:phone": "+40 261 759 955",
      "contact:website": "https://affidea.ro/",
      "healthcare": "clinic",
      "name": "Affidea",
      "opening_hours": "Mo-Fr 08:00-20:00"
    }
  },
  {
    "id": "node-12896677235",
    "name": "Pfau Med",
    "type": "medical",
    "subcategory": "clinic",
    "lat": 47.7975555,
    "lng": 22.8673499,
    "osmType": "node",
    "tags": {
      "amenity": "clinic",
      "healthcare": "clinic",
      "name": "Pfau Med"
    }
  },
  {
    "id": "node-13529267001",
    "name": "UBB",
    "type": "school",
    "subcategory": "college",
    "lat": 47.7895168,
    "lng": 22.8694775,
    "osmType": "node",
    "tags": {
      "addr:housenumber": "47",
      "addr:postcode": "440117",
      "addr:street": "Strada Petőfi Sándor",
      "amenity": "college",
      "name": "UBB",
      "name:hu": "BBTE"
    }
  },
  {
    "id": "node-13684860446",
    "name": "Amethyst Radioterapie",
    "type": "medical",
    "subcategory": "doctors",
    "lat": 47.7780228,
    "lng": 22.85786,
    "osmType": "node",
    "tags": {
      "amenity": "doctors",
      "healthcare": "doctor",
      "healthcare:speciality": "oncology",
      "name": "Amethyst Radioterapie",
      "website": "https://amethyst-radiotherapy.ro/centre-amethyst/centrul-de-radioterapie-amethyst-satu-mare/"
    }
  },
  {
    "id": "way-42250597",
    "name": "Fără nume",
    "type": "school",
    "subcategory": "school",
    "lat": 47.7747574,
    "lng": 22.8861385,
    "osmType": "way",
    "tags": {
      "amenity": "school"
    }
  },
  {
    "id": "way-184189493",
    "name": "Biserica Reformată \"cu Lanțuri\"",
    "type": "church",
    "subcategory": "christian",
    "lat": 47.795343,
    "lng": 22.8752445,
    "osmType": "way",
    "tags": {
      "amenity": "place_of_worship",
      "building": "church",
      "denomination": "reformed",
      "name": "Biserica Reformată \"cu Lanțuri\"",
      "name:hu": "Református templom",
      "religion": "christian"
    }
  },
  {
    "id": "way-260731725",
    "name": "Școala Mircea Eliade",
    "type": "school",
    "subcategory": "school",
    "lat": 47.7825697,
    "lng": 22.8684545,
    "osmType": "way",
    "tags": {
      "addr:city": "Satu Mare",
      "addr:street": "Strada Mircea Eliade",
      "amenity": "school",
      "name": "Școala Mircea Eliade"
    }
  },
  {
    "id": "way-367726003",
    "name": "Catedrala Romano-Catolică",
    "type": "church",
    "subcategory": "christian",
    "lat": 47.7926427,
    "lng": 22.8764703,
    "osmType": "way",
    "tags": {
      "amenity": "place_of_worship",
      "building": "cathedral",
      "contact:website": "https://www.szatmariegyhazmegye.ro/",
      "denomination": "roman_catholic",
      "name": "Catedrala Romano-Catolică",
      "name:hu": "Urunk Mennybemenetele székesegyház",
      "religion": "christian",
      "url:miserend": "http://miserend.hu/?templom=4280",
      "website": "https://szatmariszekes.ro/",
      "wikidata": "Q667991",
      "wikipedia": "hu:Római katolikus székesegyház (Szatmárnémeti)"
    }
  },
  {
    "id": "way-378496578",
    "name": "Biserica \"Calvaria\"",
    "type": "church",
    "subcategory": "christian",
    "lat": 47.7903379,
    "lng": 22.8755063,
    "osmType": "way",
    "tags": {
      "amenity": "place_of_worship",
      "building": "church",
      "denomination": "roman_catholic",
      "name": "Biserica \"Calvaria\"",
      "name:hu": "Jézus Szent Szíve templom",
      "religion": "christian",
      "url:miserend": "http://miserend.hu/?templom=4281"
    }
  },
  {
    "id": "way-384192437",
    "name": "Biserica Sfântul Iosif",
    "type": "church",
    "subcategory": "christian",
    "lat": 47.8333051,
    "lng": 22.9501644,
    "osmType": "way",
    "tags": {
      "amenity": "place_of_worship",
      "building": "church",
      "building:levels": "3",
      "denomination": "roman_catholic",
      "name": "Biserica Sfântul Iosif",
      "name:hu": "Szent József templom",
      "religion": "christian",
      "url:miserend": "http://miserend.hu/?templom=4540"
    }
  },
  {
    "id": "way-426500917",
    "name": "Capela Romano-Catolică",
    "type": "church",
    "subcategory": "christian",
    "lat": 47.8853087,
    "lng": 22.8883014,
    "osmType": "way",
    "tags": {
      "amenity": "place_of_worship",
      "building": "chapel",
      "denomination": "roman_catholic",
      "name": "Capela Romano-Catolică",
      "name:hu": "Fatimai Szűz Mária kápolna",
      "religion": "christian",
      "url:miserend": "https://miserend.hu/templom/4563"
    }
  },
  {
    "id": "way-444934649",
    "name": "Fără nume",
    "type": "church",
    "subcategory": "jewish",
    "lat": 47.7908629,
    "lng": 22.8746555,
    "osmType": "way",
    "tags": {
      "amenity": "place_of_worship",
      "building": "synagogue",
      "religion": "jewish"
    }
  },
  {
    "id": "way-534845323",
    "name": "Biserica Sf. Anton",
    "type": "church",
    "subcategory": "christian",
    "lat": 47.8018662,
    "lng": 22.9048259,
    "osmType": "way",
    "tags": {
      "amenity": "place_of_worship",
      "building": "church",
      "denomination": "roman_catholic",
      "name": "Biserica Sf. Anton",
      "name:hu": "Szent Antal-templom",
      "religion": "christian",
      "url:miserend": "http://miserend.hu/templom/4538"
    }
  },
  {
    "id": "way-534845325",
    "name": "Biserica Sfinții Împărați Constantin și Elena",
    "type": "church",
    "subcategory": "christian",
    "lat": 47.7854078,
    "lng": 22.8664097,
    "osmType": "way",
    "tags": {
      "amenity": "place_of_worship",
      "building": "church",
      "denomination": "romanian_orthodox",
      "name": "Biserica Sfinții Împărați Constantin și Elena",
      "name:hu": "Nagy Konstantin császár és Szent Ilona templom",
      "religion": "christian"
    }
  },
  {
    "id": "way-534845327",
    "name": "Biserica Ortodoxă Buna Vestire",
    "type": "church",
    "subcategory": "christian",
    "lat": 47.7810238,
    "lng": 22.8873503,
    "osmType": "way",
    "tags": {
      "amenity": "place_of_worship",
      "building": "church",
      "denomination": "orthodox",
      "name": "Biserica Ortodoxă Buna Vestire",
      "religion": "christian"
    }
  },
  {
    "id": "way-534845329",
    "name": "Biserica reformată \"Kültelek\"",
    "type": "church",
    "subcategory": "christian",
    "lat": 47.7823694,
    "lng": 22.877734,
    "osmType": "way",
    "tags": {
      "amenity": "place_of_worship",
      "building": "church",
      "denomination": "reformed",
      "name": "Biserica reformată \"Kültelek\"",
      "name:hu": "Külteleki református templom",
      "religion": "christian"
    }
  },
  {
    "id": "way-534845334",
    "name": "Biserica Sf. Familie",
    "type": "church",
    "subcategory": "christian",
    "lat": 47.7822714,
    "lng": 22.8735315,
    "osmType": "way",
    "tags": {
      "amenity": "place_of_worship",
      "building": "church",
      "denomination": "roman_catholic",
      "name": "Biserica Sf. Familie",
      "name:hu": "Szent Család-templom",
      "religion": "christian",
      "url:miserend": "http://miserend.hu/templom/4781"
    }
  },
  {
    "id": "way-534845342",
    "name": "Biserica \"Sfinții Arhangheli Mihail și Gavril\"",
    "type": "church",
    "subcategory": "christian",
    "lat": 47.7826596,
    "lng": 22.8772893,
    "osmType": "way",
    "tags": {
      "amenity": "place_of_worship",
      "building": "church",
      "denomination": "romanian_orthodox",
      "name": "Biserica \"Sfinții Arhangheli Mihail și Gavril\"",
      "name:hu": "Szent Mihály és Gábriel arkangyal templom",
      "religion": "christian"
    }
  },
  {
    "id": "way-534845353",
    "name": "Biserica Greco Catolica Sf. Iosif",
    "type": "church",
    "subcategory": "christian",
    "lat": 47.7920301,
    "lng": 22.8918276,
    "osmType": "way",
    "tags": {
      "amenity": "place_of_worship",
      "building": "yes",
      "denomination": "catholic",
      "name": "Biserica Greco Catolica Sf. Iosif",
      "religion": "christian"
    }
  },
  {
    "id": "way-534845359",
    "name": "Liceul Economic",
    "type": "school",
    "subcategory": "school",
    "lat": 47.7887219,
    "lng": 22.8828904,
    "osmType": "way",
    "tags": {
      "amenity": "school",
      "building": "school",
      "education": "school",
      "name": "Liceul Economic"
    }
  },
  {
    "id": "way-534845413",
    "name": "Spitalul Boli Infecțioase",
    "type": "medical",
    "subcategory": "hospital",
    "lat": 47.794697,
    "lng": 22.8856204,
    "osmType": "way",
    "tags": {
      "amenity": "hospital",
      "building": "hospital",
      "emergency": "no",
      "healthcare": "hospital",
      "name": "Spitalul Boli Infecțioase"
    }
  },
  {
    "id": "way-534845460",
    "name": "Catedrala Ortodoxă",
    "type": "church",
    "subcategory": "christian",
    "lat": 47.7910931,
    "lng": 22.8813143,
    "osmType": "way",
    "tags": {
      "amenity": "place_of_worship",
      "building": "church",
      "denomination": "romanian_orthodox",
      "name": "Catedrala Ortodoxă",
      "religion": "christian",
      "wikidata": "Q5298087"
    }
  },
  {
    "id": "way-534845470",
    "name": "Biserica Romano-Catolică \"Sf. Ioan\"",
    "type": "church",
    "subcategory": "christian",
    "lat": 47.8006788,
    "lng": 22.8801437,
    "osmType": "way",
    "tags": {
      "amenity": "place_of_worship",
      "building": "church",
      "check_date": "2023-09-21",
      "denomination": "roman_catholic",
      "name": "Biserica Romano-Catolică \"Sf. Ioan\"",
      "name:hu": "Szent János apostol és evangélista-templom (Hildegárda)",
      "religion": "christian",
      "url:miserend": "http://miserend.hu/templom/4537"
    }
  },
  {
    "id": "way-534845474",
    "name": "Biserica Reformată \"Németi\"",
    "type": "church",
    "subcategory": "christian",
    "lat": 47.8005658,
    "lng": 22.8747534,
    "osmType": "way",
    "tags": {
      "amenity": "place_of_worship",
      "building": "church",
      "check_date": "2023-09-21",
      "denomination": "reformed",
      "name": "Biserica Reformată \"Németi\"",
      "name:hu": "„Németi” református templom",
      "religion": "christian"
    }
  },
  {
    "id": "way-535345052",
    "name": "Centrul Medical Ham Janos",
    "type": "medical",
    "subcategory": "clinic",
    "lat": 47.7975021,
    "lng": 22.8746758,
    "osmType": "way",
    "tags": {
      "amenity": "clinic",
      "building": "yes",
      "healthcare": "clinic",
      "name": "Centrul Medical Ham Janos"
    }
  },
  {
    "id": "way-535345168",
    "name": "Biserica Sfântul Mare Mucenic Gheorghe",
    "type": "church",
    "subcategory": "christian",
    "lat": 47.8072385,
    "lng": 22.8787039,
    "osmType": "way",
    "tags": {
      "amenity": "place_of_worship",
      "building": "church",
      "denomination": "orthodox",
      "name": "Biserica Sfântul Mare Mucenic Gheorghe",
      "religion": "christian"
    }
  },
  {
    "id": "way-535345171",
    "name": "Biserica Reformată Szigetlanka",
    "type": "church",
    "subcategory": "christian",
    "lat": 47.7989786,
    "lng": 22.8640355,
    "osmType": "way",
    "tags": {
      "amenity": "place_of_worship",
      "building": "church",
      "denomination": "reformed",
      "name": "Biserica Reformată Szigetlanka",
      "religion": "christian"
    }
  },
  {
    "id": "way-535345173",
    "name": "Biserica Greco-Catolică Ucraineană",
    "type": "church",
    "subcategory": "christian",
    "lat": 47.7871721,
    "lng": 22.8542791,
    "osmType": "way",
    "tags": {
      "amenity": "place_of_worship",
      "building": "church",
      "denomination": "ukrainian_greek_catholic",
      "name": "Biserica Greco-Catolică Ucraineană",
      "religion": "christian"
    }
  },
  {
    "id": "way-535345283",
    "name": "Biserica Creștin Ortodoxă Nașterea Domnului",
    "type": "church",
    "subcategory": "christian",
    "lat": 47.7724847,
    "lng": 22.8851648,
    "osmType": "way",
    "tags": {
      "amenity": "place_of_worship",
      "building": "church",
      "denomination": "orthodox",
      "name": "Biserica Creștin Ortodoxă Nașterea Domnului",
      "religion": "christian"
    }
  },
  {
    "id": "way-535345358",
    "name": "Biserica Sf. Teresa",
    "type": "church",
    "subcategory": "christian",
    "lat": 47.7767616,
    "lng": 22.8856713,
    "osmType": "way",
    "tags": {
      "addr:city": "Satu Mare",
      "addr:housenumber": "7",
      "addr:postcode": "440250",
      "addr:street": "Strada Păulești",
      "amenity": "place_of_worship",
      "building": "church",
      "contact:facebook": "https://www.facebook.com/profile.php?id=100064499389946",
      "contact:website": "https://www.szentterez.ro/",
      "denomination": "roman_catholic",
      "name": "Biserica Sf. Teresa",
      "name:hu": "Kis Szent Teréz-templom",
      "religion": "christian",
      "url:miserend": "http://miserend.hu/templom/4802"
    }
  },
  {
    "id": "way-537146174",
    "name": "Liceul cu program sportiv",
    "type": "school",
    "subcategory": "school",
    "lat": 47.7985271,
    "lng": 22.8813095,
    "osmType": "way",
    "tags": {
      "amenity": "school",
      "education": "school",
      "name": "Liceul cu program sportiv"
    }
  },
  {
    "id": "way-544722550",
    "name": "Policlinica",
    "type": "medical",
    "subcategory": "clinic",
    "lat": 47.7917703,
    "lng": 22.8786325,
    "osmType": "way",
    "tags": {
      "amenity": "clinic",
      "building": "hospital",
      "healthcare": "clinic",
      "name": "Policlinica"
    }
  },
  {
    "id": "way-545101910",
    "name": "Școala cu clasele I-VIII \"Dr. Vasile Lucaciu\"",
    "type": "school",
    "subcategory": "school",
    "lat": 47.8019046,
    "lng": 22.8868419,
    "osmType": "way",
    "tags": {
      "amenity": "school",
      "name": "Școala cu clasele I-VIII \"Dr. Vasile Lucaciu\""
    }
  },
  {
    "id": "way-633731658",
    "name": "Biserica Creștină Baptistă Maghiară",
    "type": "church",
    "subcategory": "christian",
    "lat": 47.7987722,
    "lng": 22.8754764,
    "osmType": "way",
    "tags": {
      "addr:city": "Satu Mare",
      "addr:housenumber": "9",
      "addr:street": "P-ța Eroilor Revoluției",
      "amenity": "place_of_worship",
      "building": "church",
      "denomination": "baptist",
      "facebook": "https://www.facebook.com/szatmaribaptista",
      "name": "Biserica Creștină Baptistă Maghiară",
      "name:en": "Hungarian Baptist Church",
      "name:hu": "Magyar Baptista Gyülekezet",
      "religion": "christian",
      "service_times": "Su 9:00-12:00, 17:00-19:00; Fr 18:00-19:00",
      "website": "https://www.szatmaribaptista.ro/"
    }
  },
  {
    "id": "way-643714963",
    "name": "Fără nume",
    "type": "school",
    "subcategory": "kindergarten",
    "lat": 47.8054549,
    "lng": 22.8914511,
    "osmType": "way",
    "tags": {
      "amenity": "kindergarten"
    }
  },
  {
    "id": "way-644284873",
    "name": "Fără nume",
    "type": "school",
    "subcategory": "school",
    "lat": 47.7747009,
    "lng": 22.8664748,
    "osmType": "way",
    "tags": {
      "addr:street": "Bulevardul Cloșca",
      "amenity": "school"
    }
  },
  {
    "id": "way-644734838",
    "name": "Colegiul Tehnic Traian Vuia",
    "type": "school",
    "subcategory": "school",
    "lat": 47.7763051,
    "lng": 22.868361,
    "osmType": "way",
    "tags": {
      "amenity": "school",
      "name": "Colegiul Tehnic Traian Vuia"
    }
  },
  {
    "id": "way-646263422",
    "name": "Colegiul Național Mihai Eminescu",
    "type": "school",
    "subcategory": "school",
    "lat": 47.7900209,
    "lng": 22.8756079,
    "osmType": "way",
    "tags": {
      "addr:street": "Strada Mihai Eminescu",
      "amenity": "school",
      "education": "school",
      "name": "Colegiul Național Mihai Eminescu"
    }
  },
  {
    "id": "way-664365452",
    "name": "Academia Comerciala",
    "type": "school",
    "subcategory": "college",
    "lat": 47.7962104,
    "lng": 22.8892603,
    "osmType": "way",
    "tags": {
      "amenity": "college",
      "education": "college",
      "name": "Academia Comerciala"
    }
  },
  {
    "id": "way-664365462",
    "name": "West Medica",
    "type": "medical",
    "subcategory": "clinic",
    "lat": 47.7844496,
    "lng": 22.873581,
    "osmType": "way",
    "tags": {
      "addr:city": "Satu Mare",
      "addr:housenumber": "3",
      "addr:postcode": "440157",
      "addr:street": "Strada Careiului",
      "amenity": "clinic",
      "building": "yes",
      "healthcare": "clinic",
      "name": "West Medica"
    }
  },
  {
    "id": "way-664422326",
    "name": "Fără nume",
    "type": "school",
    "subcategory": "school",
    "lat": 47.786197,
    "lng": 22.8631679,
    "osmType": "way",
    "tags": {
      "amenity": "school"
    }
  },
  {
    "id": "way-665018995",
    "name": "Fără nume",
    "type": "school",
    "subcategory": "school",
    "lat": 47.7818339,
    "lng": 22.8579057,
    "osmType": "way",
    "tags": {
      "amenity": "school",
      "barrier": "fence",
      "education": "school"
    }
  },
  {
    "id": "way-665019033",
    "name": "Grup Școlar de Transport și Telecomunicații \"I.C.Brătianu\"",
    "type": "school",
    "subcategory": "school",
    "lat": 47.789913,
    "lng": 22.8823155,
    "osmType": "way",
    "tags": {
      "amenity": "school",
      "education": "school",
      "name": "Grup Școlar de Transport și Telecomunicații \"I.C.Brătianu\""
    }
  },
  {
    "id": "way-712706264",
    "name": "Clinica Korall",
    "type": "medical",
    "subcategory": "clinic",
    "lat": 47.7994299,
    "lng": 22.8728077,
    "osmType": "way",
    "tags": {
      "addr:city": "Satu Mare",
      "addr:housenumber": "22",
      "addr:street": "Piața Eroilor Revoluției",
      "amenity": "clinic",
      "building": "yes",
      "healthcare": "clinic",
      "name": "Clinica Korall",
      "operator:type": "private",
      "phone": "+40771630034",
      "website": "https://www.clinicakorall.ro"
    }
  },
  {
    "id": "way-750073637",
    "name": "Fără nume",
    "type": "school",
    "subcategory": "kindergarten",
    "lat": 47.8431688,
    "lng": 22.8094052,
    "osmType": "way",
    "tags": {
      "addr:city": "Dorolț",
      "amenity": "kindergarten",
      "building": "kindergarten"
    }
  },
  {
    "id": "way-754237239",
    "name": "Fără nume",
    "type": "school",
    "subcategory": "school",
    "lat": 47.8072461,
    "lng": 22.8865347,
    "osmType": "way",
    "tags": {
      "amenity": "school"
    }
  },
  {
    "id": "way-800743948",
    "name": "Biserica reformată 15",
    "type": "church",
    "subcategory": "christian",
    "lat": 47.7798693,
    "lng": 22.8611378,
    "osmType": "way",
    "tags": {
      "addr:street": "Strada Prahova",
      "amenity": "place_of_worship",
      "building": "yes",
      "name": "Biserica reformată 15",
      "religion": "christian"
    }
  },
  {
    "id": "way-916437379",
    "name": "Biserica Romano-Catolică",
    "type": "church",
    "subcategory": "christian",
    "lat": 47.8558615,
    "lng": 22.8687192,
    "osmType": "way",
    "tags": {
      "amenity": "place_of_worship",
      "building": "church",
      "denomination": "roman_catholic",
      "name": "Biserica Romano-Catolică",
      "name:hu": "Szent László templom",
      "religion": "christian",
      "url:miserend": "https://miserend.hu/templom/4559"
    }
  },
  {
    "id": "way-919690166",
    "name": "Biserică Reformată",
    "type": "church",
    "subcategory": "christian",
    "lat": 47.856444,
    "lng": 22.8698968,
    "osmType": "way",
    "tags": {
      "amenity": "place_of_worship",
      "building": "church",
      "denomination": "reformed",
      "name": "Biserică Reformată",
      "religion": "christian"
    }
  },
  {
    "id": "way-920363191",
    "name": "Biserica Reformata",
    "type": "church",
    "subcategory": "christian",
    "lat": 47.8468261,
    "lng": 22.8110552,
    "osmType": "way",
    "tags": {
      "amenity": "place_of_worship",
      "building": "church",
      "denomination": "reformed",
      "name": "Biserica Reformata",
      "religion": "christian"
    }
  },
  {
    "id": "way-920422286",
    "name": "Biserica Romano-Catolica",
    "type": "church",
    "subcategory": "christian",
    "lat": 47.8486751,
    "lng": 22.8159724,
    "osmType": "way",
    "tags": {
      "alt_name": "pusztadaróci templom",
      "amenity": "place_of_worship",
      "building": "church",
      "denomination": "roman_catholic",
      "name": "Biserica Romano-Catolica",
      "name:hu": "Szent József, a munkás templom",
      "religion": "christian",
      "url:miserend": "https://miserend.hu/templom/4569"
    }
  },
  {
    "id": "way-929114383",
    "name": "Biserica romano-catolică",
    "type": "church",
    "subcategory": "christian",
    "lat": 47.7899356,
    "lng": 22.9343856,
    "osmType": "way",
    "tags": {
      "amenity": "place_of_worship",
      "denomination": "roman_catholic",
      "name": "Biserica romano-catolică",
      "name:hu": "Szent Márton templom",
      "name:ro": "Biserica romano-catolică",
      "religion": "christian",
      "url:miserend": "https://miserend.hu/templom/4539"
    }
  },
  {
    "id": "way-1026844749",
    "name": "Biserica Sfântul Ilie Tesviteanul",
    "type": "church",
    "subcategory": "place_of_worship",
    "lat": 47.7799436,
    "lng": 22.9161972,
    "osmType": "way",
    "tags": {
      "amenity": "place_of_worship",
      "building": "yes",
      "name": "Biserica Sfântul Ilie Tesviteanul"
    }
  },
  {
    "id": "way-1040347252",
    "name": "Fără nume",
    "type": "church",
    "subcategory": "place_of_worship",
    "lat": 47.7409641,
    "lng": 22.9216927,
    "osmType": "way",
    "tags": {
      "amenity": "place_of_worship",
      "building": "yes"
    }
  },
  {
    "id": "way-1040347253",
    "name": "Fără nume",
    "type": "church",
    "subcategory": "place_of_worship",
    "lat": 47.7438841,
    "lng": 22.9163707,
    "osmType": "way",
    "tags": {
      "amenity": "place_of_worship",
      "building": "yes"
    }
  },
  {
    "id": "way-1073418757",
    "name": "Școala \"Ion Creangă\" Satu Mare",
    "type": "school",
    "subcategory": "school",
    "lat": 47.7788286,
    "lng": 22.8896964,
    "osmType": "way",
    "tags": {
      "amenity": "school",
      "name": "Școala \"Ion Creangă\" Satu Mare"
    }
  },
  {
    "id": "way-1074303973",
    "name": "Fără nume",
    "type": "medical",
    "subcategory": "doctors",
    "lat": 47.781216,
    "lng": 22.8815181,
    "osmType": "way",
    "tags": {
      "amenity": "doctors",
      "building": "yes",
      "healthcare": "doctor"
    }
  },
  {
    "id": "way-1075068375",
    "name": "Colegiul Național \"Kölcsey Ferenc\"",
    "type": "school",
    "subcategory": "school",
    "lat": 47.7907652,
    "lng": 22.8764044,
    "osmType": "way",
    "tags": {
      "amenity": "school",
      "education": "school",
      "name": "Colegiul Național \"Kölcsey Ferenc\""
    }
  },
  {
    "id": "way-1075072339",
    "name": "Liceul Teoretic \"Doamna Stanca\"",
    "type": "school",
    "subcategory": "school",
    "lat": 47.7945801,
    "lng": 22.8745206,
    "osmType": "way",
    "tags": {
      "amenity": "school",
      "education": "school",
      "name": "Liceul Teoretic \"Doamna Stanca\""
    }
  },
  {
    "id": "way-1075076336",
    "name": "Liceul Teologic Romano Catolic \"Ham Janos\"",
    "type": "school",
    "subcategory": "school",
    "lat": 47.7926634,
    "lng": 22.8785489,
    "osmType": "way",
    "tags": {
      "amenity": "school",
      "contact:website": "https://hamjanos.ro/",
      "denomination": "roman_catholic",
      "education": "school",
      "name": "Liceul Teologic Romano Catolic \"Ham Janos\"",
      "name:hu": "Hám János Líceum",
      "religion": "christian",
      "wikidata": "Q25466725"
    }
  },
  {
    "id": "way-1075085973",
    "name": "Fără nume",
    "type": "school",
    "subcategory": "school",
    "lat": 47.788659,
    "lng": 22.8828133,
    "osmType": "way",
    "tags": {
      "amenity": "school",
      "education": "school"
    }
  },
  {
    "id": "way-1075785712",
    "name": "Fără nume",
    "type": "school",
    "subcategory": "school",
    "lat": 47.7938197,
    "lng": 22.8663485,
    "osmType": "way",
    "tags": {
      "amenity": "school",
      "education": "school"
    }
  },
  {
    "id": "way-1088879207",
    "name": "Fără nume",
    "type": "school",
    "subcategory": "school",
    "lat": 47.7959472,
    "lng": 22.8745283,
    "osmType": "way",
    "tags": {
      "amenity": "school",
      "education": "school"
    }
  },
  {
    "id": "way-1090250185",
    "name": "Liceul Tehnologic \"Constantin Brâncuși\"",
    "type": "school",
    "subcategory": "school",
    "lat": 47.7967064,
    "lng": 22.8881046,
    "osmType": "way",
    "tags": {
      "amenity": "school",
      "education": "school",
      "name": "Liceul Tehnologic \"Constantin Brâncuși\""
    }
  },
  {
    "id": "way-1090740637",
    "name": "Catedrala Greco-Catolică",
    "type": "church",
    "subcategory": "christian",
    "lat": 47.7922415,
    "lng": 22.8797274,
    "osmType": "way",
    "tags": {
      "addr:city": "Satu Mare",
      "addr:housenumber": "4",
      "addr:street": "Strada 1 Decembrie 1918",
      "alt_name": "Biserica Sfinții Arhangheli",
      "amenity": "place_of_worship",
      "building": "cathedral",
      "denomination": "greek_catholic",
      "name": "Catedrala Greco-Catolică",
      "name:hu": "Szent Mihály és Gábriel arkangyalok székesegyház",
      "religion": "christian",
      "service_times": "Mo-Sa 08:00; Su 09:00,10:30",
      "wikidata": "Q7392953",
      "wikipedia": "ro:Biserica Sfinții Arhangheli din Satu Mare"
    }
  },
  {
    "id": "way-1091076403",
    "name": "Biserica Romano-Catolică",
    "type": "church",
    "subcategory": "christian",
    "lat": 47.7969348,
    "lng": 22.8744739,
    "osmType": "way",
    "tags": {
      "amenity": "place_of_worship",
      "building": "church",
      "denomination": "roman_catholic",
      "name": "Biserica Romano-Catolică",
      "name:hu": "Zárdatemplom",
      "religion": "christian",
      "url:miserend": "https://miserend.hu/templom/4535"
    }
  },
  {
    "id": "way-1091076404",
    "name": "Centrul Medical Ham Janos",
    "type": "medical",
    "subcategory": "clinic",
    "lat": 47.797173,
    "lng": 22.8743323,
    "osmType": "way",
    "tags": {
      "amenity": "clinic",
      "building": "apartments",
      "healthcare": "clinic",
      "name": "Centrul Medical Ham Janos"
    }
  },
  {
    "id": "way-1091076433",
    "name": "Fără nume",
    "type": "school",
    "subcategory": "school",
    "lat": 47.7970661,
    "lng": 22.8751801,
    "osmType": "way",
    "tags": {
      "amenity": "school",
      "education": "school"
    }
  },
  {
    "id": "way-1111873527",
    "name": "Biserica catolică",
    "type": "church",
    "subcategory": "christian",
    "lat": 47.8700538,
    "lng": 22.7921828,
    "osmType": "way",
    "tags": {
      "amenity": "place_of_worship",
      "building": "yes",
      "denomination": "roman_catholic",
      "name": "Biserica catolică",
      "name:hu": "Szent Család kápolna",
      "religion": "christian",
      "url:miserend": "https://miserend.hu/templom/4570"
    }
  },
  {
    "id": "way-1124248637",
    "name": "Biserica Romano-Catolică \"Sfântul Duh\"",
    "type": "church",
    "subcategory": "christian",
    "lat": 47.7878791,
    "lng": 22.8608919,
    "osmType": "way",
    "tags": {
      "amenity": "place_of_worship",
      "building": "church",
      "denomination": "roman_catholic",
      "name": "Biserica Romano-Catolică \"Sfântul Duh\"",
      "name:hu": "Szentlélek-templom",
      "religion": "christian",
      "url:miserend": "http://miserend.hu/templom/4806"
    }
  },
  {
    "id": "way-1154370247",
    "name": "Biserica Sf.Iosif",
    "type": "church",
    "subcategory": "christian",
    "lat": 47.7926302,
    "lng": 22.8886879,
    "osmType": "way",
    "tags": {
      "amenity": "place_of_worship",
      "building": "yes",
      "check_date": "2025-06-15",
      "name": "Biserica Sf.Iosif",
      "religion": "christian"
    }
  },
  {
    "id": "way-1154375616",
    "name": "Fără nume",
    "type": "school",
    "subcategory": "kindergarten",
    "lat": 47.7749129,
    "lng": 22.8872694,
    "osmType": "way",
    "tags": {
      "amenity": "kindergarten"
    }
  },
  {
    "id": "way-1159461900",
    "name": "Fără nume",
    "type": "medical",
    "subcategory": "clinic",
    "lat": 47.7796113,
    "lng": 22.8936356,
    "osmType": "way",
    "tags": {
      "amenity": "clinic",
      "building": "yes",
      "healthcare": "clinic"
    }
  },
  {
    "id": "way-1189607492",
    "name": "Biserica Greco-Catolică ”Sfântul Francisc”",
    "type": "church",
    "subcategory": "christian",
    "lat": 47.8033126,
    "lng": 22.8817456,
    "osmType": "way",
    "tags": {
      "amenity": "place_of_worship",
      "building": "church",
      "contact:facebook": "https://facebook.com/profile.php?id=100076824433417",
      "contact:website": "https://grecocatolicasm.ro/parohia-sfantul-francisc/",
      "denomination": "greek_catholic",
      "name": "Biserica Greco-Catolică ”Sfântul Francisc”",
      "name:hu": "Szent Ferenc-templom",
      "religion": "christian"
    }
  },
  {
    "id": "way-1293892083",
    "name": "Fără nume",
    "type": "school",
    "subcategory": "kindergarten",
    "lat": 47.7808853,
    "lng": 22.8601996,
    "osmType": "way",
    "tags": {
      "amenity": "kindergarten"
    }
  },
  {
    "id": "way-1302217851",
    "name": "Fără nume",
    "type": "church",
    "subcategory": "christian",
    "lat": 47.7900612,
    "lng": 22.8893271,
    "osmType": "way",
    "tags": {
      "amenity": "place_of_worship",
      "building": "yes",
      "denomination": "pentecostal",
      "religion": "christian"
    }
  },
  {
    "id": "way-1303922865",
    "name": "Superbet",
    "type": "betting",
    "subcategory": "Superbet",
    "lat": 47.7798208,
    "lng": 22.8648717,
    "osmType": "way",
    "tags": {
      "brand": "Superbet",
      "brand:wikidata": "Q61082636",
      "building": "yes",
      "name": "Superbet",
      "shop": "bookmaker"
    }
  },
  {
    "id": "way-1303934077",
    "name": "Fără nume",
    "type": "school",
    "subcategory": "school",
    "lat": 47.7881356,
    "lng": 22.8579085,
    "osmType": "way",
    "tags": {
      "amenity": "school"
    }
  },
  {
    "id": "way-1304136908",
    "name": "Fără nume",
    "type": "school",
    "subcategory": "childcare",
    "lat": 47.7917856,
    "lng": 22.8675647,
    "osmType": "way",
    "tags": {
      "amenity": "childcare"
    }
  },
  {
    "id": "way-1307036736",
    "name": "Fără nume",
    "type": "medical",
    "subcategory": "clinic",
    "lat": 47.7849324,
    "lng": 22.8771479,
    "osmType": "way",
    "tags": {
      "amenity": "clinic",
      "building": "yes",
      "healthcare": "clinic"
    }
  },
  {
    "id": "way-1307041095",
    "name": "Biserica Sf. Ioan",
    "type": "church",
    "subcategory": "christian",
    "lat": 47.8072432,
    "lng": 22.8861533,
    "osmType": "way",
    "tags": {
      "amenity": "place_of_worship",
      "building": "yes",
      "name": "Biserica Sf. Ioan",
      "religion": "christian"
    }
  },
  {
    "id": "way-1311551897",
    "name": "Fără nume",
    "type": "school",
    "subcategory": "school",
    "lat": 47.7796753,
    "lng": 22.8715265,
    "osmType": "way",
    "tags": {
      "amenity": "school"
    }
  },
  {
    "id": "way-1311579991",
    "name": "Școala Gimnazială Constantin Brâncoveanu",
    "type": "school",
    "subcategory": "school",
    "lat": 47.7899377,
    "lng": 22.872076,
    "osmType": "way",
    "tags": {
      "amenity": "school",
      "education": "school",
      "name": "Școala Gimnazială Constantin Brâncoveanu"
    }
  },
  {
    "id": "way-1313727379",
    "name": "Grădinița cu Program Prelungit Nr. 9",
    "type": "school",
    "subcategory": "childcare",
    "lat": 47.7807756,
    "lng": 22.8676935,
    "osmType": "way",
    "tags": {
      "amenity": "childcare",
      "building": "yes",
      "name": "Grădinița cu Program Prelungit Nr. 9"
    }
  },
  {
    "id": "way-1314116732",
    "name": "Fără nume",
    "type": "school",
    "subcategory": "school",
    "lat": 47.7958585,
    "lng": 22.8756824,
    "osmType": "way",
    "tags": {
      "amenity": "school",
      "education": "school"
    }
  },
  {
    "id": "way-1315267555",
    "name": "Fără nume",
    "type": "church",
    "subcategory": "christian",
    "lat": 47.8084902,
    "lng": 22.7790882,
    "osmType": "way",
    "tags": {
      "amenity": "place_of_worship",
      "building": "church",
      "denomination": "reformed",
      "religion": "christian"
    }
  },
  {
    "id": "way-1366204553",
    "name": "Fără nume",
    "type": "church",
    "subcategory": "christian",
    "lat": 47.8859122,
    "lng": 22.8190489,
    "osmType": "way",
    "tags": {
      "amenity": "place_of_worship",
      "building": "yes",
      "religion": "christian"
    }
  },
  {
    "id": "way-1366241905",
    "name": "Fără nume",
    "type": "school",
    "subcategory": "school",
    "lat": 47.8542546,
    "lng": 22.8694755,
    "osmType": "way",
    "tags": {
      "amenity": "school"
    }
  },
  {
    "id": "way-1366320243",
    "name": "Fără nume",
    "type": "school",
    "subcategory": "school",
    "lat": 47.7785301,
    "lng": 22.920975,
    "osmType": "way",
    "tags": {
      "amenity": "school"
    }
  },
  {
    "id": "way-1366320253",
    "name": "Clinica Primamedica One",
    "type": "medical",
    "subcategory": "clinic",
    "lat": 47.7780262,
    "lng": 22.922992,
    "osmType": "way",
    "tags": {
      "amenity": "clinic",
      "building": "yes",
      "healthcare": "clinic",
      "name": "Clinica Primamedica One"
    }
  },
  {
    "id": "way-1366333187",
    "name": "Biserica Greco-Catolică",
    "type": "church",
    "subcategory": "christian",
    "lat": 47.8565829,
    "lng": 22.8710713,
    "osmType": "way",
    "tags": {
      "amenity": "place_of_worship",
      "building": "yes",
      "denomination": "greek_catholic",
      "name": "Biserica Greco-Catolică",
      "religion": "christian"
    }
  },
  {
    "id": "way-1374228203",
    "name": "Biserica Sfinții Apostoli Petru și Pavel",
    "type": "church",
    "subcategory": "christian",
    "lat": 47.7934767,
    "lng": 22.8928734,
    "osmType": "way",
    "tags": {
      "amenity": "place_of_worship",
      "building": "yes",
      "denomination": "orthodox",
      "name": "Biserica Sfinții Apostoli Petru și Pavel",
      "religion": "christian"
    }
  },
  {
    "id": "way-1383928666",
    "name": "Școala Cu Clasele I-VIII",
    "type": "school",
    "subcategory": "school",
    "lat": 47.8430285,
    "lng": 22.8103808,
    "osmType": "way",
    "tags": {
      "addr:city": "Dorolț",
      "amenity": "school",
      "building": "school",
      "name": "Școala Cu Clasele I-VIII"
    }
  },
  {
    "id": "way-1408582161",
    "name": "Fără nume",
    "type": "school",
    "subcategory": "school",
    "lat": 47.7797791,
    "lng": 22.8929032,
    "osmType": "way",
    "tags": {
      "amenity": "school"
    }
  },
  {
    "id": "way-1408618858",
    "name": "Biserica Sfinții Arhangheli Mihail și Gavriil",
    "type": "church",
    "subcategory": "christian",
    "lat": 47.7902914,
    "lng": 22.8684613,
    "osmType": "way",
    "tags": {
      "amenity": "place_of_worship",
      "building": "church",
      "denomination": "romanian_orthodox",
      "name": "Biserica Sfinții Arhangheli Mihail și Gavriil",
      "religion": "christian"
    }
  },
  {
    "id": "way-1488014791",
    "name": "Fără nume",
    "type": "church",
    "subcategory": "christian",
    "lat": 47.8002946,
    "lng": 22.8776181,
    "osmType": "way",
    "tags": {
      "amenity": "place_of_worship",
      "building": "yes",
      "denomination": "jehovahs_witness",
      "religion": "christian"
    }
  },
  {
    "id": "way-1488014813",
    "name": "Raza de Soare",
    "type": "school",
    "subcategory": "kindergarten",
    "lat": 47.8013751,
    "lng": 22.8761419,
    "osmType": "way",
    "tags": {
      "amenity": "kindergarten",
      "education": "kindergarten",
      "name": "Raza de Soare"
    }
  }
]