{
  "city": "Constanța",
  "generated_at": "2026-04-23T08:55:30.592Z",
  "counts": {
    "total": 977,
    "schools": 401,
    "churches": 576
  },
  "pois": [
    {
      "id": "node/444319986",
      "osm_id": 444319986,
      "osm_type": "node",
      "name": "Fără nume",
      "category": "education",
      "lat": 44.0554096,
      "lon": 28.5946245,
      "tags": {
        "addr:city": "Techirghiol",
        "amenity": "school"
      }
    },
    {
      "id": "node/1815722398",
      "osm_id": 1815722398,
      "osm_type": "node",
      "name": "Grădinița",
      "category": "education",
      "lat": 44.1649087,
      "lon": 28.4798486,
      "tags": {
        "amenity": "kindergarten",
        "name": "Grădinița"
      }
    },
    {
      "id": "node/2422950603",
      "osm_id": 2422950603,
      "osm_type": "node",
      "name": "Grădiniță cu orar normal Delfinul",
      "category": "education",
      "lat": 44.0619161,
      "lon": 28.6338709,
      "tags": {
        "addr:city": "Eforie Nord",
        "amenity": "kindergarten",
        "name": "Grădiniță cu orar normal Delfinul",
        "source": "survey"
      }
    },
    {
      "id": "node/2423005035",
      "osm_id": 2423005035,
      "osm_type": "node",
      "name": "Școala Gimnazială nr. 1 Eforie Nord",
      "category": "education",
      "lat": 44.0665649,
      "lon": 28.6316286,
      "tags": {
        "addr:city": "Eforie Nord",
        "amenity": "school",
        "name": "Școala Gimnazială nr. 1 Eforie Nord"
      }
    },
    {
      "id": "node/2795793133",
      "osm_id": 2795793133,
      "osm_type": "node",
      "name": "Fără nume",
      "category": "education",
      "lat": 44.6292217,
      "lon": 28.4559122,
      "tags": {
        "addr:postcode": "907073",
        "addr:street": "Strada Fabricii",
        "amenity": "kindergarten"
      }
    },
    {
      "id": "node/2795793135",
      "osm_id": 2795793135,
      "osm_type": "node",
      "name": "Fără nume",
      "category": "education",
      "lat": 44.6293916,
      "lon": 28.4556144,
      "tags": {
        "addr:postcode": "907073",
        "addr:street": "Strada Fabricii",
        "amenity": "school"
      }
    },
    {
      "id": "node/4063103915",
      "osm_id": 4063103915,
      "osm_type": "node",
      "name": "Grădinița Aurel Marinescu",
      "category": "education",
      "lat": 44.0658021,
      "lon": 28.2325374,
      "tags": {
        "amenity": "kindergarten",
        "name": "Grădinița Aurel Marinescu"
      }
    },
    {
      "id": "node/4068139125",
      "osm_id": 4068139125,
      "osm_type": "node",
      "name": "Liceul Cobadin",
      "category": "education",
      "lat": 44.0629744,
      "lon": 28.2350392,
      "tags": {
        "amenity": "college",
        "name": "Liceul Cobadin"
      }
    },
    {
      "id": "node/4228875702",
      "osm_id": 4228875702,
      "osm_type": "node",
      "name": "Colegiul Nautic Român",
      "category": "education",
      "lat": 44.1794073,
      "lon": 28.6164105,
      "tags": {
        "addr:city": "Constanța",
        "addr:housenumber": "90A",
        "addr:postcode": "900234",
        "addr:postcode:source": "Date de la Poșta Română, publicate sub Licența pentru Guvernare Deschisă v1.0 la http://date.gov.ro/organization/posta-romana",
        "addr:street": "Strada Dezrobirii",
        "amenity": "college",
        "name": "Colegiul Nautic Român"
      }
    },
    {
      "id": "node/4298905232",
      "osm_id": 4298905232,
      "osm_type": "node",
      "name": "Grădinița Licuriciul",
      "category": "education",
      "lat": 44.2512544,
      "lon": 28.5666601,
      "tags": {
        "amenity": "kindergarten",
        "name": "Grădinița Licuriciul"
      }
    },
    {
      "id": "node/4298905239",
      "osm_id": 4298905239,
      "osm_type": "node",
      "name": "Școala Nr. 2",
      "category": "education",
      "lat": 44.2511122,
      "lon": 28.5676497,
      "tags": {
        "amenity": "school",
        "name": "Școala Nr. 2"
      }
    },
    {
      "id": "node/4406687496",
      "osm_id": 4406687496,
      "osm_type": "node",
      "name": "Club dresaj canin Dog Dia K9",
      "category": "education",
      "lat": 44.423995,
      "lon": 28.6599982,
      "tags": {
        "addr:housenumber": "2",
        "addr:street": "Vadului",
        "amenity": "school",
        "email": "dogdia@yahoo.ro",
        "name": "Club dresaj canin Dog Dia K9",
        "name:ro": "Club dresaj canin Dog Dia K9",
        "phone": "0722958115"
      }
    },
    {
      "id": "node/4965372001",
      "osm_id": 4965372001,
      "osm_type": "node",
      "name": "Școala gimnazială Tuzla",
      "category": "education",
      "lat": 44.0003616,
      "lon": 28.6345074,
      "tags": {
        "amenity": "school",
        "name": "Școala gimnazială Tuzla"
      }
    },
    {
      "id": "node/5177045978",
      "osm_id": 5177045978,
      "osm_type": "node",
      "name": "Asociația Colegiul Nautic Român",
      "category": "education",
      "lat": 44.1759638,
      "lon": 28.6601704,
      "tags": {
        "amenity": "college",
        "check_date": "2024-09-17",
        "education": "college",
        "name": "Asociația Colegiul Nautic Român"
      }
    },
    {
      "id": "node/5926816925",
      "osm_id": 5926816925,
      "osm_type": "node",
      "name": "Școala „Sfinții Martiri Brâncoveni”",
      "category": "education",
      "lat": 44.1621526,
      "lon": 28.631435,
      "tags": {
        "addr:city": "Constanța",
        "addr:housenumber": "44",
        "addr:street": "Bulevardul 1 Mai",
        "amenity": "school",
        "denomination": "orthodox",
        "name": "Școala „Sfinții Martiri Brâncoveni”",
        "operator:type": "private",
        "religion": "christian"
      }
    },
    {
      "id": "node/6814242502",
      "osm_id": 6814242502,
      "osm_type": "node",
      "name": "Fără nume",
      "category": "education",
      "lat": 43.9161706,
      "lon": 28.0212108,
      "tags": {
        "amenity": "kindergarten"
      }
    },
    {
      "id": "node/6814312968",
      "osm_id": 6814312968,
      "osm_type": "node",
      "name": "Fără nume",
      "category": "education",
      "lat": 43.9295433,
      "lon": 27.9835367,
      "tags": {
        "amenity": "kindergarten"
      }
    },
    {
      "id": "node/8290940612",
      "osm_id": 8290940612,
      "osm_type": "node",
      "name": "Grădinița Căsuța cu Povești",
      "category": "education",
      "lat": 44.2194402,
      "lon": 28.621838,
      "tags": {
        "addr:housenumber": "40",
        "addr:street": "Aleea Universității",
        "amenity": "kindergarten",
        "min_age": "0",
        "name": "Grădinița Căsuța cu Povești",
        "website": "http://complexcopilaria.ro/"
      }
    },
    {
      "id": "node/9428787731",
      "osm_id": 9428787731,
      "osm_type": "node",
      "name": "Grădinița cu program normal nr. 40",
      "category": "education",
      "lat": 44.1481787,
      "lon": 28.6208451,
      "tags": {
        "addr:city": "Constanța",
        "addr:housenumber": "11",
        "addr:street": "Strada Progresului",
        "amenity": "kindergarten",
        "name": "Grădinița cu program normal nr. 40"
      }
    },
    {
      "id": "node/9430582255",
      "osm_id": 9430582255,
      "osm_type": "node",
      "name": "Grădinița cu program normal nr. 52 Delfinii Jucăuși",
      "category": "education",
      "lat": 44.1811029,
      "lon": 28.6177596,
      "tags": {
        "amenity": "kindergarten",
        "name": "Grădinița cu program normal nr. 52 Delfinii Jucăuși"
      }
    },
    {
      "id": "node/9430582256",
      "osm_id": 9430582256,
      "osm_type": "node",
      "name": "Grădinița cu program normal nr. 30",
      "category": "education",
      "lat": 44.1958306,
      "lon": 28.6524694,
      "tags": {
        "amenity": "kindergarten",
        "name": "Grădinița cu program normal nr. 30"
      }
    },
    {
      "id": "node/9498805622",
      "osm_id": 9498805622,
      "osm_type": "node",
      "name": "Grădinița cu program normal nr. 55 Abracadabra",
      "category": "education",
      "lat": 44.1433584,
      "lon": 28.6131434,
      "tags": {
        "addr:city": "Constanța",
        "addr:housenumber": "18",
        "addr:street": "Strada Meșterul Manole",
        "amenity": "kindergarten",
        "name": "Grădinița cu program normal nr. 55 Abracadabra"
      }
    },
    {
      "id": "node/9499273390",
      "osm_id": 9499273390,
      "osm_type": "node",
      "name": "Grădinița cu program prelungit „Căsuța Poveștilor”",
      "category": "education",
      "lat": 44.1987222,
      "lon": 28.6342348,
      "tags": {
        "addr:city": "Constanța",
        "addr:housenumber": "2",
        "addr:street": "Aleea Cameliei",
        "amenity": "kindergarten",
        "name": "Grădinița cu program prelungit „Căsuța Poveștilor”",
        "old_name": "Grădinița nr. 25"
      }
    },
    {
      "id": "node/9508434199",
      "osm_id": 9508434199,
      "osm_type": "node",
      "name": "Grădinița cu Program Prelungit nr. 3 Rosetti",
      "category": "education",
      "lat": 44.1624915,
      "lon": 28.6319473,
      "tags": {
        "amenity": "kindergarten",
        "name": "Grădinița cu Program Prelungit nr. 3 Rosetti"
      }
    },
    {
      "id": "node/9511206682",
      "osm_id": 9511206682,
      "osm_type": "node",
      "name": "Grădinița cu program prelungit Kițy Bițy",
      "category": "education",
      "lat": 44.1705975,
      "lon": 28.6035116,
      "tags": {
        "addr:city": "Constanța",
        "addr:housenumber": "146",
        "addr:street": "Bulevardul I. C. Brătianu",
        "amenity": "kindergarten",
        "name": "Grădinița cu program prelungit Kițy Bițy",
        "operator:type": "private"
      }
    },
    {
      "id": "node/9511206755",
      "osm_id": 9511206755,
      "osm_type": "node",
      "name": "Școala Gimanzială Wilhelm Moldovan",
      "category": "education",
      "lat": 44.1768964,
      "lon": 28.6245018,
      "tags": {
        "addr:housenumber": "1A",
        "addr:street": "Strada Eliberării",
        "amenity": "school",
        "denomination": "seventh_day_adventist",
        "name": "Școala Gimanzială Wilhelm Moldovan",
        "operator:type": "private",
        "religion": "christian"
      }
    },
    {
      "id": "node/9511206781",
      "osm_id": 9511206781,
      "osm_type": "node",
      "name": "Liceul Tehnologic UCECOM Spiru Haret",
      "category": "education",
      "lat": 44.1897034,
      "lon": 28.6428335,
      "tags": {
        "addr:city": "Constanța",
        "addr:housenumber": "148",
        "addr:street": "Strada Mircea cel Bătrân",
        "amenity": "school",
        "education": "school",
        "name": "Liceul Tehnologic UCECOM Spiru Haret",
        "operator:type": "private"
      }
    },
    {
      "id": "node/9511206789",
      "osm_id": 9511206789,
      "osm_type": "node",
      "name": "Școala Postliceală Henri Coandă",
      "category": "education",
      "lat": 44.1974305,
      "lon": 28.6526222,
      "tags": {
        "amenity": "college",
        "email": "henricoanda.constanta@yahoo.ro",
        "level": "5",
        "name": "Școala Postliceală Henri Coandă",
        "operator:type": "private",
        "phone": "+40 743 144 336",
        "website": "https://www.henricoandaconstanta.ro"
      }
    },
    {
      "id": "node/9511206790",
      "osm_id": 9511206790,
      "osm_type": "node",
      "name": "Școala Gimnazială Anastasia",
      "category": "education",
      "lat": 44.1575321,
      "lon": 28.6154167,
      "tags": {
        "amenity": "school",
        "name": "Școala Gimnazială Anastasia",
        "operator:type": "private"
      }
    },
    {
      "id": "node/9511206793",
      "osm_id": 9511206793,
      "osm_type": "node",
      "name": "Școala Postliceală Pro Scientia",
      "category": "education",
      "lat": 44.1909993,
      "lon": 28.6396103,
      "tags": {
        "amenity": "school",
        "education": "school",
        "name": "Școala Postliceală Pro Scientia",
        "operator:type": "private"
      }
    },
    {
      "id": "node/9511206794",
      "osm_id": 9511206794,
      "osm_type": "node",
      "name": "Școala postliceală Fortuna",
      "category": "education",
      "lat": 44.1907704,
      "lon": 28.649975,
      "tags": {
        "amenity": "school",
        "name": "Școala postliceală Fortuna",
        "operator:type": "private"
      }
    },
    {
      "id": "node/9511206795",
      "osm_id": 9511206795,
      "osm_type": "node",
      "name": "Liceul Educația Viitorului",
      "category": "education",
      "lat": 44.1923478,
      "lon": 28.6411228,
      "tags": {
        "amenity": "school",
        "name": "Liceul Educația Viitorului",
        "operator:type": "private"
      }
    },
    {
      "id": "node/9511206804",
      "osm_id": 9511206804,
      "osm_type": "node",
      "name": "Grădinița cu program normal Hello Teddy One",
      "category": "education",
      "lat": 44.1893962,
      "lon": 28.6534472,
      "tags": {
        "addr:city": "Constanța",
        "addr:country": "RO",
        "addr:housenumber": "2F",
        "addr:street": "Prelungirea Bucovinei",
        "amenity": "kindergarten",
        "name": "Grădinița cu program normal Hello Teddy One",
        "operator:type": "private"
      }
    },
    {
      "id": "node/9511206805",
      "osm_id": 9511206805,
      "osm_type": "node",
      "name": "Grădinița Primăverii",
      "category": "education",
      "lat": 44.194322,
      "lon": 28.6391214,
      "tags": {
        "amenity": "kindergarten",
        "name": "Grădinița Primăverii",
        "operator:type": "private"
      }
    },
    {
      "id": "node/9514449468",
      "osm_id": 9514449468,
      "osm_type": "node",
      "name": "Grădinița Colibri - sediu 2",
      "category": "education",
      "lat": 44.2095038,
      "lon": 28.6460848,
      "tags": {
        "amenity": "kindergarten",
        "name": "Grădinița Colibri - sediu 2",
        "operator:type": "private"
      }
    },
    {
      "id": "node/9516266996",
      "osm_id": 9516266996,
      "osm_type": "node",
      "name": "Grădinița cu program normal nr. 29",
      "category": "education",
      "lat": 44.1708943,
      "lon": 28.5993228,
      "tags": {
        "amenity": "kindergarten",
        "name": "Grădinița cu program normal nr. 29"
      }
    },
    {
      "id": "node/9554414491",
      "osm_id": 9554414491,
      "osm_type": "node",
      "name": "Grădinița cu Program Prelungit Victoria",
      "category": "education",
      "lat": 44.2196436,
      "lon": 28.5989144,
      "tags": {
        "addr:city": "Palazu Mare",
        "addr:housenumber": "2",
        "addr:street": "Strada Verona",
        "amenity": "kindergarten",
        "name": "Grădinița cu Program Prelungit Victoria",
        "operator:type": "private"
      }
    },
    {
      "id": "node/9568602123",
      "osm_id": 9568602123,
      "osm_type": "node",
      "name": "Grădinița cu program normal nr. 27",
      "category": "education",
      "lat": 44.2041025,
      "lon": 28.6507751,
      "tags": {
        "addr:city": "Constanța",
        "addr:housenumber": "2A",
        "addr:street": "Strada Dragoslavele",
        "amenity": "kindergarten",
        "name": "Grădinița cu program normal nr. 27",
        "start_date": "1980"
      }
    },
    {
      "id": "node/11162455905",
      "osm_id": 11162455905,
      "osm_type": "node",
      "name": "Fără nume",
      "category": "education",
      "lat": 44.3892889,
      "lon": 28.6623196,
      "tags": {
        "amenity": "kindergarten"
      }
    },
    {
      "id": "node/11225307844",
      "osm_id": 11225307844,
      "osm_type": "node",
      "name": "Grădinița cu program prelungit Wonderland",
      "category": "education",
      "lat": 44.2188634,
      "lon": 28.6201895,
      "tags": {
        "addr:city": "Constanța",
        "addr:housenumber": "54",
        "addr:street": "Aleea Universității",
        "amenity": "kindergarten",
        "fixme": "Approximate location",
        "name": "Grădinița cu program prelungit Wonderland",
        "operator": "Quasar Studia & Design SRL",
        "operator:type": "private"
      }
    },
    {
      "id": "node/11407142313",
      "osm_id": 11407142313,
      "osm_type": "node",
      "name": "Școala Postliceală „Henri Coandă” Năvodari",
      "category": "education",
      "lat": 44.3195919,
      "lon": 28.6107122,
      "tags": {
        "amenity": "college",
        "education": "college",
        "email": "henricoanda.constanta@yahoo.ro",
        "name": "Școala Postliceală „Henri Coandă” Năvodari",
        "phone": "+40 743 144 336",
        "website": "https://www.henricoandaconstanta.ro"
      }
    },
    {
      "id": "node/11522518802",
      "osm_id": 11522518802,
      "osm_type": "node",
      "name": "Laboratoare Facultatea de Medicină Dentară",
      "category": "education",
      "lat": 44.1745312,
      "lon": 28.6233399,
      "tags": {
        "addr:housenumber": "2A",
        "addr:street": "Strada Corbului",
        "amenity": "university",
        "name": "Laboratoare Facultatea de Medicină Dentară",
        "operator": "Universitatea Ovidius Constanța",
        "operator:type": "public"
      }
    },
    {
      "id": "node/12500405930",
      "osm_id": 12500405930,
      "osm_type": "node",
      "name": "Logiscool",
      "category": "education",
      "lat": 44.1805584,
      "lon": 28.6494061,
      "tags": {
        "amenity": "school",
        "check_date": "2025-01-13",
        "name": "Logiscool",
        "name:ro": "Logiscool",
        "operator:type": "private"
      }
    },
    {
      "id": "node/12509760888",
      "osm_id": 12509760888,
      "osm_type": "node",
      "name": "Liceul Internațional de Informatică",
      "category": "education",
      "lat": 44.2332907,
      "lon": 28.5812834,
      "tags": {
        "amenity": "school",
        "name": "Liceul Internațional de Informatică"
      }
    },
    {
      "id": "node/12867049353",
      "osm_id": 12867049353,
      "osm_type": "node",
      "name": "Gradinița Zurli",
      "category": "education",
      "lat": 44.1666297,
      "lon": 28.5838974,
      "tags": {
        "amenity": "kindergarten",
        "name": "Gradinița Zurli"
      }
    },
    {
      "id": "node/13085167591",
      "osm_id": 13085167591,
      "osm_type": "node",
      "name": "Școala Gimnaziala nr. 2",
      "category": "education",
      "lat": 43.7861633,
      "lon": 28.5771718,
      "tags": {
        "addr:city": "2 Mai",
        "amenity": "school",
        "name": "Școala Gimnaziala nr. 2"
      }
    },
    {
      "id": "node/13114962426",
      "osm_id": 13114962426,
      "osm_type": "node",
      "name": "Fără nume",
      "category": "education",
      "lat": 44.3469988,
      "lon": 28.2204313,
      "tags": {
        "amenity": "school"
      }
    },
    {
      "id": "way/43020472",
      "osm_id": 43020472,
      "osm_type": "way",
      "name": "Fără nume",
      "category": "education",
      "lat": 44.1844384,
      "lon": 28.6348399,
      "tags": {
        "building": "school",
        "building:levels": "3",
        "roof:levels": "0",
        "roof:shape": "flat",
        "start_date": "1969"
      }
    },
    {
      "id": "way/47707636",
      "osm_id": 47707636,
      "osm_type": "way",
      "name": "Fără nume",
      "category": "education",
      "lat": 44.1735743,
      "lon": 28.637452,
      "tags": {
        "building": "school",
        "building:levels": "4",
        "start_date": "1979",
        "wheelchair": "no"
      }
    },
    {
      "id": "way/49047933",
      "osm_id": 49047933,
      "osm_type": "way",
      "name": "Grădinița 3",
      "category": "education",
      "lat": 43.8091924,
      "lon": 28.5740373,
      "tags": {
        "addr:postcode": "905500",
        "addr:street": "Strada 1 Decembrie 1918",
        "amenity": "kindergarten",
        "building": "yes",
        "name": "Grădinița 3"
      }
    },
    {
      "id": "way/49047934",
      "osm_id": 49047934,
      "osm_type": "way",
      "name": "Școala nr 3",
      "category": "education",
      "lat": 43.8093738,
      "lon": 28.5746957,
      "tags": {
        "amenity": "school",
        "building": "yes",
        "name": "Școala nr 3"
      }
    },
    {
      "id": "way/49047935",
      "osm_id": 49047935,
      "osm_type": "way",
      "name": "Fără nume",
      "category": "education",
      "lat": 43.8092448,
      "lon": 28.5740696,
      "tags": {
        "amenity": "kindergarten",
        "is_in:city": "Mangalia"
      }
    },
    {
      "id": "way/96636480",
      "osm_id": 96636480,
      "osm_type": "way",
      "name": "Școala cu clasele I-VIII, Fântânele",
      "category": "education",
      "lat": 44.6119771,
      "lon": 28.5748029,
      "tags": {
        "amenity": "school",
        "building": "yes",
        "name": "Școala cu clasele I-VIII, Fântânele"
      }
    },
    {
      "id": "way/100286471",
      "osm_id": 100286471,
      "osm_type": "way",
      "name": "Fără nume",
      "category": "education",
      "lat": 44.2017606,
      "lon": 28.6506356,
      "tags": {
        "building": "school",
        "building:levels": "3",
        "roof:shape": "hipped",
        "start_date": "1962"
      }
    },
    {
      "id": "way/100286980",
      "osm_id": 100286980,
      "osm_type": "way",
      "name": "Fără nume",
      "category": "education",
      "lat": 44.2022449,
      "lon": 28.6500886,
      "tags": {
        "addr:city": "Constanța",
        "addr:housenumber": "68",
        "addr:street": "Strada Unirii",
        "building": "kindergarten",
        "building:levels": "2",
        "email": "gradinitaop45@yahoo.com",
        "phone": "+40 341 440 045"
      }
    },
    {
      "id": "way/100442814",
      "osm_id": 100442814,
      "osm_type": "way",
      "name": "Universitatea Maritimă Constanța",
      "category": "education",
      "lat": 44.182577,
      "lon": 28.6510472,
      "tags": {
        "addr:city": "Constanța",
        "addr:housenumber": "104",
        "addr:postcode": "900663",
        "addr:postcode:source": "Date de la Poșta Română, publicate sub Licența pentru Guvernare Deschisă v1.0 la http://date.gov.ro/organization/posta-romana",
        "addr:street": "Strada Mircea cel Bătrân",
        "amenity": "university",
        "building": "university",
        "name": "Universitatea Maritimă Constanța",
        "website": "http://www.cmu-edu.eu/"
      }
    },
    {
      "id": "way/100442817",
      "osm_id": 100442817,
      "osm_type": "way",
      "name": "Fără nume",
      "category": "education",
      "lat": 44.1898858,
      "lon": 28.6471588,
      "tags": {
        "building": "school",
        "building:levels": "2",
        "roof:shape": "hipped",
        "start_date": "1921"
      }
    },
    {
      "id": "way/100453581",
      "osm_id": 100453581,
      "osm_type": "way",
      "name": "Fără nume",
      "category": "education",
      "lat": 44.1995247,
      "lon": 28.6460891,
      "tags": {
        "addr:city": "Constanța",
        "addr:housenumber": "197",
        "addr:postcode": "900540",
        "addr:street": "Bulevardul Mamaia",
        "building": "school"
      }
    },
    {
      "id": "way/100547957",
      "osm_id": 100547957,
      "osm_type": "way",
      "name": "Fără nume",
      "category": "education",
      "lat": 44.1903224,
      "lon": 28.6400529,
      "tags": {
        "building": "school",
        "building:levels": "3"
      }
    },
    {
      "id": "way/101254858",
      "osm_id": 101254858,
      "osm_type": "way",
      "name": "Fără nume",
      "category": "education",
      "lat": 44.1841512,
      "lon": 28.6508006,
      "tags": {
        "addr:postcode:source": "Date de la Poșta Română, publicate sub Licența pentru Guvernare Deschisă v1.0 la http://date.gov.ro/organization/posta-romana",
        "building": "school",
        "building:levels": "4",
        "height": "14.6",
        "roof:shape": "flat",
        "start_date": "1977",
        "website": "https://www.colegiulcarol.ro/"
      }
    },
    {
      "id": "way/101765504",
      "osm_id": 101765504,
      "osm_type": "way",
      "name": "Fără nume",
      "category": "education",
      "lat": 44.1809616,
      "lon": 28.6176842,
      "tags": {
        "building": "school",
        "building:levels": "3",
        "start_date": "1963"
      }
    },
    {
      "id": "way/102580707",
      "osm_id": 102580707,
      "osm_type": "way",
      "name": "Fără nume",
      "category": "education",
      "lat": 44.198557,
      "lon": 28.6340795,
      "tags": {
        "building": "school",
        "building:levels": "3",
        "start_date": "1975"
      }
    },
    {
      "id": "way/106434437",
      "osm_id": 106434437,
      "osm_type": "way",
      "name": "Fără nume",
      "category": "education",
      "lat": 44.1745431,
      "lon": 28.6473175,
      "tags": {
        "building": "school",
        "building:levels": "3",
        "start_date": "1978"
      }
    },
    {
      "id": "way/107039830",
      "osm_id": 107039830,
      "osm_type": "way",
      "name": "Școala Militară de Maiștri Militari a Forțelor Navale „Amiral Ion Murgescu”",
      "category": "education",
      "lat": 44.1844743,
      "lon": 28.6203238,
      "tags": {
        "addr:housenumber": "80",
        "addr:street": "Strada Dezrobirii",
        "amenity": "school",
        "building": "yes",
        "name": "Școala Militară de Maiștri Militari a Forțelor Navale „Amiral Ion Murgescu”"
      }
    },
    {
      "id": "way/107103007",
      "osm_id": 107103007,
      "osm_type": "way",
      "name": "Fără nume",
      "category": "education",
      "lat": 44.1716863,
      "lon": 28.6166276,
      "tags": {
        "building": "school",
        "start_date": "1964"
      }
    },
    {
      "id": "way/107183752",
      "osm_id": 107183752,
      "osm_type": "way",
      "name": "Școala Gimnazială Nr. 40 „Aurel Vlaicu”",
      "category": "education",
      "lat": 44.1611069,
      "lon": 28.6120294,
      "tags": {
        "addr:city": "Constanța",
        "addr:housenumber": "2A",
        "addr:street": "Aleea Pelicanului",
        "amenity": "school",
        "name": "Școala Gimnazială Nr. 40 „Aurel Vlaicu”"
      }
    },
    {
      "id": "way/107247852",
      "osm_id": 107247852,
      "osm_type": "way",
      "name": "Școala Gimnazială Nr. 31",
      "category": "education",
      "lat": 44.1689209,
      "lon": 28.5870317,
      "tags": {
        "addr:city": "Constanța",
        "addr:housenumber": "141",
        "addr:street": "Bulevardul I. C. Brătianu",
        "amenity": "school",
        "name": "Școala Gimnazială Nr. 31",
        "phone": "+40 735 658 260"
      }
    },
    {
      "id": "way/107425519",
      "osm_id": 107425519,
      "osm_type": "way",
      "name": "Fără nume",
      "category": "education",
      "lat": 44.2316173,
      "lon": 28.5987462,
      "tags": {
        "building": "school",
        "building:levels": "1"
      }
    },
    {
      "id": "way/107425520",
      "osm_id": 107425520,
      "osm_type": "way",
      "name": "Grădinița cu program normal Nr. 39",
      "category": "education",
      "lat": 44.2316995,
      "lon": 28.5994497,
      "tags": {
        "amenity": "kindergarten",
        "building": "kindergarten",
        "building:levels": "1",
        "name": "Grădinița cu program normal Nr. 39"
      }
    },
    {
      "id": "way/107472042",
      "osm_id": 107472042,
      "osm_type": "way",
      "name": "Fără nume",
      "category": "education",
      "lat": 44.2002464,
      "lon": 28.6174828,
      "tags": {
        "building": "kindergarten",
        "start_date": "1972"
      }
    },
    {
      "id": "way/107475309",
      "osm_id": 107475309,
      "osm_type": "way",
      "name": "Fără nume",
      "category": "education",
      "lat": 44.2094785,
      "lon": 28.6438078,
      "tags": {
        "building": "school",
        "building:levels": "3",
        "start_date": "1966"
      }
    },
    {
      "id": "way/107478746",
      "osm_id": 107478746,
      "osm_type": "way",
      "name": "Colegiul Național Militar „Alexandru Ioan Cuza”",
      "category": "education",
      "lat": 44.1463773,
      "lon": 28.629782,
      "tags": {
        "addr:housenumber": "101",
        "addr:street": "Bulevardul 1 Mai",
        "amenity": "school",
        "description": "Sediul se află în renovare, cu perspective de redeschidere pe termen mediu și lung. Activitatea se desfășoara la sediul din cadrul Institului de Marină, Strada Dezrobirii nr 80",
        "name": "Colegiul Național Militar „Alexandru Ioan Cuza”",
        "old_name:1975-1992": "Liceul Industrial de Marină",
        "old_name:1975-2018": "Liceul NAVROM - sediu vechi",
        "old_name:1992-2005": "Grup Școlar Industrial de Marină",
        "old_name:2005-2018": "Colegiul Tehnic de Marină „Alexandru Ioan Cuza”",
        "opening_hours": "closed"
      }
    },
    {
      "id": "way/108700517",
      "osm_id": 108700517,
      "osm_type": "way",
      "name": "Fără nume",
      "category": "education",
      "lat": 44.1960078,
      "lon": 28.6525117,
      "tags": {
        "building": "school",
        "building:levels": "3",
        "roof:shape": "flat",
        "start_date": "1964"
      }
    },
    {
      "id": "way/109090142",
      "osm_id": 109090142,
      "osm_type": "way",
      "name": "Fără nume",
      "category": "education",
      "lat": 44.1901868,
      "lon": 28.6478115,
      "tags": {
        "building": "school"
      }
    },
    {
      "id": "way/116473170",
      "osm_id": 116473170,
      "osm_type": "way",
      "name": "Școala \"Gala Galaction\"",
      "category": "education",
      "lat": 43.8158182,
      "lon": 28.5824329,
      "tags": {
        "amenity": "school",
        "building": "yes",
        "name": "Școala \"Gala Galaction\""
      }
    },
    {
      "id": "way/135184998",
      "osm_id": 135184998,
      "osm_type": "way",
      "name": "Grădinița cu program prelungit Căluțul de Mare",
      "category": "education",
      "lat": 44.1830988,
      "lon": 28.6173478,
      "tags": {
        "addr:city": "Constanța",
        "addr:housenumber": "1",
        "addr:postcode": "900372",
        "addr:street": "Strada Fulgerului",
        "amenity": "kindergarten",
        "building": "yes",
        "name": "Grădinița cu program prelungit Căluțul de Mare",
        "website": "http://www.bazanavala.ro/gradinitacta/indexgcta.html"
      }
    },
    {
      "id": "way/135185263",
      "osm_id": 135185263,
      "osm_type": "way",
      "name": "Colegiul Național Militar „Alexandru Ioan Cuza”",
      "category": "education",
      "lat": 44.1835976,
      "lon": 28.6137993,
      "tags": {
        "addr:city": "Constanța",
        "addr:housenumber": "80",
        "addr:street": "Strada Dezrobirii",
        "amenity": "school",
        "building": "yes",
        "name": "Colegiul Național Militar „Alexandru Ioan Cuza”"
      }
    },
    {
      "id": "way/135254969",
      "osm_id": 135254969,
      "osm_type": "way",
      "name": "Universitatea Creștină „Dimitrie Cantemir”",
      "category": "education",
      "lat": 44.1794869,
      "lon": 28.6162747,
      "tags": {
        "addr:city": "Constanța",
        "addr:housenumber": "90A",
        "addr:postcode": "900234",
        "addr:postcode:source": "Date de la Poșta Română, publicate sub Licența pentru Guvernare Deschisă v1.0 la http://date.gov.ro/organization/posta-romana",
        "addr:street": "Strada Dezrobirii",
        "amenity": "university",
        "building": "yes",
        "name": "Universitatea Creștină „Dimitrie Cantemir”",
        "website": "http://constanta.ucdc.ro"
      }
    },
    {
      "id": "way/135394460",
      "osm_id": 135394460,
      "osm_type": "way",
      "name": "Fără nume",
      "category": "education",
      "lat": 44.1576431,
      "lon": 28.6155939,
      "tags": {
        "addr:city": "Constanța",
        "addr:housenumber": "1",
        "addr:street": "Strada Caraiman",
        "building": "school",
        "building:levels": "2",
        "old_name": "Liceul 11"
      }
    },
    {
      "id": "way/135394499",
      "osm_id": 135394499,
      "osm_type": "way",
      "name": "Fără nume",
      "category": "education",
      "lat": 44.1582432,
      "lon": 28.6134489,
      "tags": {
        "addr:postcode:source": "Date de la Poșta Română, publicate sub Licența pentru Guvernare Deschisă v1.0 la http://date.gov.ro/organization/posta-romana",
        "building": "school",
        "building:levels": "2",
        "start_date": "1967"
      }
    },
    {
      "id": "way/135410633",
      "osm_id": 135410633,
      "osm_type": "way",
      "name": "Fără nume",
      "category": "education",
      "lat": 44.1998916,
      "lon": 28.6187888,
      "tags": {
        "building": "school",
        "start_date": "1977"
      }
    },
    {
      "id": "way/135509143",
      "osm_id": 135509143,
      "osm_type": "way",
      "name": "Fără nume",
      "category": "education",
      "lat": 44.1927635,
      "lon": 28.632491,
      "tags": {
        "building": "school",
        "building:levels": "3"
      }
    },
    {
      "id": "way/135510335",
      "osm_id": 135510335,
      "osm_type": "way",
      "name": "Universitatea Andrei Șaguna",
      "category": "education",
      "lat": 44.1836332,
      "lon": 28.634921,
      "tags": {
        "addr:city": "Constanța",
        "addr:housenumber": "13",
        "addr:postcode": "900196",
        "addr:street": "Bulevardul Alexandru Lăpușneanu",
        "amenity": "university",
        "email": "contact@andreisaguna.ro",
        "name": "Universitatea Andrei Șaguna",
        "name:ja": "アンドレイ・サグナ大学",
        "old_name:1989": "Centrul Teritorial de Calcul Electronic (CTCE Constanța)",
        "old_name:2000": "Totaldata",
        "phone": "+40 241 662 520",
        "website": "https://andreisaguna.ro/"
      }
    },
    {
      "id": "way/135512444",
      "osm_id": 135512444,
      "osm_type": "way",
      "name": "Fără nume",
      "category": "education",
      "lat": 44.1780805,
      "lon": 28.6331205,
      "tags": {
        "building": "school",
        "building:levels": "3",
        "start_date": "1975"
      }
    },
    {
      "id": "way/135517985",
      "osm_id": 135517985,
      "osm_type": "way",
      "name": "Fără nume",
      "category": "education",
      "lat": 44.1480187,
      "lon": 28.6224275,
      "tags": {
        "addr:housenumber": "8",
        "building": "school",
        "building:levels": "3",
        "start_date": "1977"
      }
    },
    {
      "id": "way/135518002",
      "osm_id": 135518002,
      "osm_type": "way",
      "name": "Fără nume",
      "category": "education",
      "lat": 44.1484961,
      "lon": 28.6202084,
      "tags": {
        "building": "kindergarten",
        "start_date": "1974"
      }
    },
    {
      "id": "way/135518009",
      "osm_id": 135518009,
      "osm_type": "way",
      "name": "Fără nume",
      "category": "education",
      "lat": 44.1490593,
      "lon": 28.6232563,
      "tags": {
        "building": "kindergarten",
        "building:levels": "2",
        "start_date": "1976"
      }
    },
    {
      "id": "way/135632220",
      "osm_id": 135632220,
      "osm_type": "way",
      "name": "Fără nume",
      "category": "education",
      "lat": 44.2087363,
      "lon": 28.6243365,
      "tags": {
        "building": "school",
        "building:levels": "3",
        "start_date": "1968"
      }
    },
    {
      "id": "way/135632225",
      "osm_id": 135632225,
      "osm_type": "way",
      "name": "Fără nume",
      "category": "education",
      "lat": 44.2037331,
      "lon": 28.6273253,
      "tags": {
        "building": "school",
        "building:levels": "3",
        "start_date": "1966"
      }
    },
    {
      "id": "way/135632227",
      "osm_id": 135632227,
      "osm_type": "way",
      "name": "Fără nume",
      "category": "education",
      "lat": 44.2076048,
      "lon": 28.624678,
      "tags": {
        "building": "kindergarten",
        "start_date": "1973"
      }
    },
    {
      "id": "way/135633127",
      "osm_id": 135633127,
      "osm_type": "way",
      "name": "Fără nume",
      "category": "education",
      "lat": 44.1974713,
      "lon": 28.6340722,
      "tags": {
        "building": "school",
        "building:levels": "1"
      }
    },
    {
      "id": "way/135633128",
      "osm_id": 135633128,
      "osm_type": "way",
      "name": "Fără nume",
      "category": "education",
      "lat": 44.2008606,
      "lon": 28.6328126,
      "tags": {
        "building": "kindergarten",
        "start_date": "1973"
      }
    },
    {
      "id": "way/135633826",
      "osm_id": 135633826,
      "osm_type": "way",
      "name": "Fără nume",
      "category": "education",
      "lat": 44.2109711,
      "lon": 28.6270966,
      "tags": {
        "building": "school",
        "building:levels": "3",
        "start_date": "1970"
      }
    },
    {
      "id": "way/135633837",
      "osm_id": 135633837,
      "osm_type": "way",
      "name": "Grădinița cu Program Normal nr. 41 „Flipper”",
      "category": "education",
      "lat": 44.2107411,
      "lon": 28.6276763,
      "tags": {
        "building": "kindergarten",
        "building:levels": "1",
        "name": "Grădinița cu Program Normal nr. 41 „Flipper”"
      }
    },
    {
      "id": "way/135665002",
      "osm_id": 135665002,
      "osm_type": "way",
      "name": "Fără nume",
      "category": "education",
      "lat": 44.2100972,
      "lon": 28.6223758,
      "tags": {
        "building": "kindergarten",
        "start_date": "1975"
      }
    },
    {
      "id": "way/135665185",
      "osm_id": 135665185,
      "osm_type": "way",
      "name": "Fără nume",
      "category": "education",
      "lat": 44.2094105,
      "lon": 28.621354,
      "tags": {
        "building": "school",
        "start_date": "1979"
      }
    },
    {
      "id": "way/135667666",
      "osm_id": 135667666,
      "osm_type": "way",
      "name": "Fără nume",
      "category": "education",
      "lat": 44.2135289,
      "lon": 28.6262999,
      "tags": {
        "building": "school",
        "start_date": "1975"
      }
    },
    {
      "id": "way/135671585",
      "osm_id": 135671585,
      "osm_type": "way",
      "name": "Fără nume",
      "category": "education",
      "lat": 44.1897605,
      "lon": 28.6384296,
      "tags": {
        "building": "school",
        "start_date": "1969"
      }
    },
    {
      "id": "way/135671588",
      "osm_id": 135671588,
      "osm_type": "way",
      "name": "Fără nume",
      "category": "education",
      "lat": 44.1900328,
      "lon": 28.6397591,
      "tags": {
        "building": "school",
        "building:levels": "3",
        "old_name": "Internat"
      }
    },
    {
      "id": "way/135727775",
      "osm_id": 135727775,
      "osm_type": "way",
      "name": "Liceul Teoretic „Ovidius”",
      "category": "education",
      "lat": 44.1719382,
      "lon": 28.6355134,
      "tags": {
        "addr:city": "Constanța",
        "addr:housenumber": "2",
        "addr:postcode": "900710",
        "addr:street": "Stradela Basarabi",
        "amenity": "school",
        "name": "Liceul Teoretic „Ovidius”",
        "name:ja": "オヴィディウス高校",
        "old_name:1961-1965": "Şcoala medie nr. 3",
        "old_name:1965-1978": "Liceul nr. 3",
        "old_name:1978-1982": "Liceul de matematică-fizică nr.1",
        "old_name:1982-1990": "Liceul industrial nr. 10",
        "website": "https://liceulovidius.ro/"
      }
    },
    {
      "id": "way/135780821",
      "osm_id": 135780821,
      "osm_type": "way",
      "name": "Liceul Teoretic „George Emil Palade”",
      "category": "education",
      "lat": 44.1859759,
      "lon": 28.6405851,
      "tags": {
        "addr:city": "Constanța",
        "addr:housenumber": "87",
        "addr:postcode": "900587",
        "addr:postcode:source": "Date de la Poșta Română, publicate sub Licența pentru Guvernare Deschisă v1.0 la http://date.gov.ro/organization/posta-romana",
        "addr:street": "Strada Nicolae Iorga",
        "amenity": "school",
        "name": "Liceul Teoretic „George Emil Palade”",
        "old_name:1978-1990": "Liceul Sanitar",
        "old_name:1990-1998": "Grup Școlar Sanitar",
        "old_name:1998-2012": "Grup Școlar „George Emil Palade”",
        "website": "http://www.palade.ro/"
      }
    },
    {
      "id": "way/135780865",
      "osm_id": 135780865,
      "osm_type": "way",
      "name": "Fără nume",
      "category": "education",
      "lat": 44.1883876,
      "lon": 28.639591,
      "tags": {
        "building": "kindergarten",
        "building:levels": "2"
      }
    },
    {
      "id": "way/135784723",
      "osm_id": 135784723,
      "osm_type": "way",
      "name": "Fără nume",
      "category": "education",
      "lat": 44.1666067,
      "lon": 28.6334636,
      "tags": {
        "building": "kindergarten",
        "start_date": "1908"
      }
    },
    {
      "id": "way/135785407",
      "osm_id": 135785407,
      "osm_type": "way",
      "name": "Școala Gimnazială Nr. 33 „Anghel Saligny”",
      "category": "education",
      "lat": 44.1472033,
      "lon": 28.618645,
      "tags": {
        "addr:city": "Constanța",
        "addr:housenumber": "2",
        "addr:postcode": "900064",
        "addr:street": "Strada Narciselor",
        "amenity": "school",
        "building:levels": "3",
        "grades": "1-8",
        "name": "Școala Gimnazială Nr. 33 „Anghel Saligny”"
      }
    },
    {
      "id": "way/135844721",
      "osm_id": 135844721,
      "osm_type": "way",
      "name": "Fără nume",
      "category": "education",
      "lat": 44.1560852,
      "lon": 28.629075,
      "tags": {
        "addr:postcode:source": "Date de la Poșta Română, publicate sub Licența pentru Guvernare Deschisă v1.0 la http://date.gov.ro/organization/posta-romana",
        "building": "school",
        "building:levels": "2"
      }
    },
    {
      "id": "way/135847009",
      "osm_id": 135847009,
      "osm_type": "way",
      "name": "Fără nume",
      "category": "education",
      "lat": 44.1612924,
      "lon": 28.6313648,
      "tags": {
        "addr:street": "Bulevardul 1 Mai",
        "building": "kindergarten",
        "start_date": "1976"
      }
    },
    {
      "id": "way/135847028",
      "osm_id": 135847028,
      "osm_type": "way",
      "name": "Fără nume",
      "category": "education",
      "lat": 44.1594872,
      "lon": 28.6273178,
      "tags": {
        "building": "kindergarten",
        "start_date": "1974",
        "website": "https://www.facebook.com/Gradinita57/"
      }
    },
    {
      "id": "way/135847030",
      "osm_id": 135847030,
      "osm_type": "way",
      "name": "Fără nume",
      "category": "education",
      "lat": 44.1616542,
      "lon": 28.6309223,
      "tags": {
        "building": "school",
        "building:levels": "1.5",
        "roof:shape": "flat"
      }
    },
    {
      "id": "way/135847049",
      "osm_id": 135847049,
      "osm_type": "way",
      "name": "Fără nume",
      "category": "education",
      "lat": 44.1621197,
      "lon": 28.6314846,
      "tags": {
        "building": "school",
        "building:levels": "2"
      }
    },
    {
      "id": "way/135848536",
      "osm_id": 135848536,
      "osm_type": "way",
      "name": "Fără nume",
      "category": "education",
      "lat": 44.1748241,
      "lon": 28.6426436,
      "tags": {
        "building": "school",
        "building:levels": "3",
        "is_in": "Constanța;România",
        "start_date": "1963"
      }
    },
    {
      "id": "way/135851125",
      "osm_id": 135851125,
      "osm_type": "way",
      "name": "Amfiteatru",
      "category": "education",
      "lat": 44.1831545,
      "lon": 28.6461779,
      "tags": {
        "building": "school",
        "building:levels": "1",
        "name": "Amfiteatru",
        "source": "survey, Bing, local info"
      }
    },
    {
      "id": "way/135851132",
      "osm_id": 135851132,
      "osm_type": "way",
      "name": "Fără nume",
      "category": "education",
      "lat": 44.1828084,
      "lon": 28.6457688,
      "tags": {
        "building": "school",
        "building:levels": "3",
        "source": "survey, Bing, local info",
        "start_date": "1970"
      }
    },
    {
      "id": "way/135869696",
      "osm_id": 135869696,
      "osm_type": "way",
      "name": "Fără nume",
      "category": "education",
      "lat": 44.1730066,
      "lon": 28.6029881,
      "tags": {
        "building": "school"
      }
    },
    {
      "id": "way/135869702",
      "osm_id": 135869702,
      "osm_type": "way",
      "name": "Fără nume",
      "category": "education",
      "lat": 44.1589048,
      "lon": 28.5894056,
      "tags": {
        "building": "school",
        "building:levels": "3",
        "disused": "yes",
        "start_date": "1974"
      }
    },
    {
      "id": "way/135869724",
      "osm_id": 135869724,
      "osm_type": "way",
      "name": "Fără nume",
      "category": "education",
      "lat": 44.1725251,
      "lon": 28.6022922,
      "tags": {
        "building": "school"
      }
    },
    {
      "id": "way/135869727",
      "osm_id": 135869727,
      "osm_type": "way",
      "name": "Fără nume",
      "category": "education",
      "lat": 44.2028705,
      "lon": 28.6178772,
      "tags": {
        "building": "kindergarten",
        "building:levels": "3",
        "start_date": "1967"
      }
    },
    {
      "id": "way/135871334",
      "osm_id": 135871334,
      "osm_type": "way",
      "name": "Fără nume",
      "category": "education",
      "lat": 44.190448,
      "lon": 28.6211085,
      "tags": {
        "building": "school"
      }
    },
    {
      "id": "way/135972940",
      "osm_id": 135972940,
      "osm_type": "way",
      "name": "Fără nume",
      "category": "education",
      "lat": 44.1714413,
      "lon": 28.635303,
      "tags": {
        "addr:city": "Constanța",
        "addr:housenumber": "2",
        "addr:street": "Stradela Basarab",
        "building": "school",
        "start_date": "1972"
      }
    },
    {
      "id": "way/135998620",
      "osm_id": 135998620,
      "osm_type": "way",
      "name": "Academia Navală „Mircea cel Bătrân”",
      "category": "education",
      "lat": 44.1829819,
      "lon": 28.6162611,
      "tags": {
        "addr:city": "Constanța",
        "addr:housenumber": "1",
        "addr:street": "Strada Fulgerului",
        "amenity": "university",
        "building": "yes",
        "name": "Academia Navală „Mircea cel Bătrân”"
      }
    },
    {
      "id": "way/135999837",
      "osm_id": 135999837,
      "osm_type": "way",
      "name": "Fără nume",
      "category": "education",
      "lat": 44.1741265,
      "lon": 28.6241973,
      "tags": {
        "building": "kindergarten",
        "building:levels": "3"
      }
    },
    {
      "id": "way/136052996",
      "osm_id": 136052996,
      "osm_type": "way",
      "name": "Fără nume",
      "category": "education",
      "lat": 44.1393845,
      "lon": 28.6207213,
      "tags": {
        "building": "school"
      }
    },
    {
      "id": "way/162542503",
      "osm_id": 162542503,
      "osm_type": "way",
      "name": "Liceul Teoretic „Lucian Blaga”",
      "category": "education",
      "lat": 44.1426334,
      "lon": 28.6286692,
      "tags": {
        "addr:city": "Constanța",
        "addr:housenumber": "3-5",
        "addr:street": "Strada Mărțișor",
        "amenity": "school",
        "name": "Liceul Teoretic „Lucian Blaga”",
        "old_name": "Școala Generală nr. 41"
      }
    },
    {
      "id": "way/164429177",
      "osm_id": 164429177,
      "osm_type": "way",
      "name": "Fără nume",
      "category": "education",
      "lat": 44.1434922,
      "lon": 28.6131873,
      "tags": {
        "building": "school",
        "start_date": "1967"
      }
    },
    {
      "id": "way/185652243",
      "osm_id": 185652243,
      "osm_type": "way",
      "name": "Fără nume",
      "category": "education",
      "lat": 43.8111116,
      "lon": 28.5765314,
      "tags": {
        "amenity": "school",
        "building": "yes",
        "education": "school"
      }
    },
    {
      "id": "way/185652246",
      "osm_id": 185652246,
      "osm_type": "way",
      "name": "Sf. Andrei",
      "category": "education",
      "lat": 43.8115869,
      "lon": 28.5766007,
      "tags": {
        "amenity": "school",
        "building": "yes",
        "education": "school",
        "name": "Sf. Andrei"
      }
    },
    {
      "id": "way/195324404",
      "osm_id": 195324404,
      "osm_type": "way",
      "name": "Fără nume",
      "category": "education",
      "lat": 44.1951021,
      "lon": 28.6303775,
      "tags": {
        "building": "kindergarten",
        "is_in:city": "Constanța",
        "start_date": "1960"
      }
    },
    {
      "id": "way/200060394",
      "osm_id": 200060394,
      "osm_type": "way",
      "name": "Fără nume",
      "category": "education",
      "lat": 43.8108104,
      "lon": 28.5828974,
      "tags": {
        "addr:city": "Mangalia",
        "addr:housenumber": "2",
        "addr:street": "Strada Oituz",
        "building": "school",
        "building:levels": "2"
      }
    },
    {
      "id": "way/220490288",
      "osm_id": 220490288,
      "osm_type": "way",
      "name": "Fără nume",
      "category": "education",
      "lat": 43.8044612,
      "lon": 28.5760771,
      "tags": {
        "building": "school"
      }
    },
    {
      "id": "way/220490289",
      "osm_id": 220490289,
      "osm_type": "way",
      "name": "Grupul Școlar Industrial Ion Bănescu",
      "category": "education",
      "lat": 43.8050514,
      "lon": 28.5763142,
      "tags": {
        "amenity": "school",
        "name": "Grupul Școlar Industrial Ion Bănescu"
      }
    },
    {
      "id": "way/220490290",
      "osm_id": 220490290,
      "osm_type": "way",
      "name": "Fără nume",
      "category": "education",
      "lat": 43.8047018,
      "lon": 28.5760566,
      "tags": {
        "building": "school"
      }
    },
    {
      "id": "way/220490291",
      "osm_id": 220490291,
      "osm_type": "way",
      "name": "Grupul Școlar Industrial Ion Bănescu",
      "category": "education",
      "lat": 43.8045233,
      "lon": 28.5748428,
      "tags": {
        "addr:city": "Mangalia",
        "addr:housenumber": "19",
        "addr:postcode": "905500",
        "addr:street": "Strada Negru Vodă",
        "building": "school",
        "name": "Grupul Școlar Industrial Ion Bănescu",
        "website": "gsibanescu.licee.edu.ro"
      }
    },
    {
      "id": "way/220490292",
      "osm_id": 220490292,
      "osm_type": "way",
      "name": "Fără nume",
      "category": "education",
      "lat": 43.8041691,
      "lon": 28.5756393,
      "tags": {
        "building": "school"
      }
    },
    {
      "id": "way/220568859",
      "osm_id": 220568859,
      "osm_type": "way",
      "name": "Fără nume",
      "category": "education",
      "lat": 43.8240025,
      "lon": 28.5849505,
      "tags": {
        "building": "school"
      }
    },
    {
      "id": "way/220570634",
      "osm_id": 220570634,
      "osm_type": "way",
      "name": "Grădinița cu program normal nr. 2",
      "category": "education",
      "lat": 43.8249972,
      "lon": 28.5834634,
      "tags": {
        "addr:city": "Mangalia",
        "addr:street": "Strada Rozelor",
        "building": "kindergarten",
        "building:levels": "2",
        "name": "Grădinița cu program normal nr. 2"
      }
    },
    {
      "id": "way/220711514",
      "osm_id": 220711514,
      "osm_type": "way",
      "name": "Liceul Economic",
      "category": "education",
      "lat": 43.8121695,
      "lon": 28.5807006,
      "tags": {
        "amenity": "school",
        "name": "Liceul Economic"
      }
    },
    {
      "id": "way/221351146",
      "osm_id": 221351146,
      "osm_type": "way",
      "name": "Fără nume",
      "category": "education",
      "lat": 44.0915004,
      "lon": 28.6141537,
      "tags": {
        "building": "kindergarten"
      }
    },
    {
      "id": "way/225525428",
      "osm_id": 225525428,
      "osm_type": "way",
      "name": "Fără nume",
      "category": "education",
      "lat": 43.8064458,
      "lon": 28.5736809,
      "tags": {
        "addr:postcode": "905500",
        "addr:street": "Strada Negru Vodă",
        "building": "kindergarten"
      }
    },
    {
      "id": "way/232524677",
      "osm_id": 232524677,
      "osm_type": "way",
      "name": "Fără nume",
      "category": "education",
      "lat": 44.1462814,
      "lon": 28.6291595,
      "tags": {
        "building": "kindergarten",
        "source": "bing",
        "start_date": "1975"
      }
    },
    {
      "id": "way/232524682",
      "osm_id": 232524682,
      "osm_type": "way",
      "name": "Fără nume",
      "category": "education",
      "lat": 44.1464279,
      "lon": 28.6306466,
      "tags": {
        "building": "school",
        "source": "bing"
      }
    },
    {
      "id": "way/259158367",
      "osm_id": 259158367,
      "osm_type": "way",
      "name": "Fără nume",
      "category": "education",
      "lat": 44.3203331,
      "lon": 28.6099558,
      "tags": {
        "building": "school"
      }
    },
    {
      "id": "way/259158372",
      "osm_id": 259158372,
      "osm_type": "way",
      "name": "Fără nume",
      "category": "education",
      "lat": 44.3203852,
      "lon": 28.6093207,
      "tags": {
        "building": "school"
      }
    },
    {
      "id": "way/259158375",
      "osm_id": 259158375,
      "osm_type": "way",
      "name": "Fără nume",
      "category": "education",
      "lat": 44.3195751,
      "lon": 28.6107562,
      "tags": {
        "building": "school"
      }
    },
    {
      "id": "way/259159855",
      "osm_id": 259159855,
      "osm_type": "way",
      "name": "Fără nume",
      "category": "education",
      "lat": 44.3190805,
      "lon": 28.6128346,
      "tags": {
        "building": "school"
      }
    },
    {
      "id": "way/263775050",
      "osm_id": 263775050,
      "osm_type": "way",
      "name": "Grădinița Nr. 23",
      "category": "education",
      "lat": 44.1815603,
      "lon": 28.63849,
      "tags": {
        "addr:housenumber": "48",
        "addr:street": "Strada Călărași",
        "amenity": "kindergarten",
        "building": "kindergarten",
        "building:levels": "1",
        "name": "Grădinița Nr. 23",
        "start_date": "1905"
      }
    },
    {
      "id": "way/263775052",
      "osm_id": 263775052,
      "osm_type": "way",
      "name": "Fără nume",
      "category": "education",
      "lat": 44.181662,
      "lon": 28.6387976,
      "tags": {
        "addr:city": "Constanța",
        "addr:housenumber": "48",
        "addr:street": "Strada Călărași",
        "building": "school",
        "building:levels": "2",
        "source": "survey, Bing, local info",
        "start_date": "1921"
      }
    },
    {
      "id": "way/264455614",
      "osm_id": 264455614,
      "osm_type": "way",
      "name": "Școala nr. 1",
      "category": "education",
      "lat": 43.8190445,
      "lon": 28.5723393,
      "tags": {
        "addr:city": "Mangalia",
        "building": "school",
        "name": "Școala nr. 1"
      }
    },
    {
      "id": "way/264455615",
      "osm_id": 264455615,
      "osm_type": "way",
      "name": "Fără nume",
      "category": "education",
      "lat": 43.8188986,
      "lon": 28.5732165,
      "tags": {
        "addr:city": "Mangalia",
        "addr:postcode": "90500",
        "addr:street": "Strada Matei Basarab",
        "building": "school"
      }
    },
    {
      "id": "way/264455617",
      "osm_id": 264455617,
      "osm_type": "way",
      "name": "Fără nume",
      "category": "education",
      "lat": 43.818814,
      "lon": 28.5738078,
      "tags": {
        "building": "kindergarten"
      }
    },
    {
      "id": "way/272841971",
      "osm_id": 272841971,
      "osm_type": "way",
      "name": "Fără nume",
      "category": "education",
      "lat": 44.1746859,
      "lon": 28.6560837,
      "tags": {
        "building": "kindergarten",
        "building:levels": "3",
        "heritage": "2",
        "heritage:operator": "lmi",
        "ref:RO:lmi": "CT-II-m-B-02840",
        "roof:levels": "0",
        "start_date": "1901"
      }
    },
    {
      "id": "way/277706304",
      "osm_id": 277706304,
      "osm_type": "way",
      "name": "Liceul Teoretic „Anghel Saligny”",
      "category": "education",
      "lat": 44.340872,
      "lon": 28.0324758,
      "tags": {
        "building": "school",
        "name": "Liceul Teoretic „Anghel Saligny”"
      }
    },
    {
      "id": "way/294775096",
      "osm_id": 294775096,
      "osm_type": "way",
      "name": "Școala Generală cu clasele I-VIII Adrian V. Rădulescu",
      "category": "education",
      "lat": 44.1781419,
      "lon": 28.406992,
      "tags": {
        "building": "school",
        "name": "Școala Generală cu clasele I-VIII Adrian V. Rădulescu"
      }
    },
    {
      "id": "way/294775097",
      "osm_id": 294775097,
      "osm_type": "way",
      "name": "Fără nume",
      "category": "education",
      "lat": 44.1782734,
      "lon": 28.4074103,
      "tags": {
        "building": "school"
      }
    },
    {
      "id": "way/303784470",
      "osm_id": 303784470,
      "osm_type": "way",
      "name": "Colegiul Agricol Poarta Albă",
      "category": "education",
      "lat": 44.2235658,
      "lon": 28.4082093,
      "tags": {
        "addr:city": "Poarta Albă",
        "addr:housenumber": "1",
        "addr:postcode": "907245",
        "addr:street": "Strada Palatului",
        "amenity": "school",
        "name": "Colegiul Agricol Poarta Albă"
      }
    },
    {
      "id": "way/303784478",
      "osm_id": 303784478,
      "osm_type": "way",
      "name": "Fără nume",
      "category": "education",
      "lat": 44.2231502,
      "lon": 28.4085837,
      "tags": {
        "building": "school"
      }
    },
    {
      "id": "way/310417063",
      "osm_id": 310417063,
      "osm_type": "way",
      "name": "Facultatea de Medicină Dentară",
      "category": "education",
      "lat": 44.1780072,
      "lon": 28.6457507,
      "tags": {
        "addr:housenumber": "7",
        "addr:street": "Strada Ilarie Voronca",
        "amenity": "university",
        "name": "Facultatea de Medicină Dentară",
        "operator": "Universitatea Ovidius Constanța",
        "operator:type": "public"
      }
    },
    {
      "id": "way/319376136",
      "osm_id": 319376136,
      "osm_type": "way",
      "name": "Școala Publică nr. 1",
      "category": "education",
      "lat": 44.2267112,
      "lon": 28.4313836,
      "tags": {
        "addr:city": "Nazarcea",
        "addr:housenumber": "20",
        "addr:postcode": "907246",
        "addr:postcode:source": "Date de la Poșta Română, publicate sub Licența pentru Guvernare Deschisă v1.0 la http://date.gov.ro/organization/posta-romana",
        "addr:street": "Calea Ovidiu",
        "amenity": "school",
        "building": "school",
        "name": "Școala Publică nr. 1"
      }
    },
    {
      "id": "way/321266654",
      "osm_id": 321266654,
      "osm_type": "way",
      "name": "Școala gimnazială Mihai Eminescu",
      "category": "education",
      "lat": 43.949749,
      "lon": 28.6323765,
      "tags": {
        "amenity": "school",
        "building": "yes",
        "name": "Școala gimnazială Mihai Eminescu"
      }
    },
    {
      "id": "way/331519196",
      "osm_id": 331519196,
      "osm_type": "way",
      "name": "Liceul Teoretic Murfatlar",
      "category": "education",
      "lat": 44.1756087,
      "lon": 28.4197978,
      "tags": {
        "addr:housenumber": "50",
        "addr:street": "Strada Mihai Eminescu",
        "amenity": "school",
        "name": "Liceul Teoretic Murfatlar",
        "postal_code": "905100"
      }
    },
    {
      "id": "way/332095017",
      "osm_id": 332095017,
      "osm_type": "way",
      "name": "Fără nume",
      "category": "education",
      "lat": 44.1894002,
      "lon": 28.6445576,
      "tags": {
        "building": "kindergarten",
        "start_date": "1969"
      }
    },
    {
      "id": "way/354479933",
      "osm_id": 354479933,
      "osm_type": "way",
      "name": "Fără nume",
      "category": "education",
      "lat": 44.1840005,
      "lon": 28.6512437,
      "tags": {
        "building": "school",
        "building:levels": "3",
        "start_date": "1966"
      }
    },
    {
      "id": "way/361067081",
      "osm_id": 361067081,
      "osm_type": "way",
      "name": "Fără nume",
      "category": "education",
      "lat": 44.3213223,
      "lon": 28.6067888,
      "tags": {
        "addr:city": "Năvodari",
        "building": "school",
        "source": "survey"
      }
    },
    {
      "id": "way/366778947",
      "osm_id": 366778947,
      "osm_type": "way",
      "name": "Corp A",
      "category": "education",
      "lat": 44.1548035,
      "lon": 28.6139453,
      "tags": {
        "building": "school",
        "name": "Corp A",
        "start_date": "1971"
      }
    },
    {
      "id": "way/372167617",
      "osm_id": 372167617,
      "osm_type": "way",
      "name": "Fără nume",
      "category": "education",
      "lat": 44.1694124,
      "lon": 28.5803241,
      "tags": {
        "building": "school",
        "building:levels": "3",
        "start_date": "1968"
      }
    },
    {
      "id": "way/377938247",
      "osm_id": 377938247,
      "osm_type": "way",
      "name": "Corp B",
      "category": "education",
      "lat": 44.1668557,
      "lon": 28.5842902,
      "tags": {
        "building": "school",
        "building:levels": "2",
        "name": "Corp B",
        "start_date": "2007"
      }
    },
    {
      "id": "way/377950004",
      "osm_id": 377950004,
      "osm_type": "way",
      "name": "Grădinița cu program normal „Hänsel și Gretel”",
      "category": "education",
      "lat": 44.1922751,
      "lon": 28.6407222,
      "tags": {
        "addr:city": "Constanța",
        "addr:housenumber": "11",
        "addr:postcode": "900627",
        "addr:postcode:source": "Date de la Poșta Română, publicate sub Licența pentru Guvernare Deschisă v1.0 la http://date.gov.ro/organization/posta-romana",
        "addr:street": "Strada Radu Calomfirescu",
        "amenity": "kindergarten",
        "education": "kindergarten",
        "name": "Grădinița cu program normal „Hänsel și Gretel”",
        "old_name": "Grădinița nr. 17"
      }
    },
    {
      "id": "way/380522552",
      "osm_id": 380522552,
      "osm_type": "way",
      "name": "Liceul Teoretic Carmen Sylva",
      "category": "education",
      "lat": 44.0200168,
      "lon": 28.6529356,
      "tags": {
        "addr:city": "Eforie Sud",
        "amenity": "college",
        "building": "yes",
        "name": "Liceul Teoretic Carmen Sylva"
      }
    },
    {
      "id": "way/386999342",
      "osm_id": 386999342,
      "osm_type": "way",
      "name": "Școala Primară Ion Creangă",
      "category": "education",
      "lat": 43.9429801,
      "lon": 28.6265121,
      "tags": {
        "amenity": "school",
        "building": "yes",
        "name": "Școala Primară Ion Creangă"
      }
    },
    {
      "id": "way/387001947",
      "osm_id": 387001947,
      "osm_type": "way",
      "name": "Grădinița cu Program Normal",
      "category": "education",
      "lat": 43.9498387,
      "lon": 28.6320313,
      "tags": {
        "amenity": "kindergarten",
        "building": "yes",
        "name": "Grădinița cu Program Normal"
      }
    },
    {
      "id": "way/404433259",
      "osm_id": 404433259,
      "osm_type": "way",
      "name": "Fără nume",
      "category": "education",
      "lat": 44.181328,
      "lon": 28.6431722,
      "tags": {
        "building": "kindergarten",
        "start_date": "1904"
      }
    },
    {
      "id": "way/404674905",
      "osm_id": 404674905,
      "osm_type": "way",
      "name": "Fără nume",
      "category": "education",
      "lat": 44.0168576,
      "lon": 28.4552968,
      "tags": {
        "building": "school"
      }
    },
    {
      "id": "way/449272120",
      "osm_id": 449272120,
      "osm_type": "way",
      "name": "Fără nume",
      "category": "education",
      "lat": 44.1710652,
      "lon": 28.599533,
      "tags": {
        "building": "kindergarten",
        "start_date": "1955"
      }
    },
    {
      "id": "way/454824149",
      "osm_id": 454824149,
      "osm_type": "way",
      "name": "Fără nume",
      "category": "education",
      "lat": 44.1837247,
      "lon": 28.6109623,
      "tags": {
        "building": "kindergarten"
      }
    },
    {
      "id": "way/477150397",
      "osm_id": 477150397,
      "osm_type": "way",
      "name": "Gradinita nr 1 Murfatlar",
      "category": "education",
      "lat": 44.1753887,
      "lon": 28.4151562,
      "tags": {
        "amenity": "kindergarten",
        "name": "Gradinita nr 1 Murfatlar"
      }
    },
    {
      "id": "way/489011455",
      "osm_id": 489011455,
      "osm_type": "way",
      "name": "Liceul Teoretic",
      "category": "education",
      "lat": 44.0663852,
      "lon": 27.6970551,
      "tags": {
        "building": "school",
        "name": "Liceul Teoretic"
      }
    },
    {
      "id": "way/533015691",
      "osm_id": 533015691,
      "osm_type": "way",
      "name": "Fără nume",
      "category": "education",
      "lat": 43.825,
      "lon": 28.5834443,
      "tags": {
        "addr:city": "Mangalia",
        "addr:street": "Strada Rozelor",
        "amenity": "kindergarten",
        "operator": "Grădinița cu program normal nr. 2"
      }
    },
    {
      "id": "way/533016183",
      "osm_id": 533016183,
      "osm_type": "way",
      "name": "Liceul Teoretic Callatis",
      "category": "education",
      "lat": 43.8247061,
      "lon": 28.5845098,
      "tags": {
        "addr:city": "Mangalia",
        "addr:street": "Strada Rozelor",
        "amenity": "college",
        "name": "Liceul Teoretic Callatis",
        "operator": "Liceul Teoretic \"Callatis\""
      }
    },
    {
      "id": "way/589138988",
      "osm_id": 589138988,
      "osm_type": "way",
      "name": "Fără nume",
      "category": "education",
      "lat": 43.7999909,
      "lon": 28.4298817,
      "tags": {
        "amenity": "school",
        "building": "yes"
      }
    },
    {
      "id": "way/589267616",
      "osm_id": 589267616,
      "osm_type": "way",
      "name": "Primăria Limanu",
      "category": "education",
      "lat": 43.8002516,
      "lon": 28.5322056,
      "tags": {
        "addr:city": "Limanu",
        "addr:postcode": "907160",
        "addr:street": "Strada Bradului",
        "amenity": "townhall",
        "building": "school",
        "name": "Primăria Limanu"
      }
    },
    {
      "id": "way/589267627",
      "osm_id": 589267627,
      "osm_type": "way",
      "name": "Școala generală Limanu",
      "category": "education",
      "lat": 43.8013003,
      "lon": 28.5312046,
      "tags": {
        "addr:city": "Limanu",
        "addr:postcode": "907160",
        "addr:street": "Strada Căminului",
        "building": "school",
        "name": "Școala generală Limanu"
      }
    },
    {
      "id": "way/589708795",
      "osm_id": 589708795,
      "osm_type": "way",
      "name": "Liceul Teoretic Negru Vodă",
      "category": "education",
      "lat": 43.817332,
      "lon": 28.208354,
      "tags": {
        "building": "school",
        "name": "Liceul Teoretic Negru Vodă"
      }
    },
    {
      "id": "way/609877381",
      "osm_id": 609877381,
      "osm_type": "way",
      "name": "Fără nume",
      "category": "education",
      "lat": 43.8116553,
      "lon": 28.5808418,
      "tags": {
        "building": "school"
      }
    },
    {
      "id": "way/610500348",
      "osm_id": 610500348,
      "osm_type": "way",
      "name": "Fără nume",
      "category": "education",
      "lat": 44.1855188,
      "lon": 28.6296872,
      "tags": {
        "building": "kindergarten",
        "start_date": "1934"
      }
    },
    {
      "id": "way/625067309",
      "osm_id": 625067309,
      "osm_type": "way",
      "name": "Școala Gimnazială Nr. 3 „Ciprian Porumbescu”",
      "category": "education",
      "lat": 44.2017546,
      "lon": 28.6506019,
      "tags": {
        "addr:city": "Constanța",
        "addr:housenumber": "3A",
        "addr:street": "Strada Ciprian Porumbescu",
        "amenity": "school",
        "check_date": "2024-10-10",
        "name": "Școala Gimnazială Nr. 3 „Ciprian Porumbescu”"
      }
    },
    {
      "id": "way/625077228",
      "osm_id": 625077228,
      "osm_type": "way",
      "name": "Facultatea de Construcții",
      "category": "education",
      "lat": 44.1964606,
      "lon": 28.6523877,
      "tags": {
        "addr:city": "Constanța",
        "addr:housenumber": "22B",
        "addr:street": "Strada Unirii",
        "amenity": "university",
        "name": "Facultatea de Construcții",
        "operator": "Universitatea Ovidius Constanța",
        "website": "https://constructii.univ-ovidius.ro/"
      }
    },
    {
      "id": "way/625077229",
      "osm_id": 625077229,
      "osm_type": "way",
      "name": "Școala Gimnazială Nr. 43 „Ferdinand”",
      "category": "education",
      "lat": 44.1958403,
      "lon": 28.6527786,
      "tags": {
        "addr:housenumber": "22",
        "addr:street": "Strada Unirii",
        "amenity": "school",
        "name": "Școala Gimnazială Nr. 43 „Ferdinand”",
        "wheelchair": "limited"
      }
    },
    {
      "id": "way/625257939",
      "osm_id": 625257939,
      "osm_type": "way",
      "name": "Școala Gimnazială Nr. 6 „Nicolae Titulescu”",
      "category": "education",
      "lat": 44.1987073,
      "lon": 28.6339966,
      "tags": {
        "addr:city": "Constanța",
        "addr:housenumber": "2",
        "addr:street": "Aleea Cameliei",
        "amenity": "school",
        "name": "Școala Gimnazială Nr. 6 „Nicolae Titulescu”"
      }
    },
    {
      "id": "way/625257954",
      "osm_id": 625257954,
      "osm_type": "way",
      "name": "Școala Gimnazială Nr. 7 „Remus Opreanu”",
      "category": "education",
      "lat": 44.2037378,
      "lon": 28.627152,
      "tags": {
        "addr:city": "Constanța",
        "addr:housenumber": "4",
        "addr:postcode": "900455",
        "addr:postcode:source": "Date de la Poșta Română, publicate sub Licența pentru Guvernare Deschisă v1.0 la http://date.gov.ro/organization/posta-romana",
        "addr:street": "Strada Adamclisi",
        "amenity": "school",
        "name": "Școala Gimnazială Nr. 7 „Remus Opreanu”",
        "name:en": "School Nr.7 ”Remus Opreanu”",
        "name:ja": "レムス・オプレアヌ第7学校"
      }
    },
    {
      "id": "way/625375716",
      "osm_id": 625375716,
      "osm_type": "way",
      "name": "Colegiul Național Pedagogic „Constantin Brătescu”",
      "category": "education",
      "lat": 44.1827114,
      "lon": 28.6462737,
      "tags": {
        "addr:city": "Constanța",
        "addr:housenumber": "42",
        "addr:street": "Strada Răscoala din 1907",
        "alt_name": "Liceul Pedagogic",
        "amenity": "school",
        "name": "Colegiul Național Pedagogic „Constantin Brătescu”"
      }
    },
    {
      "id": "way/626373719",
      "osm_id": 626373719,
      "osm_type": "way",
      "name": "Școala Gimnazială Nr. 8",
      "category": "education",
      "lat": 44.1717106,
      "lon": 28.6165607,
      "tags": {
        "addr:city": "Constanța",
        "addr:housenumber": "68",
        "addr:postcode": "900263",
        "addr:street": "Bulevardul I. C. Brătianu",
        "amenity": "school",
        "email": "scoalanr8cta@yahoo.com",
        "name": "Școala Gimnazială Nr. 8"
      }
    },
    {
      "id": "way/626375081",
      "osm_id": 626375081,
      "osm_type": "way",
      "name": "Școala Gimnazială Nr. 10 „Mihail Koiciu”",
      "category": "education",
      "lat": 44.1862389,
      "lon": 28.6294405,
      "tags": {
        "addr:city": "Constanța",
        "addr:housenumber": "26",
        "addr:street": "Strada Izvor",
        "amenity": "school",
        "name": "Școala Gimnazială Nr. 10 „Mihail Koiciu”",
        "operator": "Inspectoratul Școlar Județean Constanța"
      }
    },
    {
      "id": "way/626375082",
      "osm_id": 626375082,
      "osm_type": "way",
      "name": "Fără nume",
      "category": "education",
      "lat": 44.1862397,
      "lon": 28.6289521,
      "tags": {
        "building": "school",
        "building:levels": "2",
        "start_date": "1954"
      }
    },
    {
      "id": "way/626375083",
      "osm_id": 626375083,
      "osm_type": "way",
      "name": "Corp B",
      "category": "education",
      "lat": 44.1860243,
      "lon": 28.6299117,
      "tags": {
        "addr:city": "Constanța",
        "addr:housenumber": "50",
        "addr:street": "Strada Străjerului",
        "building": "school",
        "building:levels": "2",
        "name": "Corp B",
        "roof:shape": "hipped",
        "start_date": "1949"
      }
    },
    {
      "id": "way/626376332",
      "osm_id": 626376332,
      "osm_type": "way",
      "name": "Școala Gimnazială Nr. 11 „Dr. Constantin Angelescu”",
      "category": "education",
      "lat": 44.1817118,
      "lon": 28.6387209,
      "tags": {
        "addr:city": "Constanța",
        "addr:housenumber": "48",
        "addr:street": "Strada Călărași",
        "amenity": "school",
        "name": "Școala Gimnazială Nr. 11 „Dr. Constantin Angelescu”",
        "operator": "Inspectoratul Școlar Județean Constanța"
      }
    },
    {
      "id": "way/627186622",
      "osm_id": 627186622,
      "osm_type": "way",
      "name": "Grădinița cu Program Prelungit Nr. 45",
      "category": "education",
      "lat": 44.2022293,
      "lon": 28.6499461,
      "tags": {
        "addr:city": "Constanța",
        "addr:housenumber": "68",
        "addr:postcode": "900540",
        "addr:street": "Strada Unirii",
        "amenity": "kindergarten",
        "name": "Grădinița cu Program Prelungit Nr. 45"
      }
    },
    {
      "id": "way/627374465",
      "osm_id": 627374465,
      "osm_type": "way",
      "name": "Fără nume",
      "category": "education",
      "lat": 44.1842281,
      "lon": 28.6510683,
      "tags": {
        "building": "school",
        "building:levels": "3",
        "height": "14.3",
        "roof:direction": "225",
        "roof:height": "1.7",
        "roof:shape": "skillion"
      }
    },
    {
      "id": "way/627374470",
      "osm_id": 627374470,
      "osm_type": "way",
      "name": "Colegiul Comercial „Carol I”",
      "category": "education",
      "lat": 44.1839894,
      "lon": 28.6507638,
      "tags": {
        "addr:city": "Constanța",
        "addr:housenumber": "15",
        "addr:postcode": "900665",
        "addr:street": "Strada Decebal",
        "amenity": "school",
        "name": "Colegiul Comercial „Carol I”"
      }
    },
    {
      "id": "way/627374474",
      "osm_id": 627374474,
      "osm_type": "way",
      "name": "Școala Gimnazială Nr. 28 „Dan Barbilian”",
      "category": "education",
      "lat": 44.1839097,
      "lon": 28.6513169,
      "tags": {
        "addr:city": "Constanța",
        "addr:housenumber": "15",
        "addr:street": "Strada Decebal",
        "amenity": "school",
        "name": "Școala Gimnazială Nr. 28 „Dan Barbilian”"
      }
    },
    {
      "id": "way/627624971",
      "osm_id": 627624971,
      "osm_type": "way",
      "name": "Colegiul Național de Arte „Regina Maria”",
      "category": "education",
      "lat": 44.1834005,
      "lon": 28.6336488,
      "tags": {
        "addr:city": "Constanța",
        "addr:housenumber": "11",
        "addr:street": "Bulevardul Alexandru Lăpușneanu",
        "amenity": "school",
        "name": "Colegiul Național de Arte „Regina Maria”",
        "name:ja": "レジナ・マリア芸術高校",
        "old_name:1984-1990": "Școala Generală nr. 42",
        "old_name:1990-2006": "Liceul de Artă"
      }
    },
    {
      "id": "way/627626851",
      "osm_id": 627626851,
      "osm_type": "way",
      "name": "Fără nume",
      "category": "education",
      "lat": 44.1749139,
      "lon": 28.6555702,
      "tags": {
        "architect": "George Mandrea",
        "building": "school",
        "building:levels": "2",
        "heritage": "2",
        "heritage:operator": "lmi",
        "ref:RO:lmi": "CT-II-m-A-02855",
        "roof:levels": "1",
        "roof:shape": "pyramidal",
        "start_date": "1908"
      }
    },
    {
      "id": "way/627626853",
      "osm_id": 627626853,
      "osm_type": "way",
      "name": "Fără nume",
      "category": "education",
      "lat": 44.1747039,
      "lon": 28.6556323,
      "tags": {
        "building": "school",
        "building:levels": "3",
        "roof:levels": "0",
        "roof:shape": "flat"
      }
    },
    {
      "id": "way/627626855",
      "osm_id": 627626855,
      "osm_type": "way",
      "name": "Fără nume",
      "category": "education",
      "lat": 44.1747115,
      "lon": 28.6552322,
      "tags": {
        "building": "school",
        "building:levels": "2",
        "roof:levels": "1"
      }
    },
    {
      "id": "way/627626859",
      "osm_id": 627626859,
      "osm_type": "way",
      "name": "Colegiul Național „Mihai Eminescu”",
      "category": "education",
      "lat": 44.1747062,
      "lon": 28.6553044,
      "tags": {
        "addr:city": "Constanța",
        "addr:housenumber": "19",
        "addr:postcode": "900743",
        "addr:street": "Strada Traian",
        "amenity": "school",
        "education": "school",
        "name": "Colegiul Național „Mihai Eminescu”",
        "name:ja": "ミハイ・エミネスク 高校"
      }
    },
    {
      "id": "way/627631352",
      "osm_id": 627631352,
      "osm_type": "way",
      "name": "Fără nume",
      "category": "education",
      "lat": 44.1811595,
      "lon": 28.6510086,
      "tags": {
        "addr:housenumber": "6",
        "addr:street": "Strada Ștefan cel Mare",
        "building": "school",
        "building:levels": "2",
        "height": "13",
        "level": "0;0.5;1;2",
        "roof:levels": "1"
      }
    },
    {
      "id": "way/627631353",
      "osm_id": 627631353,
      "osm_type": "way",
      "name": "Fără nume",
      "category": "education",
      "lat": 44.1810401,
      "lon": 28.6515258,
      "tags": {
        "building": "school",
        "building:levels": "2",
        "building:levels:underground": "1",
        "height": "13",
        "roof:levels": "1",
        "roof:shape": "hipped"
      }
    },
    {
      "id": "way/627631357",
      "osm_id": 627631357,
      "osm_type": "way",
      "name": "Colegiul Național „Mircea cel Bătrân”",
      "category": "education",
      "lat": 44.1811595,
      "lon": 28.6510895,
      "tags": {
        "addr:city": "Constanța",
        "addr:housenumber": "6",
        "addr:street": "Strada Ștefan cel Mare",
        "amenity": "school",
        "email": "contact@cnmbct.ro",
        "grades": "5-12",
        "internet_access": "wlan",
        "name": "Colegiul Național „Mircea cel Bătrân”",
        "phone": "+40 341 405 801",
        "short_name": "CNMB",
        "start_date": "1923",
        "website": "https://www.cnmbct.ro/",
        "wheelchair": "limited",
        "wikidata": "Q6873041",
        "wikipedia": "en:Mircea cel Bătrân National College (Constanța)"
      }
    },
    {
      "id": "way/627635126",
      "osm_id": 627635126,
      "osm_type": "way",
      "name": "Liceul Energetic",
      "category": "education",
      "lat": 44.2094992,
      "lon": 28.6445114,
      "tags": {
        "addr:city": "Constanța",
        "addr:housenumber": "284",
        "addr:street": "Bulevardul Mamaia",
        "amenity": "school",
        "name": "Liceul Energetic",
        "old_name:1976-1990": "Liceul Industrial nr. 2",
        "old_name:1990-2004": "Grup Școlar Energetic",
        "old_name:2004-2018": "Colegiul Tehnic Energetic"
      }
    },
    {
      "id": "way/627636106",
      "osm_id": 627636106,
      "osm_type": "way",
      "name": "Liceul Tehnologic „Pontica”",
      "category": "education",
      "lat": 44.1703554,
      "lon": 28.5810059,
      "tags": {
        "addr:housenumber": "248",
        "addr:street": "Bulevardul I. C. Brătianu",
        "amenity": "school",
        "name": "Liceul Tehnologic „Pontica”",
        "old_name:1966-1975": "Liceul Agricol",
        "old_name:1975-1991": "Liceul Agroindustrial",
        "old_name:1991-2007": "Grup Școlar Agricol",
        "old_name:2007-2018": "Colegiul Tehnic „Pontica”"
      }
    },
    {
      "id": "way/627640530",
      "osm_id": 627640530,
      "osm_type": "way",
      "name": "Seminarul Teologic „Sfântul Cuvios Dionisie Exiguul”",
      "category": "education",
      "lat": 44.1900688,
      "lon": 28.6395599,
      "tags": {
        "addr:city": "Constanța",
        "addr:housenumber": "153",
        "addr:postcode": "900647",
        "addr:street": "Bulevardul Tomis",
        "amenity": "school",
        "denomination": "orthodox",
        "name": "Seminarul Teologic „Sfântul Cuvios Dionisie Exiguul”",
        "religion": "christian"
      }
    },
    {
      "id": "way/627640533",
      "osm_id": 627640533,
      "osm_type": "way",
      "name": "Liceul Internațional de Informatică",
      "category": "education",
      "lat": 44.1903419,
      "lon": 28.6401756,
      "tags": {
        "addr:city": "Constanța",
        "addr:housenumber": "153",
        "addr:postcode": "900647",
        "addr:street": "Bulevardul Tomis",
        "amenity": "school",
        "education": "school",
        "name": "Liceul Internațional de Informatică",
        "name:en": "The International Computer High School of Constanța"
      }
    },
    {
      "id": "way/627640535",
      "osm_id": 627640535,
      "osm_type": "way",
      "name": "Fără nume",
      "category": "education",
      "lat": 44.1910239,
      "lon": 28.6395688,
      "tags": {
        "building": "school",
        "building:levels": "2"
      }
    },
    {
      "id": "way/627640536",
      "osm_id": 627640536,
      "osm_type": "way",
      "name": "Fără nume",
      "category": "education",
      "lat": 44.1911494,
      "lon": 28.6389365,
      "tags": {
        "building": "school",
        "building:levels": "2"
      }
    },
    {
      "id": "way/627640537",
      "osm_id": 627640537,
      "osm_type": "way",
      "name": "Ateliere",
      "category": "education",
      "lat": 44.1908476,
      "lon": 28.638857,
      "tags": {
        "building": "school",
        "building:levels": "1",
        "name": "Ateliere"
      }
    },
    {
      "id": "way/627640538",
      "osm_id": 627640538,
      "osm_type": "way",
      "name": "Fără nume",
      "category": "education",
      "lat": 44.1906343,
      "lon": 28.6390484,
      "tags": {
        "building": "school",
        "building:levels": "2"
      }
    },
    {
      "id": "way/627640545",
      "osm_id": 627640545,
      "osm_type": "way",
      "name": "Liceul Tehnologic „Tomis”",
      "category": "education",
      "lat": 44.1907872,
      "lon": 28.6392005,
      "tags": {
        "addr:city": "Constanța",
        "addr:housenumber": "153",
        "addr:street": "Bulevardul Tomis",
        "amenity": "school",
        "name": "Liceul Tehnologic „Tomis”",
        "old_name:1974-1990": "Liceul Industrial nr. 4",
        "old_name:1990-2000": "Grup Școlar Industrial „Tomis”",
        "old_name:2000-2017": "Colegiul Tehnic „Tomis”"
      }
    },
    {
      "id": "way/627640552",
      "osm_id": 627640552,
      "osm_type": "way",
      "name": "Școala Gimnazială Nr. 30 „Gheorghe Țițeica”",
      "category": "education",
      "lat": 44.1897767,
      "lon": 28.6384879,
      "tags": {
        "addr:city": "Constanța",
        "addr:housenumber": "13",
        "addr:street": "Strada Flămânda",
        "amenity": "school",
        "education": "school",
        "name": "Școala Gimnazială Nr. 30 „Gheorghe Țițeica”"
      }
    },
    {
      "id": "way/627782264",
      "osm_id": 627782264,
      "osm_type": "way",
      "name": "Facultatea de Științe Economice",
      "category": "education",
      "lat": 44.1940448,
      "lon": 28.6462291,
      "tags": {
        "addr:city": "Constanța",
        "addr:housenumber": "58",
        "addr:postcode": "900573",
        "addr:street": "Strada Ion Vodă",
        "amenity": "university",
        "name": "Facultatea de Științe Economice",
        "old_name": "Școala nr. 26",
        "operator": "Universitatea Ovidius Constanța",
        "operator:type": "public"
      }
    },
    {
      "id": "way/627785883",
      "osm_id": 627785883,
      "osm_type": "way",
      "name": "Universitatea Ovidius",
      "category": "education",
      "lat": 44.1945298,
      "lon": 28.6508699,
      "tags": {
        "addr:city": "Constanța",
        "addr:housenumber": "124",
        "addr:street": "Bulevardul Mamaia",
        "amenity": "university",
        "internet_access": "yes",
        "name": "Universitatea Ovidius",
        "operator": "Universitatea „Ovidius” din Constanța",
        "operator:type": "public",
        "start_date": "1961",
        "website": "https://www.univ-ovidius.ro",
        "wheelchair": "limited",
        "wikidata": "Q3551473",
        "wikipedia": "ro:Universitatea „Ovidius” din Constanța"
      }
    },
    {
      "id": "way/627806796",
      "osm_id": 627806796,
      "osm_type": "way",
      "name": "Fără nume",
      "category": "education",
      "lat": 44.1626166,
      "lon": 28.631926,
      "tags": {
        "building": "school",
        "building:levels": "5"
      }
    },
    {
      "id": "way/627806813",
      "osm_id": 627806813,
      "osm_type": "way",
      "name": "Liceul Tehnologic „C.A. Rosetti”",
      "category": "education",
      "lat": 44.1623456,
      "lon": 28.6311876,
      "tags": {
        "addr:city": "Constanța",
        "addr:housenumber": "44",
        "addr:street": "Bulevardul 1 Mai",
        "alt_name": "Liceul SNC",
        "amenity": "school",
        "name": "Liceul Tehnologic „C.A. Rosetti”",
        "old_name:1972-1992": "Liceul Industrial nr. 1",
        "old_name:1992-2007": "Grup Școlar Industrial Construcții de Mașini",
        "old_name:2007-2012": "Grup Școlar C. A. Rosetti"
      }
    },
    {
      "id": "way/630016941",
      "osm_id": 630016941,
      "osm_type": "way",
      "name": "Fără nume",
      "category": "education",
      "lat": 44.174752,
      "lon": 28.6424993,
      "tags": {
        "addr:city": "Constanța",
        "addr:housenumber": "80",
        "addr:street": "Strada Cuza Vodă",
        "amenity": "school",
        "old_name": "Școala generală nr. 25 \"Cella Serghi\""
      }
    },
    {
      "id": "way/632928179",
      "osm_id": 632928179,
      "osm_type": "way",
      "name": "Fără nume",
      "category": "education",
      "lat": 44.2057858,
      "lon": 28.6271036,
      "tags": {
        "building": "school",
        "building:levels": "3"
      }
    },
    {
      "id": "way/632928180",
      "osm_id": 632928180,
      "osm_type": "way",
      "name": "Fără nume",
      "category": "education",
      "lat": 44.2055847,
      "lon": 28.6271084,
      "tags": {
        "building": "school"
      }
    },
    {
      "id": "way/632928181",
      "osm_id": 632928181,
      "osm_type": "way",
      "name": "Liceul Teoretic Educational Center",
      "category": "education",
      "lat": 44.2057423,
      "lon": 28.6270955,
      "tags": {
        "addr:city": "Constanța",
        "addr:housenumber": "3",
        "addr:postcode": "900456",
        "addr:street": "Aleea Capidava",
        "alt_name": "Cambridge School of Constanța",
        "amenity": "school",
        "name": "Liceul Teoretic Educational Center",
        "old_name": "Creșa nr. 3",
        "operator:type": "private"
      }
    },
    {
      "id": "way/641865972",
      "osm_id": 641865972,
      "osm_type": "way",
      "name": "Școala Gimnazială Nr. 36 „Dimitrie Știubei”",
      "category": "education",
      "lat": 44.2000597,
      "lon": 28.6187051,
      "tags": {
        "addr:city": "Constanța",
        "addr:housenumber": "1",
        "addr:street": "Aleea Fragilor",
        "amenity": "school",
        "name": "Școala Gimnazială Nr. 36 „Dimitrie Știubei”"
      }
    },
    {
      "id": "way/642285963",
      "osm_id": 642285963,
      "osm_type": "way",
      "name": "Școala Gimnazială Nr. 12 „B.P. Hașdeu”",
      "category": "education",
      "lat": 44.1956977,
      "lon": 28.6308588,
      "tags": {
        "addr:city": "Constanța",
        "addr:housenumber": "98",
        "addr:street": "Strada Bogdan Petriceicu Hașdeu",
        "amenity": "school",
        "name": "Școala Gimnazială Nr. 12 „B.P. Hașdeu”"
      }
    },
    {
      "id": "way/642285970",
      "osm_id": 642285970,
      "osm_type": "way",
      "name": "Fără nume",
      "category": "education",
      "lat": 44.1956414,
      "lon": 28.6309269,
      "tags": {
        "building": "school",
        "building:levels": "4",
        "start_date": "1986"
      }
    },
    {
      "id": "way/642285975",
      "osm_id": 642285975,
      "osm_type": "way",
      "name": "Grădinița cu Program Prelungit „Gulliver”",
      "category": "education",
      "lat": 44.1958159,
      "lon": 28.6307113,
      "tags": {
        "amenity": "kindergarten",
        "building": "kindergarten",
        "building:levels": "3",
        "name": "Grădinița cu Program Prelungit „Gulliver”",
        "old_name": "Grădinița nr. 48",
        "start_date": "1977"
      }
    },
    {
      "id": "way/654188043",
      "osm_id": 654188043,
      "osm_type": "way",
      "name": "Liceul Teoretic „Traian”",
      "category": "education",
      "lat": 44.1744249,
      "lon": 28.6472244,
      "tags": {
        "addr:city": "Constanța",
        "addr:housenumber": "55",
        "addr:street": "Strada Traian",
        "amenity": "school",
        "name": "Liceul Teoretic „Traian”",
        "old_name:1977-1990": "Liceul Industrial nr. 6"
      }
    },
    {
      "id": "way/669959045",
      "osm_id": 669959045,
      "osm_type": "way",
      "name": "Fără nume",
      "category": "education",
      "lat": 44.1447835,
      "lon": 28.6144714,
      "tags": {
        "abandoned": "yes",
        "building": "kindergarten"
      }
    },
    {
      "id": "way/673594936",
      "osm_id": 673594936,
      "osm_type": "way",
      "name": "Fără nume",
      "category": "education",
      "lat": 44.2076219,
      "lon": 28.6211605,
      "tags": {
        "building": "school",
        "building:levels": "3"
      }
    },
    {
      "id": "way/673594939",
      "osm_id": 673594939,
      "osm_type": "way",
      "name": "Liceul Teoretic „George Călinescu”",
      "category": "education",
      "lat": 44.2078025,
      "lon": 28.6212554,
      "tags": {
        "addr:city": "Constanța",
        "addr:housenumber": "6",
        "addr:postcode": "900494",
        "addr:street": "Strada Căpitan Dobrilă Eugeniu",
        "amenity": "school",
        "email": "calinescu@rdsmail.ro",
        "name": "Liceul Teoretic „George Călinescu”",
        "old_name": "Școala Generală Nr. 32",
        "phone": "+40 341 403 818",
        "website": "http://georgecalinescu.ro/"
      }
    },
    {
      "id": "way/673600375",
      "osm_id": 673600375,
      "osm_type": "way",
      "name": "Școala Postliceală Hipocrate",
      "category": "education",
      "lat": 44.2083173,
      "lon": 28.6215873,
      "tags": {
        "addr:city": "Constanța",
        "addr:housenumber": "16",
        "addr:street": "Strada Cișmelei",
        "amenity": "college",
        "name": "Școala Postliceală Hipocrate",
        "old_name": "Creșa nr. 8",
        "operator": "Dr. Doina Rogoveanu",
        "operator:type": "private",
        "website": "https://www.scoalapostlicealahipocrate.com/"
      }
    },
    {
      "id": "way/673839825",
      "osm_id": 673839825,
      "osm_type": "way",
      "name": "Școala Gimnazială Nr. 29 „Mihai Viteazul”",
      "category": "education",
      "lat": 44.2085007,
      "lon": 28.6244574,
      "tags": {
        "addr:city": "Constanța",
        "addr:housenumber": "13",
        "addr:street": "Strada Cișmelei",
        "amenity": "school",
        "name": "Școala Gimnazială Nr. 29 „Mihai Viteazul”",
        "website": "https://www.scoala29mihaiviteazul.ro/"
      }
    },
    {
      "id": "way/673844926",
      "osm_id": 673844926,
      "osm_type": "way",
      "name": "Școala Gimnazială Nr. 38 „Dimitrie Cantemir”",
      "category": "education",
      "lat": 44.2094788,
      "lon": 28.6215472,
      "tags": {
        "addr:city": "Constanța",
        "addr:housenumber": "12",
        "addr:street": "Strada Căpitan Dobrilă Eugeniu",
        "amenity": "school",
        "name": "Școala Gimnazială Nr. 38 „Dimitrie Cantemir”",
        "website": "http://sc38dimitriecantemir.ro/"
      }
    },
    {
      "id": "way/673976399",
      "osm_id": 673976399,
      "osm_type": "way",
      "name": "Liceul Teoretic „Decebal”",
      "category": "education",
      "lat": 44.2110141,
      "lon": 28.6272283,
      "tags": {
        "addr:city": "Constanța",
        "addr:housenumber": "4",
        "addr:street": "Strada Aviator Horia Agarici",
        "amenity": "school",
        "name": "Liceul Teoretic „Decebal”",
        "old_name:1971-1990": "Liceul nr. 5"
      }
    },
    {
      "id": "way/694099452",
      "osm_id": 694099452,
      "osm_type": "way",
      "name": "Fără nume",
      "category": "education",
      "lat": 44.1719276,
      "lon": 28.6354676,
      "tags": {
        "building": "school",
        "building:levels": "3",
        "start_date": "1962"
      }
    },
    {
      "id": "way/694975674",
      "osm_id": 694975674,
      "osm_type": "way",
      "name": "Școala Gimnazială Nr.14",
      "category": "education",
      "lat": 44.2316248,
      "lon": 28.5986454,
      "tags": {
        "addr:housenumber": "2",
        "addr:street": "Strada Dumbrăveni",
        "amenity": "school",
        "name": "Școala Gimnazială Nr.14"
      }
    },
    {
      "id": "way/695825380",
      "osm_id": 695825380,
      "osm_type": "way",
      "name": "Școala Gimnazială Nr. 16 „Marin Ionescu Dobrogianu”",
      "category": "education",
      "lat": 44.1560736,
      "lon": 28.6290487,
      "tags": {
        "addr:city": "Constanța",
        "addr:country": "RO",
        "addr:housenumber": "103",
        "addr:postcode": "900111",
        "addr:postcode:source": "Date de la Poșta Română, publicate sub Licența pentru Guvernare Deschisă v1.0 la http://date.gov.ro/organization/posta-romana",
        "addr:street": "Șoseaua Mangaliei",
        "amenity": "school",
        "name": "Școala Gimnazială Nr. 16 „Marin Ionescu Dobrogianu”"
      }
    },
    {
      "id": "way/696866726",
      "osm_id": 696866726,
      "osm_type": "way",
      "name": "Fără nume",
      "category": "education",
      "lat": 44.1605969,
      "lon": 28.6122654,
      "tags": {
        "building": "kindergarten",
        "building:levels": "3",
        "start_date": "1982"
      }
    },
    {
      "id": "way/696866731",
      "osm_id": 696866731,
      "osm_type": "way",
      "name": "Fără nume",
      "category": "education",
      "lat": 44.1609037,
      "lon": 28.6121691,
      "tags": {
        "building": "school",
        "start_date": "1981"
      }
    },
    {
      "id": "way/696866736",
      "osm_id": 696866736,
      "osm_type": "way",
      "name": "Liceul Tehnologic Dimitrie Leonida",
      "category": "education",
      "lat": 44.1599147,
      "lon": 28.6140548,
      "tags": {
        "addr:city": "Constanța",
        "addr:housenumber": "2",
        "addr:street": "Aleea Pelicanului",
        "alt_name": "Liceul Auto",
        "amenity": "school",
        "name": "Liceul Tehnologic Dimitrie Leonida",
        "old_name:1978-1980": "Grupul Școlar Industrial Transporturi Auto",
        "old_name:1980-1996": "Liceul Industrial nr. 7",
        "old_name:1996-2012": "Grup Școlar Dimitrie Leonida"
      }
    },
    {
      "id": "way/696866738",
      "osm_id": 696866738,
      "osm_type": "way",
      "name": "Fără nume",
      "category": "education",
      "lat": 44.1591587,
      "lon": 28.6138449,
      "tags": {
        "building": "school",
        "building:levels": "3",
        "start_date": "1978"
      }
    },
    {
      "id": "way/697548623",
      "osm_id": 697548623,
      "osm_type": "way",
      "name": "Liceul cu Program Sportiv „Nicolae Rotaru”",
      "category": "education",
      "lat": 44.1778408,
      "lon": 28.6323074,
      "tags": {
        "addr:city": "Constanța",
        "addr:country": "RO",
        "addr:housenumber": "2",
        "addr:postcode": "900160",
        "addr:postcode:source": "Date de la Poșta Română, publicate sub Licența pentru Guvernare Deschisă v1.0 la http://date.gov.ro/organization/posta-romana",
        "addr:street": "Strada Ion Corvin",
        "amenity": "school",
        "name": "Liceul cu Program Sportiv „Nicolae Rotaru”",
        "old_name:2000": "Școala Generală nr. 34",
        "old_name:2000-2005": "Liceul cu Program Sportiv",
        "short_name": "LPS",
        "website": "https://www.lpsconstanta.ro/"
      }
    },
    {
      "id": "way/727108580",
      "osm_id": 727108580,
      "osm_type": "way",
      "name": "Școala cu clasele I-IV",
      "category": "education",
      "lat": 43.9171372,
      "lon": 28.0229127,
      "tags": {
        "building": "school",
        "name": "Școala cu clasele I-IV"
      }
    },
    {
      "id": "way/727215954",
      "osm_id": 727215954,
      "osm_type": "way",
      "name": "Școala cu clasele I-VIII",
      "category": "education",
      "lat": 43.9912244,
      "lon": 28.0081578,
      "tags": {
        "building": "school",
        "name": "Școala cu clasele I-VIII"
      }
    },
    {
      "id": "way/727216541",
      "osm_id": 727216541,
      "osm_type": "way",
      "name": "Fără nume",
      "category": "education",
      "lat": 43.9594969,
      "lon": 28.0008592,
      "tags": {
        "amenity": "kindergarten"
      }
    },
    {
      "id": "way/824060064",
      "osm_id": 824060064,
      "osm_type": "way",
      "name": "Fără nume",
      "category": "education",
      "lat": 44.1871894,
      "lon": 28.6516644,
      "tags": {
        "building": "school"
      }
    },
    {
      "id": "way/842812676",
      "osm_id": 842812676,
      "osm_type": "way",
      "name": "Liceul Teoretic Ioan Cotovu",
      "category": "education",
      "lat": 44.6871531,
      "lon": 27.952526,
      "tags": {
        "building": "school",
        "name": "Liceul Teoretic Ioan Cotovu"
      }
    },