[
  {
    "id": "node-275592220",
    "name": "Școala cu clasele I-VIII Clinceni",
    "type": "school",
    "subcategory": "school",
    "lat": 44.3781103,
    "lng": 25.9421204,
    "osmType": "node",
    "tags": {
      "amenity": "school",
      "name": "Școala cu clasele I-VIII Clinceni"
    }
  },
  {
    "id": "node-2318568576",
    "name": "Cartier Fortuna",
    "type": "betting",
    "subcategory": "Cartier Fortuna",
    "lat": 44.3897407,
    "lng": 26.0054709,
    "osmType": "node",
    "tags": {
      "bus": "yes",
      "name": "Cartier Fortuna",
      "public_transport": "stop_position"
    }
  },
  {
    "id": "node-3677672842",
    "name": "Biserica Parohiei Slobozia",
    "type": "church",
    "subcategory": "christian",
    "lat": 44.3806458,
    "lng": 25.9359087,
    "osmType": "node",
    "tags": {
      "addr:city": "Clinceni",
      "amenity": "place_of_worship",
      "denomination": "orthodox",
      "name": "Biserica Parohiei Slobozia",
      "religion": "christian"
    }
  },
  {
    "id": "node-5026773621",
    "name": "Fortuna",
    "type": "betting",
    "subcategory": "Fortuna",
    "lat": 44.4068784,
    "lng": 25.9896616,
    "osmType": "node",
    "tags": {
      "name": "Fortuna",
      "name:ro": "Fortuna",
      "shop": "bookmaker"
    }
  },
  {
    "id": "node-8283655300",
    "name": "Cartier Fortuna",
    "type": "betting",
    "subcategory": "Cartier Fortuna",
    "lat": 44.3897315,
    "lng": 26.0056472,
    "osmType": "node",
    "tags": {
      "bus": "yes",
      "highway": "bus_stop",
      "name": "Cartier Fortuna",
      "public_transport": "platform"
    }
  },
  {
    "id": "node-8283655301",
    "name": "Cartier Fortuna",
    "type": "betting",
    "subcategory": "Cartier Fortuna",
    "lat": 44.3897759,
    "lng": 26.0053212,
    "osmType": "node",
    "tags": {
      "bus": "yes",
      "highway": "bus_stop",
      "name": "Cartier Fortuna",
      "public_transport": "platform"
    }
  },
  {
    "id": "node-8628417526",
    "name": "Superbet",
    "type": "betting",
    "subcategory": "Superbet",
    "lat": 44.391073,
    "lng": 26.007761,
    "osmType": "node",
    "tags": {
      "brand": "Superbet",
      "brand:wikidata": "Q61082636",
      "contact:email": "suport@superbet.ro",
      "contact:facebook": "https://www.facebook.com/superbet.ro",
      "contact:instagram": "https://www.instagram.com/superbetromania/",
      "contact:phone": "+40 786 401 088",
      "contact:twitter": "https://twitter.com/SuperbetRomania",
      "contact:website": "https://www.superbet.ro/",
      "name": "Superbet",
      "opening_hours": "Mo-Su 10:00-22:00",
      "operator": "Superbet Betting & Gaming SA",
      "shop": "bookmaker"
    }
  },
  {
    "id": "node-8628417616",
    "name": "Superbet",
    "type": "betting",
    "subcategory": "Superbet",
    "lat": 44.370113,
    "lng": 25.975478,
    "osmType": "node",
    "tags": {
      "brand": "Superbet",
      "brand:wikidata": "Q61082636",
      "contact:email": "suport@superbet.ro",
      "contact:facebook": "https://www.facebook.com/superbet.ro",
      "contact:instagram": "https://www.instagram.com/superbetromania/",
      "contact:phone": "+40 786 401 088",
      "contact:twitter": "https://twitter.com/SuperbetRomania",
      "contact:website": "https://www.superbet.ro/",
      "name": "Superbet",
      "opening_hours": "Mo-Su 10:00-22:00",
      "operator": "Superbet Betting & Gaming SA",
      "shop": "bookmaker"
    }
  },
  {
    "id": "node-9266303267",
    "name": "Gradinita nr. 3",
    "type": "school",
    "subcategory": "kindergarten",
    "lat": 44.3917722,
    "lng": 26.0064829,
    "osmType": "node",
    "tags": {
      "addr:housenumber": "8",
      "addr:street": "Coralului",
      "amenity": "kindergarten",
      "email": "gradinita.bragadiru@yahoo.ro",
      "name": "Gradinita nr. 3",
      "phone": "0214480386"
    }
  },
  {
    "id": "node-9424549173",
    "name": "Superbet",
    "type": "betting",
    "subcategory": "Superbet",
    "lat": 44.3930432,
    "lng": 26.0062259,
    "osmType": "node",
    "tags": {
      "brand": "Superbet",
      "brand:wikidata": "Q61082636",
      "contact:email": "suport@superbet.ro",
      "contact:facebook": "https://www.facebook.com/superbet.ro",
      "contact:instagram": "https://www.instagram.com/superbetromania/",
      "contact:phone": "+40 786 401 088",
      "contact:twitter": "https://twitter.com/SuperbetRomania",
      "contact:website": "https://www.superbet.ro/",
      "name": "Superbet",
      "opening_hours": "24/7",
      "operator": "Superbet Betting & Gaming SA",
      "shop": "bookmaker"
    }
  },
  {
    "id": "node-10725166491",
    "name": "Bubbles After School",
    "type": "school",
    "subcategory": "school",
    "lat": 44.4052073,
    "lng": 26.0062185,
    "osmType": "node",
    "tags": {
      "amenity": "school",
      "name": "Bubbles After School"
    }
  },
  {
    "id": "node-13350720583",
    "name": "Centrul Medical Măgurele",
    "type": "medical",
    "subcategory": "clinic",
    "lat": 44.3547048,
    "lng": 26.0304649,
    "osmType": "node",
    "tags": {
      "addr:city": "Măgurele",
      "addr:housenumber": "2",
      "addr:postcode": "077126",
      "addr:street": "Strada Panselelor",
      "air_conditioning": "yes",
      "amenity": "clinic",
      "healthcare": "clinic",
      "healthcare:speciality": "cardiology;general;neurology;psychiatry;rheumatology",
      "name": "Centrul Medical Măgurele",
      "phone": "0314053636"
    }
  },
  {
    "id": "way-259169848",
    "name": "Clinica Gimed",
    "type": "medical",
    "subcategory": "clinic",
    "lat": 44.3733488,
    "lng": 25.9800698,
    "osmType": "way",
    "tags": {
      "amenity": "clinic",
      "building": "yes",
      "name": "Clinica Gimed"
    }
  },
  {
    "id": "way-265008395",
    "name": "Biserica Ortodoxă „Sfântul Dimitrie” Bragadiru",
    "type": "church",
    "subcategory": "christian",
    "lat": 44.3720536,
    "lng": 25.978584,
    "osmType": "way",
    "tags": {
      "addr:city": "Bragadiru",
      "addr:housenumber": "231",
      "addr:street": "Șoseaua Alexandriei",
      "amenity": "place_of_worship",
      "building": "church",
      "denomination": "romanian_orthodox",
      "height": "9",
      "name": "Biserica Ortodoxă „Sfântul Dimitrie” Bragadiru",
      "religion": "christian",
      "website": "http://www.parohiabragadiru.ro/"
    }
  },
  {
    "id": "way-338459489",
    "name": "Capela Ortodoxă „Ghencea Militar II”",
    "type": "church",
    "subcategory": "christian",
    "lat": 44.40283,
    "lng": 26.0229166,
    "osmType": "way",
    "tags": {
      "addr:city": "București",
      "amenity": "place_of_worship",
      "building": "chapel",
      "denomination": "romanian_orthodox",
      "name": "Capela Ortodoxă „Ghencea Militar II”",
      "religion": "christian"
    }
  },
  {
    "id": "way-436849167",
    "name": "Grădinița Tărâmul fermecat",
    "type": "school",
    "subcategory": "childcare",
    "lat": 44.3752279,
    "lng": 25.9792094,
    "osmType": "way",
    "tags": {
      "addr:city": "Bragadiru",
      "addr:housenumber": "14",
      "addr:postcode": "077025",
      "addr:street": "Strada Salciei",
      "amenity": "childcare",
      "building": "yes",
      "building:levels": "3",
      "height": "17",
      "name": "Grădinița Tărâmul fermecat",
      "phone:mobile": "+40722383898",
      "website": "https://gradinita-taramulfermecat.ro/"
    }
  },
  {
    "id": "way-739449063",
    "name": "Gradinița și Școala Primară Maryland",
    "type": "school",
    "subcategory": "school",
    "lat": 44.4047954,
    "lng": 26.0000653,
    "osmType": "way",
    "tags": {
      "addr:city": "București",
      "addr:housenumber": "150-154",
      "addr:postcode": "052837",
      "addr:street": "Drumul Ghindari",
      "amenity": "school",
      "name": "Gradinița și Școala Primară Maryland"
    }
  },
  {
    "id": "way-887353945",
    "name": "Școala generală nr. 1",
    "type": "school",
    "subcategory": "school",
    "lat": 44.3700149,
    "lng": 25.9766848,
    "osmType": "way",
    "tags": {
      "addr:city": "Bragadiru",
      "addr:housenumber": "243A",
      "addr:postcode": "077025",
      "addr:street": "Strada Anemonelor",
      "amenity": "school",
      "building": "yes",
      "email": "scbragadiru@yahoo.com",
      "height": "13",
      "name": "Școala generală nr. 1",
      "phone": "075 126 2985",
      "religion": "christian",
      "roof:colour": "#2f4f4f",
      "roof:height": "3",
      "roof:shape": "gabled",
      "website": "https://scoalagimnazialanr1bragadiru.ro/wp/"
    }
  },
  {
    "id": "way-1171297525",
    "name": "Biserica „Sfântul Nicolae\"",
    "type": "church",
    "subcategory": "christian",
    "lat": 44.3715618,
    "lng": 25.9491599,
    "osmType": "way",
    "tags": {
      "addr:city": "Clinceni",
      "amenity": "place_of_worship",
      "building": "yes",
      "denomination": "romanian_orthodox",
      "name": "Biserica „Sfântul Nicolae\"",
      "religion": "christian"
    }
  },
  {
    "id": "way-1171542832",
    "name": "Biserica „Sfinții Ioachim și Ana”",
    "type": "church",
    "subcategory": "christian",
    "lat": 44.3557959,
    "lng": 25.9896413,
    "osmType": "way",
    "tags": {
      "addr:city": "Vârteju",
      "amenity": "place_of_worship",
      "building": "yes",
      "denomination": "romanian_orthodox",
      "heritage": "2",
      "heritage:operator": "lmi",
      "name": "Biserica „Sfinții Ioachim și Ana”",
      "ref:RO:lmi": "IF-II-m-B-15320",
      "religion": "christian"
    }
  },
  {
    "id": "way-1358642953",
    "name": "Gradinita Nr. 1 Bragadiru",
    "type": "school",
    "subcategory": "childcare",
    "lat": 44.3722071,
    "lng": 25.977427,
    "osmType": "way",
    "tags": {
      "addr:city": "Bragadiru",
      "addr:housenumber": "41",
      "addr:postcode": "077025",
      "addr:street": "Strada Griviței",
      "amenity": "childcare",
      "building": "yes",
      "email": "gradinita.bragadiru@yahoo.ro",
      "height": "7",
      "name": "Gradinita Nr. 1 Bragadiru",
      "phone": "0765.569.817",
      "website": "https://gradinitanr1bragadiru.ro/"
    }
  },
  {
    "id": "way-1358642954",
    "name": "Fără nume",
    "type": "school",
    "subcategory": "childcare",
    "lat": 44.3722966,
    "lng": 25.9775512,
    "osmType": "way",
    "tags": {
      "amenity": "childcare",
      "building": "yes",
      "height": "9"
    }
  },
  {
    "id": "way-1471104900",
    "name": "Școala Micul Lord Bragadiru",
    "type": "school",
    "subcategory": "school",
    "lat": 44.3876274,
    "lng": 26.0065634,
    "osmType": "way",
    "tags": {
      "addr:city": "Bragadiru",
      "addr:housenumber": "144",
      "addr:street": "Șoseaua Alexandriei",
      "amenity": "school",
      "barrier": "fence",
      "education": "school",
      "name": "Școala Micul Lord Bragadiru",
      "website": "https://www.micul-lord.ro/"
    }
  }
]