[
  {
    "id": "node-500265415",
    "name": "Școala generală nr. 3",
    "type": "school",
    "subcategory": "school",
    "lat": 43.8963109,
    "lng": 25.9548116,
    "osmType": "node",
    "brand": null,
    "operator": null
  },
  {
    "id": "node-506967991",
    "name": "Grădinița cu program normal Nr. 2",
    "type": "school",
    "subcategory": "kindergarten",
    "lat": 43.8878397,
    "lng": 25.9677759,
    "osmType": "node",
    "brand": null,
    "operator": null
  },
  {
    "id": "node-512788450",
    "name": "Biserica Eroilor",
    "type": "church",
    "subcategory": "christian",
    "lat": 43.89822,
    "lng": 25.9683241,
    "osmType": "node",
    "brand": null,
    "operator": null
  },
  {
    "id": "node-1316063364",
    "name": "Mănăstirea Sfântul Gheorghe",
    "type": "church",
    "subcategory": "christian",
    "lat": 43.91976,
    "lng": 25.97244,
    "osmType": "node",
    "brand": null,
    "operator": null
  },
  {
    "id": "node-5128369321",
    "name": "Mănăstirea \" Sf. Ioan Rusu\"",
    "type": "church",
    "subcategory": "place_of_worship",
    "lat": 43.8724774,
    "lng": 25.9007025,
    "osmType": "node",
    "brand": null,
    "operator": null
  },
  {
    "id": "node-5586818876",
    "name": "Русенската Частна Английска гимназия \"Джордж Байрон\"",
    "type": "school",
    "subcategory": "school",
    "lat": 43.8591977,
    "lng": 25.9720966,
    "osmType": "node",
    "brand": null,
    "operator": "Частна профилирана гимназия \"Джордж Байрон\" - гр. Русе"
  },
  {
    "id": "node-8259022917",
    "name": "Policlinică",
    "type": "medical",
    "subcategory": "clinic",
    "lat": 43.8943236,
    "lng": 25.9571133,
    "osmType": "node",
    "brand": null,
    "operator": null
  },
  {
    "id": "node-8628401599",
    "name": "Superbet",
    "type": "superbet",
    "subcategory": "betting",
    "lat": 43.8942516,
    "lng": 25.9629418,
    "osmType": "node",
    "brand": "Superbet",
    "operator": "Superbet Betting & Gaming SA"
  },
  {
    "id": "node-8628417695",
    "name": "Superbet",
    "type": "superbet",
    "subcategory": "betting",
    "lat": 43.9083666,
    "lng": 25.9718165,
    "osmType": "node",
    "brand": "Superbet",
    "operator": "Superbet Betting & Gaming SA"
  },
  {
    "id": "node-11951997252",
    "name": "Synevo Analize Medicale",
    "type": "medical",
    "subcategory": "clinic",
    "lat": 43.8914797,
    "lng": 25.9665861,
    "osmType": "node",
    "brand": null,
    "operator": null
  },
  {
    "id": "node-12091976436",
    "name": "Clinica Sante Analize Medicale",
    "type": "medical",
    "subcategory": "clinic",
    "lat": 43.8938921,
    "lng": 25.9695132,
    "osmType": "node",
    "brand": null,
    "operator": null
  },
  {
    "id": "node-12091991911",
    "name": "Centrul Medical Ema",
    "type": "medical",
    "subcategory": "clinic",
    "lat": 43.8944182,
    "lng": 25.9685616,
    "osmType": "node",
    "brand": null,
    "operator": null
  },
  {
    "id": "node-12150067042",
    "name": "Dr. Tudor Olec",
    "type": "medical",
    "subcategory": "doctors",
    "lat": 43.9020072,
    "lng": 25.969978,
    "osmType": "node",
    "brand": null,
    "operator": null
  },
  {
    "id": "node-12150073283",
    "name": "Dr. Ghițoiu Gherghina",
    "type": "medical",
    "subcategory": "doctors",
    "lat": 43.9046915,
    "lng": 25.9702813,
    "osmType": "node",
    "brand": null,
    "operator": null
  },
  {
    "id": "node-12150178145",
    "name": "IXIA Medica",
    "type": "medical",
    "subcategory": "doctors",
    "lat": 43.898799,
    "lng": 25.9723893,
    "osmType": "node",
    "brand": null,
    "operator": null
  },
  {
    "id": "node-12238330334",
    "name": "Medima",
    "type": "medical",
    "subcategory": "clinic",
    "lat": 43.8996652,
    "lng": 25.9635065,
    "osmType": "node",
    "brand": null,
    "operator": "Medima Health SA"
  },
  {
    "id": "node-12770278030",
    "name": "Superbet",
    "type": "superbet",
    "subcategory": "betting",
    "lat": 43.9088817,
    "lng": 25.97186,
    "osmType": "node",
    "brand": "Superbet",
    "operator": "Superbet Betting & Gaming SA"
  },
  {
    "id": "node-13694085676",
    "name": "Superbet",
    "type": "superbet",
    "subcategory": "betting",
    "lat": 43.8910069,
    "lng": 25.9666823,
    "osmType": "node",
    "brand": "Superbet",
    "operator": null
  },
  {
    "id": "node-13694085687",
    "name": "Superbet",
    "type": "superbet",
    "subcategory": "betting",
    "lat": 43.9079135,
    "lng": 25.9717214,
    "osmType": "node",
    "brand": "Superbet",
    "operator": null
  },
  {
    "id": "way-88735349",
    "name": "Colegiul Național Ion Maiorescu",
    "type": "school",
    "subcategory": "college",
    "lat": 43.8925776,
    "lng": 25.9667635,
    "osmType": "way",
    "brand": null,
    "operator": null
  },
  {
    "id": "way-295981772",
    "name": "УМБАЛ \"Канев\" - Русе",
    "type": "medical",
    "subcategory": "hospital",
    "lat": 43.8583507,
    "lng": 25.9612738,
    "osmType": "way",
    "brand": null,
    "operator": "МЗ-УМБАЛ \"Канев\" АД"
  },
  {
    "id": "way-427068431",
    "name": "Școala Gimnazială Specială Nr. 1 Giurgiu",
    "type": "school",
    "subcategory": "school",
    "lat": 43.9051483,
    "lng": 25.977956,
    "osmType": "way",
    "brand": null,
    "operator": null
  },
  {
    "id": "way-550944499",
    "name": "Регионален психодиспансер",
    "type": "medical",
    "subcategory": "hospital",
    "lat": 43.8650929,
    "lng": 25.9880241,
    "osmType": "way",
    "brand": null,
    "operator": "Център за психично здраве - Русе - ЕООД"
  },
  {
    "id": "way-582483047",
    "name": "Biserica Sfântul Nicolae",
    "type": "church",
    "subcategory": "christian",
    "lat": 43.8851126,
    "lng": 25.9619461,
    "osmType": "way",
    "brand": null,
    "operator": null
  },
  {
    "id": "way-584619064",
    "name": "ОУ \"Братя Миладинови\"",
    "type": "school",
    "subcategory": "school",
    "lat": 43.8595165,
    "lng": 25.9722962,
    "osmType": "way",
    "brand": null,
    "operator": null
  },
  {
    "id": "way-986969680",
    "name": "Biserica romano-catolică din Giurgiu",
    "type": "church",
    "subcategory": "christian",
    "lat": 43.8879751,
    "lng": 25.9659976,
    "osmType": "way",
    "brand": null,
    "operator": null
  },
  {
    "id": "way-1034269144",
    "name": "Catedrala Adormirea Maicii Domnului",
    "type": "church",
    "subcategory": "christian",
    "lat": 43.8916968,
    "lng": 25.9660984,
    "osmType": "way",
    "brand": null,
    "operator": null
  },
  {
    "id": "way-1115144215",
    "name": "СДГ „Ралица“",
    "type": "school",
    "subcategory": "kindergarten",
    "lat": 43.8631069,
    "lng": 25.9891713,
    "osmType": "way",
    "brand": null,
    "operator": null
  },
  {
    "id": "way-1116503217",
    "name": "Sala Regatului a Martorilor lui Iehova",
    "type": "church",
    "subcategory": "christian",
    "lat": 43.8948318,
    "lng": 25.9693144,
    "osmType": "way",
    "brand": null,
    "operator": null
  },
  {
    "id": "way-1305574017",
    "name": "Școala generală nr. 4 Mihai Eminescu",
    "type": "school",
    "subcategory": "school",
    "lat": 43.8934972,
    "lng": 25.9684473,
    "osmType": "way",
    "brand": null,
    "operator": null
  },
  {
    "id": "way-1306175937",
    "name": "Fără nume",
    "type": "school",
    "subcategory": "kindergarten",
    "lat": 43.8607606,
    "lng": 25.9800501,
    "osmType": "way",
    "brand": null,
    "operator": null
  },
  {
    "id": "way-1364822478",
    "name": "Biserica Sf. Haralambie",
    "type": "church",
    "subcategory": "christian",
    "lat": 43.8851933,
    "lng": 25.9476485,
    "osmType": "way",
    "brand": null,
    "operator": null
  },
  {
    "id": "way-1365790098",
    "name": "Biserica Buna Vestire (Grecească)",
    "type": "church",
    "subcategory": "christian",
    "lat": 43.8889501,
    "lng": 25.9635677,
    "osmType": "way",
    "brand": null,
    "operator": null
  },
  {
    "id": "way-1365793939",
    "name": "Biserica Ortodoxă Sfânta Treime (Smârda)",
    "type": "church",
    "subcategory": "christian",
    "lat": 43.8935056,
    "lng": 25.977033,
    "osmType": "way",
    "brand": null,
    "operator": null
  },
  {
    "id": "way-1366071719",
    "name": "Biserica Sf. Gheorghe",
    "type": "church",
    "subcategory": "christian",
    "lat": 43.9129311,
    "lng": 25.9505932,
    "osmType": "way",
    "brand": null,
    "operator": null
  },
  {
    "id": "way-1367121209",
    "name": "Fără nume",
    "type": "church",
    "subcategory": "christian",
    "lat": 43.8914066,
    "lng": 25.9659695,
    "osmType": "way",
    "brand": null,
    "operator": null
  },
  {
    "id": "way-1367945466",
    "name": "Școala Generală cu clasele I-VIII Nr. 8 ,,Academician Marin Voiculescu\"",
    "type": "school",
    "subcategory": "school",
    "lat": 43.9039949,
    "lng": 25.968357,
    "osmType": "way",
    "brand": null,
    "operator": null
  },
  {
    "id": "way-1370269320",
    "name": "Biserica Adventistă De Ziua A Șaptea ,, Speranța\"",
    "type": "church",
    "subcategory": "christian",
    "lat": 43.891682,
    "lng": 25.9605476,
    "osmType": "way",
    "brand": null,
    "operator": null
  },
  {
    "id": "way-1370269331",
    "name": "Biserica Creștină după Evanghelie ,,Betel\"",
    "type": "church",
    "subcategory": "christian",
    "lat": 43.8921926,
    "lng": 25.9609017,
    "osmType": "way",
    "brand": null,
    "operator": null
  },
  {
    "id": "way-1370794483",
    "name": "Scoala Gimnazială Nr. 1 ,,Sfantul Gheorghe\"",
    "type": "school",
    "subcategory": "school",
    "lat": 43.8897036,
    "lng": 25.959247,
    "osmType": "way",
    "brand": null,
    "operator": null
  },
  {
    "id": "way-1370817363",
    "name": "Biserica Sfântul Gheorghe",
    "type": "church",
    "subcategory": "christian",
    "lat": 43.8892632,
    "lng": 25.95904,
    "osmType": "way",
    "brand": null,
    "operator": null
  },
  {
    "id": "way-1374689345",
    "name": "Policlinică",
    "type": "medical",
    "subcategory": "clinic",
    "lat": 43.8943475,
    "lng": 25.9570071,
    "osmType": "way",
    "brand": null,
    "operator": null
  },
  {
    "id": "way-1375063395",
    "name": "Școala generală nr. 3",
    "type": "school",
    "subcategory": "school",
    "lat": 43.8962134,
    "lng": 25.9547309,
    "osmType": "way",
    "brand": null,
    "operator": null
  },
  {
    "id": "way-1375931210",
    "name": "Biserica de lemn a spitalului",
    "type": "church",
    "subcategory": "christian",
    "lat": 43.8974353,
    "lng": 25.9680985,
    "osmType": "way",
    "brand": null,
    "operator": null
  },
  {
    "id": "way-1379027695",
    "name": "Școala Gimnazială Nr. 10",
    "type": "school",
    "subcategory": "school",
    "lat": 43.908777,
    "lng": 25.9757035,
    "osmType": "way",
    "brand": null,
    "operator": null
  },
  {
    "id": "way-1379104462",
    "name": "Biserica Sfinții Martiri Brâncoveni",
    "type": "church",
    "subcategory": "christian",
    "lat": 43.9098933,
    "lng": 25.9731751,
    "osmType": "way",
    "brand": null,
    "operator": null
  },
  {
    "id": "way-1379351692",
    "name": "Școala Gimnazială Nr. 6 „Savin Popescu“",
    "type": "school",
    "subcategory": "school",
    "lat": 43.9051618,
    "lng": 25.9786671,
    "osmType": "way",
    "brand": null,
    "operator": null
  },
  {
    "id": "way-1379351718",
    "name": "Liceul Tehnologic „Ion Barbu“",
    "type": "school",
    "subcategory": "school",
    "lat": 43.9057579,
    "lng": 25.9788959,
    "osmType": "way",
    "brand": null,
    "operator": null
  },
  {
    "id": "way-1380224467",
    "name": "Grădinița program prelungit Nr. 3",
    "type": "school",
    "subcategory": "kindergarten",
    "lat": 43.9072116,
    "lng": 25.9794659,
    "osmType": "way",
    "brand": null,
    "operator": null
  },
  {
    "id": "way-1381589888",
    "name": "Școala Gimnazială Nr. 5 cu clasele I-VIII Emil Gulian",
    "type": "school",
    "subcategory": "school",
    "lat": 43.9068587,
    "lng": 25.972741,
    "osmType": "way",
    "brand": null,
    "operator": null
  },
  {
    "id": "way-1381589893",
    "name": "Grădinița cu pr. prelungit \"Căsuța Fermecată\"",
    "type": "school",
    "subcategory": "kindergarten",
    "lat": 43.90664,
    "lng": 25.9748514,
    "osmType": "way",
    "brand": null,
    "operator": null
  },
  {
    "id": "way-1382282921",
    "name": "Şcoala Gimnazială Nr. 7",
    "type": "school",
    "subcategory": "school",
    "lat": 43.8884802,
    "lng": 25.9678555,
    "osmType": "way",
    "brand": null,
    "operator": null
  },
  {
    "id": "way-1386882612",
    "name": "Liceul Teoretic ,,Tudor Vianu\"",
    "type": "school",
    "subcategory": "school",
    "lat": 43.8912899,
    "lng": 25.9568093,
    "osmType": "way",
    "brand": null,
    "operator": null
  },
  {
    "id": "way-1388099845",
    "name": "Grădinița cu program prelungit ,,Prichindeii\"",
    "type": "school",
    "subcategory": "kindergarten",
    "lat": 43.8871949,
    "lng": 25.9618635,
    "osmType": "way",
    "brand": null,
    "operator": null
  },
  {
    "id": "way-1389431730",
    "name": "Școala Gimnazială Nr. 2 ,,Mircea cel Bătrân\"",
    "type": "school",
    "subcategory": "school",
    "lat": 43.8875083,
    "lng": 25.9576544,
    "osmType": "way",
    "brand": null,
    "operator": null
  },
  {
    "id": "way-1389431731",
    "name": "Grădinița cu program normal Nr. 7",
    "type": "school",
    "subcategory": "kindergarten",
    "lat": 43.8867007,
    "lng": 25.957928,
    "osmType": "way",
    "brand": null,
    "operator": null
  },
  {
    "id": "way-1391681048",
    "name": "Biserica Sfânta Cuvioasă Parascheva Bălanu",
    "type": "church",
    "subcategory": "christian",
    "lat": 43.9222471,
    "lng": 25.9185745,
    "osmType": "way",
    "brand": null,
    "operator": null
  },
  {
    "id": "way-1394899337",
    "name": "Școala de muzică și arte plastice „Victor Karpis”",
    "type": "school",
    "subcategory": "school",
    "lat": 43.888132,
    "lng": 25.9638751,
    "osmType": "way",
    "brand": null,
    "operator": null
  },
  {
    "id": "way-1396211700",
    "name": "Biserica Sf. Andrei",
    "type": "church",
    "subcategory": "christian",
    "lat": 43.8953605,
    "lng": 25.9591118,
    "osmType": "way",
    "brand": null,
    "operator": null
  },
  {
    "id": "way-1410164988",
    "name": "Grădinița cu program Prelungit „Scufița Roşie“",
    "type": "school",
    "subcategory": "kindergarten",
    "lat": 43.8917015,
    "lng": 25.9696376,
    "osmType": "way",
    "brand": null,
    "operator": null
  },
  {
    "id": "way-1411450740",
    "name": "Spitalul Județean de Urgență Giurgiu",
    "type": "medical",
    "subcategory": "hospital",
    "lat": 43.8978063,
    "lng": 25.9686889,
    "osmType": "way",
    "brand": null,
    "operator": null
  },
  {
    "id": "way-1423237904",
    "name": "Noua Catedrală Episcopală „Sfântul Mare Mucenic Gheorghe”",
    "type": "church",
    "subcategory": "christian",
    "lat": 43.9194363,
    "lng": 25.971929,
    "osmType": "way",
    "brand": null,
    "operator": null
  },
  {
    "id": "way-1423477500",
    "name": "Biserica Sfântul Pantelimon",
    "type": "church",
    "subcategory": "christian",
    "lat": 43.9359244,
    "lng": 25.9766602,
    "osmType": "way",
    "brand": null,
    "operator": null
  },
  {
    "id": "way-1424101609",
    "name": "Schitul „Sfântul Ierarh Nicolae”",
    "type": "church",
    "subcategory": "christian",
    "lat": 43.9122317,
    "lng": 25.9770543,
    "osmType": "way",
    "brand": null,
    "operator": null
  },
  {
    "id": "way-1451844202",
    "name": "Grădinița Albă ca Zăpada",
    "type": "school",
    "subcategory": "kindergarten",
    "lat": 43.8897024,
    "lng": 25.9669712,
    "osmType": "way",
    "brand": null,
    "operator": null
  },
  {
    "id": "way-1500798133",
    "name": "Fără nume",
    "type": "church",
    "subcategory": "christian",
    "lat": 43.8980326,
    "lng": 25.9916107,
    "osmType": "way",
    "brand": null,
    "operator": null
  }
]