{
  "city": "Caracal",
  "generated_at": "2026-04-23T09:05:21.043Z",
  "counts": {
    "total": 38,
    "schools": 20,
    "churches": 18
  },
  "pois": [
    {
      "id": "node/311022944",
      "osm_id": 311022944,
      "osm_type": "node",
      "name": "Școala Generală nr.5 \"Gheorghe Magheru\" Caracal",
      "category": "education",
      "lat": 44.1089448,
      "lon": 24.3420473,
      "tags": {
        "addr:city": "Caracal",
        "addr:housenumber": "7",
        "addr:postcode": "235200",
        "addr:street": "Strada Radu Calomfirescu",
        "amenity": "school",
        "name": "Școala Generală nr.5 \"Gheorghe Magheru\" Caracal"
      }
    },
    {
      "id": "node/316480985",
      "osm_id": 316480985,
      "osm_type": "node",
      "name": "Colegiul Național Ioniță Asan",
      "category": "education",
      "lat": 44.117418,
      "lon": 24.3539269,
      "tags": {
        "addr:city": "Caracal",
        "addr:housenumber": "39",
        "addr:postcode": "235200",
        "addr:street": "Bulevardul Nicolae Titulescu",
        "amenity": "school",
        "email": "cniasan2004@yahoo.com",
        "fax": "+40 249 515 260",
        "int_name": "Ionita Asan Highschool",
        "name": "Colegiul Național Ioniță Asan",
        "phone": "+40 249 515 260",
        "website": "https://www.ionita-asan.ro;https://www.cniasan.ro"
      }
    },
    {
      "id": "node/365326677",
      "osm_id": 365326677,
      "osm_type": "node",
      "name": "Școala generală nr. 2 Caracal",
      "category": "education",
      "lat": 44.1106453,
      "lon": 24.3503864,
      "tags": {
        "amenity": "school",
        "name": "Școala generală nr. 2 Caracal"
      }
    },
    {
      "id": "node/365332449",
      "osm_id": 365332449,
      "osm_type": "node",
      "name": "Școala nr. 6 Caracal",
      "category": "education",
      "lat": 44.1158449,
      "lon": 24.3577463,
      "tags": {
        "addr:housenumber": "11",
        "addr:street": "Strada Vasile Alecsandri",
        "amenity": "school",
        "name": "Școala nr. 6 Caracal"
      }
    },
    {
      "id": "node/387262437",
      "osm_id": 387262437,
      "osm_type": "node",
      "name": "Școala Gimnazială Nicolae Titulescu, Caracal",
      "category": "education",
      "lat": 44.1092967,
      "lon": 24.3539897,
      "tags": {
        "addr:city": "Caracal",
        "addr:housenumber": "13",
        "addr:postcode": "235200",
        "addr:street": "Strada General Magheru",
        "amenity": "school",
        "name": "Școala Gimnazială Nicolae Titulescu, Caracal"
      }
    },
    {
      "id": "node/430267621",
      "osm_id": 430267621,
      "osm_type": "node",
      "name": "Colegiul Agricol Dimitrie Petrescu",
      "category": "education",
      "lat": 44.1158958,
      "lon": 24.3747301,
      "tags": {
        "addr:city": "Caracal",
        "addr:housenumber": "104",
        "addr:postcode": "235200",
        "addr:street": "Strada Vasile Alecsandri",
        "amenity": "school",
        "email": "ltdimitriepetrescu@yahoo.com",
        "fax": "+40249511302",
        "name": "Colegiul Agricol Dimitrie Petrescu",
        "phone": "+40249513374",
        "website": "https://colegiulagricolcaracal.webnode.ro"
      }
    },
    {
      "id": "node/2455259236",
      "osm_id": 2455259236,
      "osm_type": "node",
      "name": "Școala de Șoferi",
      "category": "education",
      "lat": 44.1124336,
      "lon": 24.3542987,
      "tags": {
        "building": "school",
        "name": "Școala de Șoferi"
      }
    },
    {
      "id": "node/5365700527",
      "osm_id": 5365700527,
      "osm_type": "node",
      "name": "Grădinița cu Program Prelungit nr. 1 Caracal",
      "category": "education",
      "lat": 44.1156602,
      "lon": 24.3502793,
      "tags": {
        "addr:city": "Caracal",
        "addr:housenumber": "2",
        "addr:street": "Strada Nicolae Titulescu",
        "amenity": "kindergarten",
        "name": "Grădinița cu Program Prelungit nr. 1 Caracal",
        "preschool": "yes"
      }
    },
    {
      "id": "node/9233338708",
      "osm_id": 9233338708,
      "osm_type": "node",
      "name": "Grădinița cu Program Prelungit Nr 2",
      "category": "education",
      "lat": 44.1115284,
      "lon": 24.3421504,
      "tags": {
        "addr:city": "Caracal",
        "addr:housenumber": "1",
        "addr:postcode": "235200",
        "addr:street": "Strada Craiovei",
        "amenity": "kindergarten",
        "name": "Grădinița cu Program Prelungit Nr 2"
      }
    },
    {
      "id": "way/221439223",
      "osm_id": 221439223,
      "osm_type": "way",
      "name": "Școala generală nr.1",
      "category": "education",
      "lat": 44.1143484,
      "lon": 24.3441937,
      "tags": {
        "addr:city": "Caracal",
        "addr:housenumber": "2",
        "addr:postcode": "235200",
        "addr:street": "Strada Mihai Viteazul",
        "amenity": "school",
        "building": "yes",
        "name": "Școala generală nr.1",
        "phone": "+40249511692"
      }
    },
    {
      "id": "way/221441577",
      "osm_id": 221441577,
      "osm_type": "way",
      "name": "Școala generală nr. 2",
      "category": "education",
      "lat": 44.1103435,
      "lon": 24.35042,
      "tags": {
        "amenity": "school",
        "building": "yes",
        "name": "Școala generală nr. 2"
      }
    },
    {
      "id": "way/456711041",
      "osm_id": 456711041,
      "osm_type": "way",
      "name": "Liceul Teoretic Mihai Viteazul",
      "category": "education",
      "lat": 44.1151516,
      "lon": 24.3456257,
      "tags": {
        "addr:city": "Caracal",
        "addr:housenumber": "1B",
        "addr:postcode": "235200",
        "addr:street": "Strada Bicaz",
        "building": "school",
        "name": "Liceul Teoretic Mihai Viteazul"
      }
    },
    {
      "id": "way/554549197",
      "osm_id": 554549197,
      "osm_type": "way",
      "name": "Colegiul Național „Ioniță Asan”",
      "category": "education",
      "lat": 44.1178307,
      "lon": 24.3535568,
      "tags": {
        "amenity": "school",
        "name": "Colegiul Național „Ioniță Asan”"
      }
    },
    {
      "id": "way/556232512",
      "osm_id": 556232512,
      "osm_type": "way",
      "name": "Fără nume",
      "category": "education",
      "lat": 44.1157215,
      "lon": 24.3505346,
      "tags": {
        "addr:city": "Caracal",
        "addr:housenumber": "2",
        "addr:postcode": "235200",
        "addr:street": "Bulevardul Nicolae Titulescu",
        "amenity": "kindergarten",
        "preschool": "yes"
      }
    },
    {
      "id": "way/560526810",
      "osm_id": 560526810,
      "osm_type": "way",
      "name": "Internatul și Clasele step-VI-Ionită Asan",
      "category": "education",
      "lat": 44.1176552,
      "lon": 24.3528541,
      "tags": {
        "building": "school",
        "name": "Internatul și Clasele step-VI-Ionită Asan"
      }
    },
    {
      "id": "way/714941190",
      "osm_id": 714941190,
      "osm_type": "way",
      "name": "Scoala Generala Nr. 3",
      "category": "education",
      "lat": 44.1070918,
      "lon": 24.3289051,
      "tags": {
        "addr:city": "Caracal",
        "addr:housenumber": "1",
        "addr:postcode": "235200",
        "addr:street": "Strada Ștefan cel Mare",
        "amenity": "school",
        "building": "school",
        "name": "Scoala Generala Nr. 3"
      }
    },
    {
      "id": "way/714941192",
      "osm_id": 714941192,
      "osm_type": "way",
      "name": "Grădinița cu Program Normal Dumbrava Minunată",
      "category": "education",
      "lat": 44.1067491,
      "lon": 24.3288376,
      "tags": {
        "addr:city": "Caracal",
        "addr:housenumber": "1A",
        "addr:postcode": "235200",
        "addr:street": "Strada Ștefan cel Mare",
        "amenity": "kindergarten",
        "building": "kindergarten",
        "name": "Grădinița cu Program Normal Dumbrava Minunată",
        "phone": "+40 763 533 028"
      }
    },
    {
      "id": "way/793485877",
      "osm_id": 793485877,
      "osm_type": "way",
      "name": "Grădinița Romano-Americană",
      "category": "education",
      "lat": 44.102413,
      "lon": 24.3422006,
      "tags": {
        "addr:city": "Caracal",
        "addr:housenumber": "3",
        "addr:postcode": "235200",
        "addr:street": "Strada Târgul Nou",
        "building": "kindergarten",
        "name": "Grădinița Romano-Americană",
        "operator": "Primăria Municipiului Caracal, Baza Militară Americană Deveselu"
      }
    },
    {
      "id": "way/793485878",
      "osm_id": 793485878,
      "osm_type": "way",
      "name": "Grădinița Romano-Americană",
      "category": "education",
      "lat": 44.1023663,
      "lon": 24.3422106,
      "tags": {
        "amenity": "kindergarten",
        "name": "Grădinița Romano-Americană"
      }
    },
    {
      "id": "relation/6902477",
      "osm_id": 6902477,
      "osm_type": "relation",
      "name": "Școala Gimnazială Nicolae Titulescu",
      "category": "education",
      "lat": 44.1093326,
      "lon": 24.353995,
      "tags": {
        "building": "school",
        "name": "Școala Gimnazială Nicolae Titulescu",
        "type": "multipolygon"
      }
    },
    {
      "id": "node/355531866",
      "osm_id": 355531866,
      "osm_type": "node",
      "name": "Biserica Sfânta Treime",
      "category": "place_of_worship",
      "lat": 44.1119628,
      "lon": 24.3471437,
      "tags": {
        "addr:city": "Caracal",
        "addr:housenumber": "21",
        "addr:postcode": "235200",
        "addr:street": "Strada Piața Victoriei",
        "amenity": "place_of_worship",
        "denomination": "orthodox",
        "name": "Biserica Sfânta Treime",
        "religion": "christian"
      }
    },
    {
      "id": "node/355550258",
      "osm_id": 355550258,
      "osm_type": "node",
      "name": "Biserica Ortodoxa Toti Sfintii",
      "category": "place_of_worship",
      "lat": 44.1149399,
      "lon": 24.3493725,
      "tags": {
        "addr:city": "Caracal",
        "addr:housenumber": "22",
        "addr:postcode": "235200",
        "addr:street": "Strada Bicaz",
        "amenity": "place_of_worship",
        "denomination": "orthodox",
        "name": "Biserica Ortodoxa Toti Sfintii",
        "religion": "christian"
      }
    },
    {
      "id": "node/369502674",
      "osm_id": 369502674,
      "osm_type": "node",
      "name": "Biserica Penticostală Betania",
      "category": "place_of_worship",
      "lat": 44.1128265,
      "lon": 24.3515083,
      "tags": {
        "addr:city": "Caracal",
        "addr:housenumber": "8",
        "addr:postcode": "235200",
        "addr:street": "Strada 1 Decembrie 1918",
        "amenity": "place_of_worship",
        "denomination": "pentecostal",
        "name": "Biserica Penticostală Betania",
        "religion": "christian"
      }
    },
    {
      "id": "node/369740233",
      "osm_id": 369740233,
      "osm_type": "node",
      "name": "Biserica Sfintii Apostoli Petru si Pavel",
      "category": "place_of_worship",
      "lat": 44.1175225,
      "lon": 24.3549567,
      "tags": {
        "addr:city": "Caracal",
        "addr:housenumber": "41",
        "addr:postcode": "235200",
        "addr:street": "Bulevardul Nicolae Titulescu",
        "amenity": "place_of_worship",
        "denomination": "orthodox",
        "name": "Biserica Sfintii Apostoli Petru si Pavel",
        "religion": "christian"
      }
    },
    {
      "id": "node/369744427",
      "osm_id": 369744427,
      "osm_type": "node",
      "name": "Biserica Protestantă Sfânta Treime",
      "category": "place_of_worship",
      "lat": 44.1112597,
      "lon": 24.3440187,
      "tags": {
        "amenity": "place_of_worship",
        "denomination": "protestant",
        "name": "Biserica Protestantă Sfânta Treime",
        "religion": "christian"
      }
    },
    {
      "id": "node/385997430",
      "osm_id": 385997430,
      "osm_type": "node",
      "name": "Biserica Sfantul Ioan Botezatorul",
      "category": "place_of_worship",
      "lat": 44.111269,
      "lon": 24.3419404,
      "tags": {
        "addr:city": "Caracal",
        "addr:housenumber": "2",
        "addr:postcode": "235200",
        "addr:street": "Strada Gheorghe Doja",
        "amenity": "place_of_worship",
        "denomination": "orthodox",
        "name": "Biserica Sfantul Ioan Botezatorul",
        "religion": "christian"
      }
    },
    {
      "id": "node/387725643",
      "osm_id": 387725643,
      "osm_type": "node",
      "name": "Sinagoga",
      "category": "place_of_worship",
      "lat": 44.1152919,
      "lon": 24.3529637,
      "tags": {
        "addr:city": "Caracal",
        "addr:postcode": "235200",
        "addr:street": "Strada Sergent Grigore Ion",
        "amenity": "place_of_worship",
        "building": "synagogue",
        "fixme": "denomination-is-missing;maybe-disused",
        "name": "Sinagoga",
        "religion": "jewish",
        "source": "local_knowledge"
      }
    },
    {
      "id": "node/387751188",
      "osm_id": 387751188,
      "osm_type": "node",
      "name": "Biserica Sfantul Ierarh Vasile",
      "category": "place_of_worship",
      "lat": 44.1084746,
      "lon": 24.3420657,
      "tags": {
        "addr:city": "Caracal",
        "addr:housenumber": "9",
        "addr:postcode": "235200",
        "addr:street": "Strada Radu Calomfirescu",
        "amenity": "place_of_worship",
        "denomination": "orthodox",
        "name": "Biserica Sfantul Ierarh Vasile",
        "religion": "christian",
        "source": "local_knowledge"
      }
    },
    {
      "id": "node/4527992562",
      "osm_id": 4527992562,
      "osm_type": "node",
      "name": "Biserica Sfantul Gheorghe",
      "category": "place_of_worship",
      "lat": 44.0987901,
      "lon": 24.337875,
      "tags": {
        "addr:city": "Caracal",
        "addr:postcode": "235200",
        "addr:street": "Strada Răsurii",
        "amenity": "place_of_worship",
        "denomination": "orthodox",
        "name": "Biserica Sfantul Gheorghe",
        "religion": "christian"
      }
    },
    {
      "id": "way/181097404",
      "osm_id": 181097404,
      "osm_type": "way",
      "name": "Cimitir",
      "category": "place_of_worship",
      "lat": 44.0981591,
      "lon": 24.3387717,
      "tags": {
        "addr:city": "Caracal",
        "addr:postcode": "235200",
        "addr:street": "Strada Rahovei",
        "denomination": "orthodox",
        "landuse": "cemetery",
        "name": "Cimitir",
        "religion": "christian"
      }
    },
    {
      "id": "way/218043439",
      "osm_id": 218043439,
      "osm_type": "way",
      "name": "Cimitirul Eroilor",
      "category": "place_of_worship",
      "lat": 44.1272549,
      "lon": 24.3537505,
      "tags": {
        "amenity": "grave_yard",
        "name": "Cimitirul Eroilor",
        "religion": "christian",
        "source": "Bing"
      }
    },
    {
      "id": "way/259023270",
      "osm_id": 259023270,
      "osm_type": "way",
      "name": "Biserica Sf. Nicolae",
      "category": "place_of_worship",
      "lat": 44.1130557,
      "lon": 24.3534338,
      "tags": {
        "addr:city": "Caracal",
        "addr:housenumber": "16",
        "addr:postcode": "235200",
        "addr:street": "Strada Plevnei",
        "amenity": "place_of_worship",
        "building": "church",
        "denomination": "orthodox",
        "name": "Biserica Sf. Nicolae",
        "religion": "christian"
      }
    },
    {
      "id": "way/556232515",
      "osm_id": 556232515,
      "osm_type": "way",
      "name": "Biserica Creștină Adventistă de Ziua a Șaptea Caracal",
      "category": "place_of_worship",
      "lat": 44.1148218,
      "lon": 24.3489616,
      "tags": {
        "amenity": "place_of_worship",
        "building": "yes",
        "denomination": "seventh_day_adventist",
        "name": "Biserica Creștină Adventistă de Ziua a Șaptea Caracal",
        "religion": "christian"
      }
    },
    {
      "id": "way/556232516",
      "osm_id": 556232516,
      "osm_type": "way",
      "name": "Biserica Toți Sfinții",
      "category": "place_of_worship",
      "lat": 44.1149265,
      "lon": 24.3493335,
      "tags": {
        "amenity": "place_of_worship",
        "building": "yes",
        "denomination": "romanian_orthodox",
        "name": "Biserica Toți Sfinții",
        "religion": "christian"
      }
    },
    {
      "id": "way/561582676",
      "osm_id": 561582676,
      "osm_type": "way",
      "name": "Biserica Adormirea Maicii Domnului",
      "category": "place_of_worship",
      "lat": 44.113093,
      "lon": 24.3492445,
      "tags": {
        "addr:city": "Caracal",
        "addr:housenumber": "2",
        "addr:postcode": "235200",
        "addr:street": "Strada Parângului",
        "amenity": "place_of_worship",
        "building": "yes",
        "denomination": "orthodox",
        "name": "Biserica Adormirea Maicii Domnului",
        "religion": "christian",
        "wikidata": "Q43077079"
      }
    },
    {
      "id": "way/714941195",
      "osm_id": 714941195,
      "osm_type": "way",
      "name": "Biserica Sf. Gheorghe",
      "category": "place_of_worship",
      "lat": 44.0987707,
      "lon": 24.3378885,
      "tags": {
        "addr:city": "Caracal",
        "addr:street": "Strada Răsuri",
        "amenity": "place_of_worship",
        "building": "yes",
        "denomination": "orthodox",
        "name": "Biserica Sf. Gheorghe",
        "religion": "christian"
      }
    },
    {
      "id": "way/994048969",
      "osm_id": 994048969,
      "osm_type": "way",
      "name": "Biserica Buna Vestire si Sfantul Andrei",
      "category": "place_of_worship",
      "lat": 44.1075673,
      "lon": 24.3289128,
      "tags": {
        "addr:city": "Caracal",
        "addr:housenumber": "2",
        "addr:postcode": "235200",
        "addr:street": "Strada Elena Doamna",
        "amenity": "place_of_worship",
        "building": "church",
        "denomination": "orthodox",
        "name": "Biserica Buna Vestire si Sfantul Andrei",
        "religion": "christian"
      }
    },
    {
      "id": "way/1061821335",
      "osm_id": 1061821335,
      "osm_type": "way",
      "name": "Biserica „Curtea Domnească”",
      "category": "place_of_worship",
      "lat": 44.1137723,
      "lon": 24.344026,
      "tags": {
        "amenity": "place_of_worship",
        "building": "yes",
        "denomination": "orthodox",
        "name": "Biserica „Curtea Domnească”",
        "religion": "christian",
        "source": "microsoft/BuildingFootprints"
      }
    }
  ]
}