{
  "city": "Satu Mare",
  "generated_at": "2026-04-23T08:59:33.849Z",
  "counts": {
    "total": 672,
    "schools": 183,
    "churches": 489
  },
  "pois": [
    {
      "id": "node/490890474",
      "osm_id": 490890474,
      "osm_type": "node",
      "name": "Școala Gimnazială Socond",
      "category": "education",
      "lat": 47.5640974,
      "lon": 22.9516428,
      "tags": {
        "amenity": "school",
        "name": "Școala Gimnazială Socond"
      }
    },
    {
      "id": "node/490892353",
      "osm_id": 490892353,
      "osm_type": "node",
      "name": "Școala primară Socond",
      "category": "education",
      "lat": 47.5624178,
      "lon": 22.9505699,
      "tags": {
        "amenity": "school",
        "name": "Școala primară Socond"
      }
    },
    {
      "id": "node/491016982",
      "osm_id": 491016982,
      "osm_type": "node",
      "name": "Universitatea Tehnica din Cluj-Napoca, extensia Satu Mare",
      "category": "education",
      "lat": 47.7680585,
      "lon": 22.8833209,
      "tags": {
        "addr:street": "B-dul L. Blaga, nr. 121",
        "amenity": "school",
        "description": "The extension of the technical university of Cluj-Napoca in Satu Mare",
        "name": "Universitatea Tehnica din Cluj-Napoca, extensia Satu Mare",
        "opening_hours": "Mo-Sa 08:00-18:00",
        "phone": "+407261768100",
        "website": "https://www.utcluj.ro/universitatea/extensii/satu-mare"
      }
    },
    {
      "id": "node/522096823",
      "osm_id": 522096823,
      "osm_type": "node",
      "name": "Școala Craidorolț",
      "category": "education",
      "lat": 47.6114176,
      "lon": 22.7036185,
      "tags": {
        "amenity": "school",
        "name": "Școala Craidorolț"
      }
    },
    {
      "id": "node/773473998",
      "osm_id": 773473998,
      "osm_type": "node",
      "name": "Școala Dariu Pop",
      "category": "education",
      "lat": 47.7881714,
      "lon": 22.8579189,
      "tags": {
        "amenity": "school",
        "name": "Școala Dariu Pop"
      }
    },
    {
      "id": "node/860220866",
      "osm_id": 860220866,
      "osm_type": "node",
      "name": "Școala Petrești",
      "category": "education",
      "lat": 47.6052356,
      "lon": 22.3633825,
      "tags": {
        "amenity": "school",
        "name": "Școala Petrești",
        "name:de": "Schule Petrifeld"
      }
    },
    {
      "id": "node/1081234385",
      "osm_id": 1081234385,
      "osm_type": "node",
      "name": "G.P.P. nr. 2 Corp C",
      "category": "education",
      "lat": 47.6860421,
      "lon": 22.4717764,
      "tags": {
        "addr:city": "Carei",
        "addr:postcode": "445100",
        "amenity": "kindergarten",
        "name": "G.P.P. nr. 2 Corp C",
        "name:ro": "G.P.P. nr. 2 Corp C"
      }
    },
    {
      "id": "node/1081234419",
      "osm_id": 1081234419,
      "osm_type": "node",
      "name": "Școala Vasile Lucaciu",
      "category": "education",
      "lat": 47.6860348,
      "lon": 22.470918,
      "tags": {
        "addr:city": "Carei",
        "addr:postcode": "445100",
        "amenity": "school",
        "name": "Școala Vasile Lucaciu",
        "name:hu": "Vasile Lucaciu Iskola",
        "name:ro": "Școala Vasile Lucaciu"
      }
    },
    {
      "id": "node/1883120455",
      "osm_id": 1883120455,
      "osm_type": "node",
      "name": "Școala Moftinu Mare",
      "category": "education",
      "lat": 47.6748683,
      "lon": 22.6573644,
      "tags": {
        "amenity": "school",
        "name": "Școala Moftinu Mare"
      }
    },
    {
      "id": "node/1961350759",
      "osm_id": 1961350759,
      "osm_type": "node",
      "name": "Școala Gimnazială Dobra",
      "category": "education",
      "lat": 47.4936999,
      "lon": 22.828858,
      "tags": {
        "amenity": "school",
        "name": "Școala Gimnazială Dobra"
      }
    },
    {
      "id": "node/2957020596",
      "osm_id": 2957020596,
      "osm_type": "node",
      "name": "Școala \"Ion Creangă\" Satu Mare",
      "category": "education",
      "lat": 47.7788705,
      "lon": 22.8896585,
      "tags": {
        "addr:city": "Satu Mare",
        "addr:housenumber": "6",
        "addr:street": "Strada Someșului",
        "amenity": "school",
        "name": "Școala \"Ion Creangă\" Satu Mare"
      }
    },
    {
      "id": "node/3686469090",
      "osm_id": 3686469090,
      "osm_type": "node",
      "name": "Petőfi Sándor Általános Iskola",
      "category": "education",
      "lat": 47.8637384,
      "lon": 23.1218512,
      "tags": {
        "amenity": "school",
        "name": "Petőfi Sándor Általános Iskola",
        "name_1": "Rózsabokor"
      }
    },
    {
      "id": "node/4057304299",
      "osm_id": 4057304299,
      "osm_type": "node",
      "name": "Kindergarten Draga Mea",
      "category": "education",
      "lat": 47.7819545,
      "lon": 22.880685,
      "tags": {
        "amenity": "kindergarten",
        "name": "Kindergarten Draga Mea"
      }
    },
    {
      "id": "node/4095853381",
      "osm_id": 4095853381,
      "osm_type": "node",
      "name": "Școala Gimnazială",
      "category": "education",
      "lat": 47.4770545,
      "lon": 22.5834941,
      "tags": {
        "addr:city": "Tășnad",
        "addr:postcode": "445300",
        "amenity": "school",
        "grades": "0-8",
        "name": "Școala Gimnazială",
        "operator": "Scoala Gimnaziala Tasnad",
        "operator:type": "public"
      }
    },
    {
      "id": "node/4145075039",
      "osm_id": 4145075039,
      "osm_type": "node",
      "name": "Liceul Teoretic Carei",
      "category": "education",
      "lat": 47.679666,
      "lon": 22.4664808,
      "tags": {
        "addr:housenumber": "20",
        "addr:postcode": "445100",
        "addr:street": "Strada Ignișului",
        "amenity": "college",
        "contact:facebook": "LTCarei",
        "email": "teoretic_carei@yahoo.com",
        "name": "Liceul Teoretic Carei",
        "name:hu": "Nagykárolyi Elméleti Liceum",
        "website": "http://www.liceulteoreticcarei.ro"
      }
    },
    {
      "id": "node/4145075040",
      "osm_id": 4145075040,
      "osm_type": "node",
      "name": "Liceul teologic Josephus Calasantius",
      "category": "education",
      "lat": 47.6892803,
      "lon": 22.4645124,
      "tags": {
        "addr:housenumber": "1",
        "addr:street": "Strada Iuliu Maniu",
        "amenity": "college",
        "check_date": "2025-08-23",
        "name": "Liceul teologic Josephus Calasantius",
        "name:hu": "Kalazanci Szent József Római Katolikus Líceum",
        "name:ro": "Liceul teologic Josephus Calasantius"
      }
    },
    {
      "id": "node/4145075042",
      "osm_id": 4145075042,
      "osm_type": "node",
      "name": "Sala de sport Liceul teoretic Carei",
      "category": "education",
      "lat": 47.6801806,
      "lon": 22.466301,
      "tags": {
        "amenity": "college",
        "name": "Sala de sport Liceul teoretic Carei",
        "name:hu": "Nagykárolyi Elméleti Líceum, Tornaterem"
      }
    },
    {
      "id": "node/4148752966",
      "osm_id": 4148752966,
      "osm_type": "node",
      "name": "Școala Generală Gheorghe Bulgar Sanislau",
      "category": "education",
      "lat": 47.6375469,
      "lon": 22.3249021,
      "tags": {
        "amenity": "college",
        "name": "Școala Generală Gheorghe Bulgar Sanislau"
      }
    },
    {
      "id": "node/4712500822",
      "osm_id": 4712500822,
      "osm_type": "node",
      "name": "Școala gimazială \"Fényi István\"",
      "category": "education",
      "lat": 47.7048622,
      "lon": 22.4965726,
      "tags": {
        "addr:city": "Căpleni",
        "addr:housenumber": "96",
        "addr:postcode": "447080",
        "addr:street": "Strada Principală",
        "amenity": "school",
        "education": "school",
        "name": "Școala gimazială \"Fényi István\"",
        "name:de": "\"Fényi István\" Grundschule",
        "name:hu": "\"Fényi István\" Általános Iskola",
        "name:ro": "Școala gimazială \"Fényi István\""
      }
    },
    {
      "id": "node/4712500830",
      "osm_id": 4712500830,
      "osm_type": "node",
      "name": "Grădiniță",
      "category": "education",
      "lat": 47.7051548,
      "lon": 22.4971192,
      "tags": {
        "addr:city": "Căpleni",
        "addr:postcode": "447080",
        "addr:street": "Strada Principală",
        "amenity": "kindergarten",
        "education": "kindergarten",
        "name": "Grădiniță",
        "name:hu": "Óvoda",
        "name:ro": "Grădiniță"
      }
    },
    {
      "id": "node/4875619826",
      "osm_id": 4875619826,
      "osm_type": "node",
      "name": "Școala Ady Endre",
      "category": "education",
      "lat": 47.547275,
      "lon": 22.8423503,
      "tags": {
        "amenity": "school",
        "name": "Școala Ady Endre"
      }
    },
    {
      "id": "node/6454078382",
      "osm_id": 6454078382,
      "osm_type": "node",
      "name": "Școala Octavian Goga",
      "category": "education",
      "lat": 47.7396633,
      "lon": 22.7924322,
      "tags": {
        "amenity": "school",
        "name": "Școala Octavian Goga"
      }
    },
    {
      "id": "node/7018048486",
      "osm_id": 7018048486,
      "osm_type": "node",
      "name": "Scoala Gimnaziala Tibeni",
      "category": "education",
      "lat": 47.81385,
      "lon": 26.0230213,
      "tags": {
        "addr:street": "DC41",
        "amenity": "school",
        "name": "Scoala Gimnaziala Tibeni"
      }
    },
    {
      "id": "node/9711403217",
      "osm_id": 9711403217,
      "osm_type": "node",
      "name": "Liceul Teoretic Carei",
      "category": "education",
      "lat": 47.6798958,
      "lon": 22.4679771,
      "tags": {
        "addr:housenumber": "20",
        "addr:postcode": "445100",
        "addr:street": "Strada Ignișului",
        "amenity": "school",
        "contact:facebook": "LTCarei",
        "email": "teoretic_carei@yahoo.com",
        "name": "Liceul Teoretic Carei",
        "name:hu": "Nagykárolyi Elméleti Liceum",
        "opening_hours": "Mo-Fr 07:00-15:00",
        "survey:date": "2022-05-03",
        "website": "http://www.liceulteoreticcarei.ro"
      }
    },
    {
      "id": "node/10006304118",
      "osm_id": 10006304118,
      "osm_type": "node",
      "name": "Scoala Generala Amati",
      "category": "education",
      "lat": 47.7428939,
      "lon": 22.9170288,
      "tags": {
        "amenity": "school",
        "name": "Scoala Generala Amati",
        "name:en": "Elementary School Amati"
      }
    },
    {
      "id": "node/10006354823",
      "osm_id": 10006354823,
      "osm_type": "node",
      "name": "Scoala Paulesti",
      "category": "education",
      "lat": 47.7785282,
      "lon": 22.921033,
      "tags": {
        "amenity": "school",
        "name": "Scoala Paulesti",
        "name:en": "Paulesti School"
      }
    },
    {
      "id": "node/10951529306",
      "osm_id": 10951529306,
      "osm_type": "node",
      "name": "Fără nume",
      "category": "education",
      "lat": 47.6808926,
      "lon": 22.4683133,
      "tags": {
        "amenity": "kindergarten",
        "survey:date": "2023-06-04"
      }
    },
    {
      "id": "node/12926248277",
      "osm_id": 12926248277,
      "osm_type": "node",
      "name": "Sala sport",
      "category": "education",
      "lat": 48.0355888,
      "lon": 23.1486138,
      "tags": {
        "building": "school",
        "leisure": "sports_centre",
        "name": "Sala sport"
      }
    },
    {
      "id": "node/13470862416",
      "osm_id": 13470862416,
      "osm_type": "node",
      "name": "Școala gimnazială Porumbești",
      "category": "education",
      "lat": 47.9825097,
      "lon": 22.9786827,
      "tags": {
        "addr:city": "Porumbești",
        "addr:housenumber": "47",
        "addr:place": "Porumbești",
        "addr:postcode": "447152",
        "amenity": "school",
        "education": "school",
        "email": "scporumbesti@yahoo.ro",
        "name": "Școala gimnazială Porumbești",
        "operator": "Ministerul Educației Naționale",
        "operator:type": "government",
        "phone": "+40261773318",
        "website": "https://scoalaporumbesti.ro/ro/home-ro/"
      }
    },
    {
      "id": "node/13470862417",
      "osm_id": 13470862417,
      "osm_type": "node",
      "name": "Grădinița cu program normal Porumbești",
      "category": "education",
      "lat": 47.9825294,
      "lon": 22.9784602,
      "tags": {
        "addr:city": "Porumbești",
        "addr:housenumber": "47",
        "addr:place": "Porumbești",
        "addr:postcode": "447152",
        "amenity": "kindergarten",
        "education": "kindergarten",
        "email": "scporumbesti@yahoo.ro",
        "name": "Grădinița cu program normal Porumbești",
        "operator": "Ministerul Educației Naționale",
        "operator:type": "government",
        "phone": "+40261773318",
        "website": "https://scoalaporumbesti.ro/ro/home-ro/"
      }
    },
    {
      "id": "node/13529267001",
      "osm_id": 13529267001,
      "osm_type": "node",
      "name": "UBB",
      "category": "education",
      "lat": 47.7895168,
      "lon": 22.8694775,
      "tags": {
        "addr:housenumber": "47",
        "addr:postcode": "440117",
        "addr:street": "Strada Petőfi Sándor",
        "amenity": "college",
        "name": "UBB",
        "name:hu": "BBTE"
      }
    },
    {
      "id": "way/42250597",
      "osm_id": 42250597,
      "osm_type": "way",
      "name": "Fără nume",
      "category": "education",
      "lat": 47.7747574,
      "lon": 22.8861385,
      "tags": {
        "amenity": "school"
      }
    },
    {
      "id": "way/175996708",
      "osm_id": 175996708,
      "osm_type": "way",
      "name": "Grupul Școlar Simion Bărnuțiu",
      "category": "education",
      "lat": 47.6845384,
      "lon": 22.4608164,
      "tags": {
        "addr:housenumber": "12",
        "addr:street": "Strada Rakoczy Ferencz",
        "amenity": "college",
        "building": "college",
        "name": "Grupul Școlar Simion Bărnuțiu"
      }
    },
    {
      "id": "way/218127973",
      "osm_id": 218127973,
      "osm_type": "way",
      "name": "Grădinița cu Program Prelungit Nr. 13",
      "category": "education",
      "lat": 47.780885,
      "lon": 22.860173,
      "tags": {
        "building": "kindergarten",
        "name": "Grădinița cu Program Prelungit Nr. 13"
      }
    },
    {
      "id": "way/260731725",
      "osm_id": 260731725,
      "osm_type": "way",
      "name": "Școala Mircea Eliade",
      "category": "education",
      "lat": 47.7825697,
      "lon": 22.8684545,
      "tags": {
        "addr:city": "Satu Mare",
        "addr:street": "Strada Mircea Eliade",
        "amenity": "school",
        "name": "Școala Mircea Eliade"
      }
    },
    {
      "id": "way/370879567",
      "osm_id": 370879567,
      "osm_type": "way",
      "name": "Școala Gheorghe Bulgar Sanislău",
      "category": "education",
      "lat": 47.6376411,
      "lon": 22.325036,
      "tags": {
        "addr:city": "Sanislău",
        "addr:housenumber": "1069",
        "addr:postcode": "447260",
        "addr:postcode:source": "Date de la Poșta Română, publicate sub Licența pentru Guvernare Deschisă v1.0 la http://date.gov.ro/organization/posta-romana",
        "addr:street": "Ogorului",
        "building": "school",
        "name": "Școala Gheorghe Bulgar Sanislău"
      }
    },
    {
      "id": "way/371072629",
      "osm_id": 371072629,
      "osm_type": "way",
      "name": "Liceul Tehnologic Tasnad",
      "category": "education",
      "lat": 47.4751801,
      "lon": 22.5868151,
      "tags": {
        "amenity": "school",
        "building": "apartments",
        "education": "school",
        "grades": "9-12",
        "name": "Liceul Tehnologic Tasnad"
      }
    },
    {
      "id": "way/371081513",
      "osm_id": 371081513,
      "osm_type": "way",
      "name": "Scoala Gimnaziala",
      "category": "education",
      "lat": 47.4744212,
      "lon": 22.5858529,
      "tags": {
        "addr:city": "Tășnad",
        "addr:postcode": "445300",
        "addr:street": "Strada Nicolae Bălcescu",
        "building": "school",
        "building:levels": "3",
        "name": "Scoala Gimnaziala",
        "operator": "Scoala Gimnaziala Tasnad"
      }
    },
    {
      "id": "way/407316495",
      "osm_id": 407316495,
      "osm_type": "way",
      "name": "Școala Primară",
      "category": "education",
      "lat": 47.4763042,
      "lon": 22.5866341,
      "tags": {
        "addr:city": "Tășnad",
        "addr:postcode": "445300",
        "amenity": "school",
        "building": "yes",
        "building:levels": "3",
        "education": "school",
        "grades": "0-4",
        "name": "Școala Primară",
        "name:en": "Primary School",
        "operator": "Scoala Gimnaziala Tasnad",
        "operator:type": "public"
      }
    },
    {
      "id": "way/407319579",
      "osm_id": 407319579,
      "osm_type": "way",
      "name": "Football field",
      "category": "education",
      "lat": 47.4756534,
      "lon": 22.5865454,
      "tags": {
        "addr:city": "Tășnad",
        "addr:postcode": "445300",
        "amenity": "school",
        "education": "school",
        "name": "Football field"
      }
    },
    {
      "id": "way/409611710",
      "osm_id": 409611710,
      "osm_type": "way",
      "name": "Grădinița cu program prelungit Nr 1",
      "category": "education",
      "lat": 47.4796762,
      "lon": 22.5854728,
      "tags": {
        "addr:city": "Tășnad",
        "addr:postcode": "445300",
        "addr:street": "Strada Lăcrămioarelor",
        "building": "kindergarten",
        "name": "Grădinița cu program prelungit Nr 1"
      }
    },
    {
      "id": "way/413138977",
      "osm_id": 413138977,
      "osm_type": "way",
      "name": "Fără nume",
      "category": "education",
      "lat": 47.6797387,
      "lon": 22.4674305,
      "tags": {
        "building": "school"
      }
    },
    {
      "id": "way/413139023",
      "osm_id": 413139023,
      "osm_type": "way",
      "name": "Fără nume",
      "category": "education",
      "lat": 47.6797795,
      "lon": 22.4665993,
      "tags": {
        "building": "school"
      }
    },
    {
      "id": "way/413139055",
      "osm_id": 413139055,
      "osm_type": "way",
      "name": "Școala Nr. 3",
      "category": "education",
      "lat": 47.6799522,
      "lon": 22.4679406,
      "tags": {
        "building": "school",
        "building:levels": "3",
        "name": "Școala Nr. 3"
      }
    },
    {
      "id": "way/413176455",
      "osm_id": 413176455,
      "osm_type": "way",
      "name": "Grădinița cu Program Prelungit Nr. 1",
      "category": "education",
      "lat": 47.6852499,
      "lon": 22.4627675,
      "tags": {
        "addr:city": "Carei",
        "addr:street": "Strada Progres",
        "building": "kindergarten",
        "name": "Grădinița cu Program Prelungit Nr. 1"
      }
    },
    {
      "id": "way/413176584",
      "osm_id": 413176584,
      "osm_type": "way",
      "name": "Fără nume",
      "category": "education",
      "lat": 47.6769053,
      "lon": 22.4702592,
      "tags": {
        "addr:housenumber": "27",
        "addr:street": "Tireamului",
        "building": "kindergarten"
      }
    },
    {
      "id": "way/413309878",
      "osm_id": 413309878,
      "osm_type": "way",
      "name": "Fără nume",
      "category": "education",
      "lat": 47.6857991,
      "lon": 22.4715722,
      "tags": {
        "addr:city": "Carei",
        "amenity": "kindergarten"
      }
    },
    {
      "id": "way/413579416",
      "osm_id": 413579416,
      "osm_type": "way",
      "name": "Fără nume",
      "category": "education",
      "lat": 47.6378462,
      "lon": 22.3249261,
      "tags": {
        "amenity": "college",
        "landuse": "grass"
      }
    },
    {
      "id": "way/413580328",
      "osm_id": 413580328,
      "osm_type": "way",
      "name": "Fără nume",
      "category": "education",
      "lat": 47.6373921,
      "lon": 22.3247387,
      "tags": {
        "amenity": "college"
      }
    },
    {
      "id": "way/413580329",
      "osm_id": 413580329,
      "osm_type": "way",
      "name": "Fără nume",
      "category": "education",
      "lat": 47.6374922,
      "lon": 22.3254064,
      "tags": {
        "amenity": "college"
      }
    },
    {
      "id": "way/439006047",
      "osm_id": 439006047,
      "osm_type": "way",
      "name": "Liceul Teoretic German Johann Ettinger",
      "category": "education",
      "lat": 47.7749841,
      "lon": 22.8664084,
      "tags": {
        "addr:street": "Bulevardul Cloșca",
        "building": "school",
        "name": "Liceul Teoretic German Johann Ettinger",
        "name:de": "Deutsches Lyzeum"
      }
    },
    {
      "id": "way/444935850",
      "osm_id": 444935850,
      "osm_type": "way",
      "name": "Fără nume",
      "category": "education",
      "lat": 47.7896395,
      "lon": 22.8761407,
      "tags": {
        "building": "school"
      }
    },
    {
      "id": "way/444935851",
      "osm_id": 444935851,
      "osm_type": "way",
      "name": "Fără nume",
      "category": "education",
      "lat": 47.7899853,
      "lon": 22.8752531,
      "tags": {
        "building": "school"
      }
    },
    {
      "id": "way/444935854",
      "osm_id": 444935854,
      "osm_type": "way",
      "name": "Fără nume",
      "category": "education",
      "lat": 47.7897197,
      "lon": 22.8754379,
      "tags": {
        "building": "school"
      }
    },
    {
      "id": "way/534845319",
      "osm_id": 534845319,
      "osm_type": "way",
      "name": "Fără nume",
      "category": "education",
      "lat": 47.7822927,
      "lon": 22.8682214,
      "tags": {
        "building": "school"
      }
    },
    {
      "id": "way/534845359",
      "osm_id": 534845359,
      "osm_type": "way",
      "name": "Liceul Economic",
      "category": "education",
      "lat": 47.7887219,
      "lon": 22.8828904,
      "tags": {
        "amenity": "school",
        "building": "school",
        "education": "school",
        "name": "Liceul Economic"
      }
    },
    {
      "id": "way/534845458",
      "osm_id": 534845458,
      "osm_type": "way",
      "name": "Grup Şcolar Transporturi şi Telecomunicaţii \"Ion I.C. Brătianu\"",
      "category": "education",
      "lat": 47.7898945,
      "lon": 22.8819897,
      "tags": {
        "building": "school",
        "name": "Grup Şcolar Transporturi şi Telecomunicaţii \"Ion I.C. Brătianu\""
      }
    },
    {
      "id": "way/535345060",
      "osm_id": 535345060,
      "osm_type": "way",
      "name": "COLEGIUL NAŢIONAL IOAN SLAVICI",
      "category": "education",
      "lat": 47.7969844,
      "lon": 22.8751735,
      "tags": {
        "building": "school",
        "name": "COLEGIUL NAŢIONAL IOAN SLAVICI"
      }
    },
    {
      "id": "way/535345066",
      "osm_id": 535345066,
      "osm_type": "way",
      "name": "Fără nume",
      "category": "education",
      "lat": 47.7973995,
      "lon": 22.8756584,
      "tags": {
        "building": "kindergarten"
      }
    },
    {
      "id": "way/535345069",
      "osm_id": 535345069,
      "osm_type": "way",
      "name": "Fără nume",
      "category": "education",
      "lat": 47.7899482,
      "lon": 22.8828308,
      "tags": {
        "building": "school"
      }
    },
    {
      "id": "way/535345085",
      "osm_id": 535345085,
      "osm_type": "way",
      "name": "Fără nume",
      "category": "education",
      "lat": 47.8010182,
      "lon": 22.8753429,
      "tags": {
        "building": "kindergarten",
        "name:hu": "Napsugár Református Óvoda",
        "website": "https://refszatmar.eu/category/ovoda-napsugar/"
      }
    },
    {
      "id": "way/535345114",
      "osm_id": 535345114,
      "osm_type": "way",
      "name": "Fără nume",
      "category": "education",
      "lat": 47.7745604,
      "lon": 22.8658205,
      "tags": {
        "building": "school"
      }
    },
    {
      "id": "way/537146174",
      "osm_id": 537146174,
      "osm_type": "way",
      "name": "Liceul cu program sportiv",
      "category": "education",
      "lat": 47.7985271,
      "lon": 22.8813095,
      "tags": {
        "amenity": "school",
        "education": "school",
        "name": "Liceul cu program sportiv"
      }
    },
    {
      "id": "way/542644682",
      "osm_id": 542644682,
      "osm_type": "way",
      "name": "Fără nume",
      "category": "education",
      "lat": 47.4593295,
      "lon": 22.3711937,
      "tags": {
        "building": "school",
        "source": "Bing"
      }
    },
    {
      "id": "way/542644683",
      "osm_id": 542644683,
      "osm_type": "way",
      "name": "Fără nume",
      "category": "education",
      "lat": 47.4591268,
      "lon": 22.3713292,
      "tags": {
        "building": "school"
      }
    },
    {
      "id": "way/542644684",
      "osm_id": 542644684,
      "osm_type": "way",
      "name": "Fără nume",
      "category": "education",
      "lat": 47.4589569,
      "lon": 22.3708622,
      "tags": {
        "building": "school"
      }
    },
    {
      "id": "way/542644685",
      "osm_id": 542644685,
      "osm_type": "way",
      "name": "Fără nume",
      "category": "education",
      "lat": 47.4588861,
      "lon": 22.3710778,
      "tags": {
        "building": "school"
      }
    },
    {
      "id": "way/542644686",
      "osm_id": 542644686,
      "osm_type": "way",
      "name": "Fără nume",
      "category": "education",
      "lat": 47.4589312,
      "lon": 22.3712276,
      "tags": {
        "building": "school"
      }
    },
    {
      "id": "way/542644687",
      "osm_id": 542644687,
      "osm_type": "way",
      "name": "Fără nume",
      "category": "education",
      "lat": 47.4589917,
      "lon": 22.3713901,
      "tags": {
        "building": "school"
      }
    },
    {
      "id": "way/545101910",
      "osm_id": 545101910,
      "osm_type": "way",
      "name": "Școala cu clasele I-VIII \"Dr. Vasile Lucaciu\"",
      "category": "education",
      "lat": 47.8019046,
      "lon": 22.8868419,
      "tags": {
        "amenity": "school",
        "name": "Școala cu clasele I-VIII \"Dr. Vasile Lucaciu\""
      }
    },
    {
      "id": "way/545101911",
      "osm_id": 545101911,
      "osm_type": "way",
      "name": "Fără nume",
      "category": "education",
      "lat": 47.8016466,
      "lon": 22.8866903,
      "tags": {
        "building": "school"
      }
    },
    {
      "id": "way/550397365",
      "osm_id": 550397365,
      "osm_type": "way",
      "name": "Școala Gimnazială Pir",
      "category": "education",
      "lat": 47.4590487,
      "lon": 22.3714867,
      "tags": {
        "addr:city": "Pir",
        "addr:housenumber": "279",
        "addr:postcode": "447245",
        "addr:street": "Strada Bisericii",
        "amenity": "school",
        "name": "Școala Gimnazială Pir",
        "name:hu": "Szilágypéri Általános Iskola",
        "source": "survey"
      }
    },
    {
      "id": "way/550400124",
      "osm_id": 550400124,
      "osm_type": "way",
      "name": "Școala Primară Pir",
      "category": "education",
      "lat": 47.4622159,
      "lon": 22.3706219,
      "tags": {
        "addr:city": "Pir",
        "addr:housenumber": "58",
        "addr:postcode": "447245",
        "addr:street": "Strada Principală",
        "amenity": "school",
        "name": "Școala Primară Pir",
        "name:hu": "Szilágypéri Elemi Iskola",
        "source": "survey"
      }
    },
    {
      "id": "way/550400816",
      "osm_id": 550400816,
      "osm_type": "way",
      "name": "Grădinița Pir",
      "category": "education",
      "lat": 47.4624592,
      "lon": 22.3712342,
      "tags": {
        "addr:city": "Pir",
        "addr:housenumber": "58",
        "addr:postcode": "447245",
        "addr:street": "Strada Principală",
        "amenity": "kindergarten",
        "name": "Grădinița Pir",
        "name:hu": "Szilágypéri Óvoda",
        "source": "survey"
      }
    },
    {
      "id": "way/571212713",
      "osm_id": 571212713,
      "osm_type": "way",
      "name": "Școala Gimnazială nr 10",
      "category": "education",
      "lat": 47.7940317,
      "lon": 22.8663652,
      "tags": {
        "building": "school",
        "name": "Școala Gimnazială nr 10"
      }
    },
    {
      "id": "way/585915831",
      "osm_id": 585915831,
      "osm_type": "way",
      "name": "Raza de Soare",
      "category": "education",
      "lat": 47.8009653,
      "lon": 22.8759633,
      "tags": {
        "building": "kindergarten",
        "name": "Raza de Soare"
      }
    },
    {
      "id": "way/638164008",
      "osm_id": 638164008,
      "osm_type": "way",
      "name": "Grădinița Program Prelungit 14 Mai",
      "category": "education",
      "lat": 47.8054662,
      "lon": 22.8913588,
      "tags": {
        "addr:street": "Aleea Gladiolei",
        "building": "kindergarten",
        "building:facade:colour": "#edd6b2",
        "building:levels": "2",
        "name": "Grădinița Program Prelungit 14 Mai",
        "roof:material": "roof_tiles",
        "roof:shape": "hipped"
      }
    },
    {
      "id": "way/643714963",
      "osm_id": 643714963,
      "osm_type": "way",
      "name": "Fără nume",
      "category": "education",
      "lat": 47.8054549,
      "lon": 22.8914511,
      "tags": {
        "amenity": "kindergarten"
      }
    },
    {
      "id": "way/644284873",
      "osm_id": 644284873,
      "osm_type": "way",
      "name": "Fără nume",
      "category": "education",
      "lat": 47.7747009,
      "lon": 22.8664748,
      "tags": {
        "addr:street": "Bulevardul Cloșca",
        "amenity": "school"
      }
    },
    {
      "id": "way/644734838",
      "osm_id": 644734838,
      "osm_type": "way",
      "name": "Colegiul Tehnic Traian Vuia",
      "category": "education",
      "lat": 47.7763051,
      "lon": 22.868361,
      "tags": {
        "amenity": "school",
        "name": "Colegiul Tehnic Traian Vuia"
      }
    },
    {
      "id": "way/644734839",
      "osm_id": 644734839,
      "osm_type": "way",
      "name": "Fără nume",
      "category": "education",
      "lat": 47.776537,
      "lon": 22.8681791,
      "tags": {
        "building": "school"
      }
    },
    {
      "id": "way/646263422",
      "osm_id": 646263422,
      "osm_type": "way",
      "name": "Colegiul Național Mihai Eminescu",
      "category": "education",
      "lat": 47.7900209,
      "lon": 22.8756079,
      "tags": {
        "addr:street": "Strada Mihai Eminescu",
        "amenity": "school",
        "education": "school",
        "name": "Colegiul Național Mihai Eminescu"
      }
    },
    {
      "id": "way/664365452",
      "osm_id": 664365452,
      "osm_type": "way",
      "name": "Academia Comerciala",
      "category": "education",
      "lat": 47.7962104,
      "lon": 22.8892603,
      "tags": {
        "amenity": "college",
        "education": "college",
        "name": "Academia Comerciala"
      }
    },
    {
      "id": "way/664422325",
      "osm_id": 664422325,
      "osm_type": "way",
      "name": "Școala Avram Iancu",
      "category": "education",
      "lat": 47.7860324,
      "lon": 22.8631644,
      "tags": {
        "building": "school",
        "name": "Școala Avram Iancu"
      }
    },
    {
      "id": "way/664422326",
      "osm_id": 664422326,
      "osm_type": "way",
      "name": "Fără nume",
      "category": "education",
      "lat": 47.786197,
      "lon": 22.8631679,
      "tags": {
        "amenity": "school"
      }
    },
    {
      "id": "way/665018995",
      "osm_id": 665018995,
      "osm_type": "way",
      "name": "Fără nume",
      "category": "education",
      "lat": 47.7818339,
      "lon": 22.8579057,
      "tags": {
        "amenity": "school",
        "barrier": "fence",
        "education": "school"
      }
    },
    {
      "id": "way/665019033",
      "osm_id": 665019033,
      "osm_type": "way",
      "name": "Grup Școlar de Transport și Telecomunicații \"I.C.Brătianu\"",
      "category": "education",
      "lat": 47.789913,
      "lon": 22.8823155,
      "tags": {
        "amenity": "school",
        "education": "school",
        "name": "Grup Școlar de Transport și Telecomunicații \"I.C.Brătianu\""
      }
    },
    {
      "id": "way/665030478",
      "osm_id": 665030478,
      "osm_type": "way",
      "name": "Fără nume",
      "category": "education",
      "lat": 47.7746148,
      "lon": 22.8861859,
      "tags": {
        "building": "school"
      }
    },
    {
      "id": "way/677645867",
      "osm_id": 677645867,
      "osm_type": "way",
      "name": "Fără nume",
      "category": "education",
      "lat": 47.7182594,
      "lon": 23.1287196,
      "tags": {
        "building": "school"
      }
    },
    {
      "id": "way/704662614",
      "osm_id": 704662614,
      "osm_type": "way",
      "name": "Fără nume",
      "category": "education",
      "lat": 47.862274,
      "lon": 23.1240944,
      "tags": {
        "building": "school"
      }
    },
    {
      "id": "way/750073637",
      "osm_id": 750073637,
      "osm_type": "way",
      "name": "Fără nume",
      "category": "education",
      "lat": 47.8431688,
      "lon": 22.8094052,
      "tags": {
        "addr:city": "Dorolț",
        "amenity": "kindergarten",
        "building": "kindergarten"
      }
    },
    {
      "id": "way/754237238",
      "osm_id": 754237238,
      "osm_type": "way",
      "name": "Fără nume",
      "category": "education",
      "lat": 47.8070774,
      "lon": 22.8867238,
      "tags": {
        "building": "school"
      }
    },
    {
      "id": "way/754237239",
      "osm_id": 754237239,
      "osm_type": "way",
      "name": "Fără nume",
      "category": "education",
      "lat": 47.8072461,
      "lon": 22.8865347,
      "tags": {
        "amenity": "school"
      }
    },
    {
      "id": "way/816470986",
      "osm_id": 816470986,
      "osm_type": "way",
      "name": "Fără nume",
      "category": "education",
      "lat": 47.8743121,
      "lon": 23.426817,
      "tags": {
        "building": "school",
        "building:levels": "2"
      }
    },
    {
      "id": "way/816470991",
      "osm_id": 816470991,
      "osm_type": "way",
      "name": "Liceul Teoretic",
      "category": "education",
      "lat": 47.8743454,
      "lon": 23.4263838,
      "tags": {
        "access": "private",
        "addr:city": "Negrești-Oaș",
        "addr:housenumber": "101",
        "addr:street": "Strada Victoriei",
        "amenity": "school",
        "barrier": "wall",
        "name": "Liceul Teoretic",
        "wall": "concrete",
        "website": "https://licteneg.ro/"
      }
    },
    {
      "id": "way/816475845",
      "osm_id": 816475845,
      "osm_type": "way",
      "name": "Scoala gimnaziala nr. 1",
      "category": "education",
      "lat": 47.8723779,
      "lon": 23.426342,
      "tags": {
        "addr:city": "Negrești-Oaș",
        "addr:housenumber": "73",
        "addr:street": "Strada Victoriei",
        "amenity": "school",
        "name": "Scoala gimnaziala nr. 1"
      }
    },
    {
      "id": "way/816475846",
      "osm_id": 816475846,
      "osm_type": "way",
      "name": "Fără nume",
      "category": "education",
      "lat": 47.8723109,
      "lon": 23.4264424,
      "tags": {
        "building": "school"
      }
    },
    {
      "id": "way/888157403",
      "osm_id": 888157403,
      "osm_type": "way",
      "name": "Liceul Tehnologic Ioniță G Andron",
      "category": "education",
      "lat": 47.8536253,
      "lon": 23.4069574,
      "tags": {
        "access": "private",
        "addr:city": "Negrești-Oaș",
        "addr:housenumber": "7-8",
        "addr:street": "Strada Luna",
        "amenity": "school",
        "barrier": "fence",
        "name": "Liceul Tehnologic Ioniță G Andron",
        "website": "http://www.gsanegr.ro/site/"
      }
    },
    {
      "id": "way/888157404",
      "osm_id": 888157404,
      "osm_type": "way",
      "name": "Fără nume",
      "category": "education",
      "lat": 47.8528414,
      "lon": 23.4070034,
      "tags": {
        "building": "school"
      }
    },
    {
      "id": "way/888157405",
      "osm_id": 888157405,
      "osm_type": "way",
      "name": "Fără nume",
      "category": "education",
      "lat": 47.8533196,
      "lon": 23.4075428,
      "tags": {
        "building": "school"
      }
    },
    {
      "id": "way/888157406",
      "osm_id": 888157406,
      "osm_type": "way",
      "name": "Fără nume",
      "category": "education",
      "lat": 47.8538896,
      "lon": 23.4081335,
      "tags": {
        "building": "school"
      }
    },
    {
      "id": "way/891540904",
      "osm_id": 891540904,
      "osm_type": "way",
      "name": "Școala Generală Nr.3",
      "category": "education",
      "lat": 47.8676671,
      "lon": 23.424245,
      "tags": {
        "addr:city": "Negresti Oas",
        "addr:housenumber": "59",
        "addr:street": "Strada Victoriei",
        "amenity": "school",
        "name": "Școala Generală Nr.3",
        "website": "http://scoala3negrestioas.ro/"
      }
    },
    {
      "id": "way/891540905",
      "osm_id": 891540905,
      "osm_type": "way",
      "name": "Fără nume",
      "category": "education",
      "lat": 47.8678688,
      "lon": 23.4243741,
      "tags": {
        "building": "school"
      }
    },
    {
      "id": "way/892040023",
      "osm_id": 892040023,
      "osm_type": "way",
      "name": "Fără nume",
      "category": "education",
      "lat": 47.8700594,
      "lon": 23.4420975,
      "tags": {
        "building": "kindergarten",
        "old_name": "Scoala nr. 4"
      }
    },
    {
      "id": "way/892040024",
      "osm_id": 892040024,
      "osm_type": "way",
      "name": "Fără nume",
      "category": "education",
      "lat": 47.8699999,
      "lon": 23.4420863,
      "tags": {
        "amenity": "kindergarten",
        "barrier": "fence"
      }
    },
    {
      "id": "way/1040347258",
      "osm_id": 1040347258,
      "osm_type": "way",
      "name": "Grădiniţa cu Program Prelungit Nr. 11",
      "category": "education",
      "lat": 47.7748969,
      "lon": 22.8872777,
      "tags": {
        "building": "kindergarten",
        "name": "Grădiniţa cu Program Prelungit Nr. 11"
      }
    },
    {
      "id": "way/1073418757",
      "osm_id": 1073418757,
      "osm_type": "way",
      "name": "Școala \"Ion Creangă\" Satu Mare",
      "category": "education",
      "lat": 47.7788286,
      "lon": 22.8896964,
      "tags": {
        "amenity": "school",
        "name": "Școala \"Ion Creangă\" Satu Mare"
      }
    },
    {
      "id": "way/1073498112",
      "osm_id": 1073498112,
      "osm_type": "way",
      "name": "Fără nume",
      "category": "education",
      "lat": 47.7743074,
      "lon": 22.8665269,
      "tags": {
        "building": "school"
      }
    },
    {
      "id": "way/1075068375",
      "osm_id": 1075068375,
      "osm_type": "way",
      "name": "Colegiul Național \"Kölcsey Ferenc\"",
      "category": "education",
      "lat": 47.7907652,
      "lon": 22.8764044,
      "tags": {
        "amenity": "school",
        "education": "school",
        "name": "Colegiul Național \"Kölcsey Ferenc\""
      }
    },
    {
      "id": "way/1075072339",
      "osm_id": 1075072339,
      "osm_type": "way",
      "name": "Liceul Teoretic \"Doamna Stanca\"",
      "category": "education",
      "lat": 47.7945801,
      "lon": 22.8745206,
      "tags": {
        "amenity": "school",
        "education": "school",
        "name": "Liceul Teoretic \"Doamna Stanca\""
      }
    },
    {
      "id": "way/1075076335",
      "osm_id": 1075076335,
      "osm_type": "way",
      "name": "Fără nume",
      "category": "education",
      "lat": 47.7927157,
      "lon": 22.8785787,
      "tags": {
        "building": "school"
      }
    },
    {
      "id": "way/1075076336",
      "osm_id": 1075076336,
      "osm_type": "way",
      "name": "Liceul Teologic Romano Catolic \"Ham Janos\"",
      "category": "education",
      "lat": 47.7926634,
      "lon": 22.8785489,
      "tags": {
        "amenity": "school",
        "contact:website": "https://hamjanos.ro/",
        "denomination": "roman_catholic",
        "education": "school",
        "name": "Liceul Teologic Romano Catolic \"Ham Janos\"",
        "name:hu": "Hám János Líceum",
        "religion": "christian",
        "wikidata": "Q25466725"
      }
    },
    {
      "id": "way/1075079988",
      "osm_id": 1075079988,
      "osm_type": "way",
      "name": "Fără nume",
      "category": "education",
      "lat": 47.7946247,
      "lon": 22.8744222,
      "tags": {
        "building": "school"
      }
    },
    {
      "id": "way/1075085973",
      "osm_id": 1075085973,
      "osm_type": "way",
      "name": "Fără nume",
      "category": "education",
      "lat": 47.788659,
      "lon": 22.8828133,
      "tags": {
        "amenity": "school",
        "education": "school"
      }
    },
    {
      "id": "way/1075785712",
      "osm_id": 1075785712,
      "osm_type": "way",
      "name": "Fără nume",
      "category": "education",
      "lat": 47.7938197,
      "lon": 22.8663485,
      "tags": {
        "amenity": "school",
        "education": "school"
      }
    },
    {
      "id": "way/1075791856",
      "osm_id": 1075791856,
      "osm_type": "way",
      "name": "Fără nume",
      "category": "education",
      "lat": 47.7908361,
      "lon": 22.8767736,
      "tags": {
        "addr:city": "Satu Mare",
        "addr:housenumber": "1",
        "addr:postcode": "440014",
        "addr:postcode:source": "Date de la Poșta Română, publicate sub Licența pentru Guvernare Deschisă v1.0 la http://date.gov.ro/organization/posta-romana",
        "addr:street": "Strada Mihai Eminescu",
        "building": "school"
      }
    },
    {
      "id": "way/1088879207",
      "osm_id": 1088879207,
      "osm_type": "way",
      "name": "Fără nume",
      "category": "education",
      "lat": 47.7959472,
      "lon": 22.8745283,
      "tags": {
        "amenity": "school",
        "education": "school"
      }
    },
    {
      "id": "way/1089190141",
      "osm_id": 1089190141,
      "osm_type": "way",
      "name": "Fără nume",
      "category": "education",
      "lat": 47.7930483,
      "lon": 22.887901,
      "tags": {
        "addr:housenumber": "20",
        "addr:street": "Bulevardul Traian",
        "building": "school"
      }
    },
    {
      "id": "way/1090250183",
      "osm_id": 1090250183,
      "osm_type": "way",
      "name": "Fără nume",
      "category": "education",
      "lat": 47.7967496,
      "lon": 22.8880266,
      "tags": {
        "addr:housenumber": "1",
        "addr:street": "Strada Crișan",
        "building": "school"
      }
    },
    {
      "id": "way/1090250184",
      "osm_id": 1090250184,
      "osm_type": "way",
      "name": "Fără nume",
      "category": "education",
      "lat": 47.7964569,
      "lon": 22.8883673,
      "tags": {
        "building": "school"
      }
    },
    {
      "id": "way/1090250185",
      "osm_id": 1090250185,
      "osm_type": "way",
      "name": "Liceul Tehnologic \"Constantin Brâncuși\"",
      "category": "education",
      "lat": 47.7967064,
      "lon": 22.8881046,
      "tags": {
        "amenity": "school",
        "education": "school",
        "name": "Liceul Tehnologic \"Constantin Brâncuși\""
      }
    },
    {
      "id": "way/1090822867",
      "osm_id": 1090822867,
      "osm_type": "way",
      "name": "Fără nume",
      "category": "education",
      "lat": 47.6828858,
      "lon": 23.120922,
      "tags": {
        "building": "school"
      }
    },
    {
      "id": "way/1091076432",
      "osm_id": 1091076432,
      "osm_type": "way",
      "name": "Liceul Reformat",
      "category": "education",
      "lat": 47.7959331,
      "lon": 22.8745401,
      "tags": {
        "addr:housenumber": "2",
        "addr:street": "Piața Jean Calvin",
        "building": "school",
        "name": "Liceul Reformat"
      }
    },
    {
      "id": "way/1091076433",
      "osm_id": 1091076433,
      "osm_type": "way",
      "name": "Fără nume",
      "category": "education",
      "lat": 47.7970661,
      "lon": 22.8751801,
      "tags": {
        "amenity": "school",
        "education": "school"
      }
    },
    {
      "id": "way/1154328477",
      "osm_id": 1154328477,
      "osm_type": "way",
      "name": "școala de arte",
      "category": "education",
      "lat": 47.7976564,
      "lon": 22.876728,
      "tags": {
        "building": "school",
        "name": "școala de arte"
      }
    },
    {
      "id": "way/1154328478",
      "osm_id": 1154328478,
      "osm_type": "way",
      "name": "Fără nume",
      "category": "education",
      "lat": 47.7978287,
      "lon": 22.8766467,
      "tags": {
        "building": "school"
      }
    },
    {
      "id": "way/1154375616",
      "osm_id": 1154375616,
      "osm_type": "way",
      "name": "Fără nume",
      "category": "education",
      "lat": 47.7749129,
      "lon": 22.8872694,
      "tags": {
        "amenity": "kindergarten"
      }
    },
    {
      "id": "way/1154807159",
      "osm_id": 1154807159,
      "osm_type": "way",
      "name": "Școala Generală \"Grigore Moisil\"",
      "category": "education",
      "lat": 47.7950733,
      "lon": 22.8785367,
      "tags": {
        "building": "school",
        "name": "Școala Generală \"Grigore Moisil\""
      }
    },
    {
      "id": "way/1159461901",
      "osm_id": 1159461901,
      "osm_type": "way",
      "name": "Școala Gimnazială \"Lucian Blaga\" Satu Mare",
      "category": "education",
      "lat": 47.7796845,
      "lon": 22.8928129,
      "tags": {
        "building": "school",
        "name": "Școala Gimnazială \"Lucian Blaga\" Satu Mare"
      }
    },
    {
      "id": "way/1258966575",
      "osm_id": 1258966575,
      "osm_type": "way",
      "name": "Liceul Cu Program Sportiv",
      "category": "education",
      "lat": 47.7988117,
      "lon": 22.8812001,
      "tags": {
        "building": "school",
        "name": "Liceul Cu Program Sportiv"
      }
    },
    {
      "id": "way/1291736905",
      "osm_id": 1291736905,
      "osm_type": "way",
      "name": "Școala \"Ion Creangă\" Satu Mare",
      "category": "education",
      "lat": 47.7789264,
      "lon": 22.8900894,
      "tags": {
        "building": "school",
        "name": "Școala \"Ion Creangă\" Satu Mare"
      }
    },
    {
      "id": "way/1291736906",
      "osm_id": 1291736906,
      "osm_type": "way",
      "name": "Școala \"Ion Creangă\" Satu Mare",
      "category": "education",
      "lat": 47.7791645,
      "lon": 22.8897159,
      "tags": {
        "building": "school",
        "name": "Școala \"Ion Creangă\" Satu Mare"
      }
    },
    {
      "id": "way/1293892083",
      "osm_id": 1293892083,
      "osm_type": "way",
      "name": "Fără nume",
      "category": "education",
      "lat": 47.7808853,
      "lon": 22.8601996,
      "tags": {
        "amenity": "kindergarten"
      }
    },
    {
      "id": "way/1303922845",
      "osm_id": 1303922845,
      "osm_type": "way",
      "name": "Fără nume",
      "category": "education",
      "lat": 47.7825405,
      "lon": 22.8688358,
      "tags": {
        "building": "school"
      }
    },
    {
      "id": "way/1303925392",
      "osm_id": 1303925392,
      "osm_type": "way",
      "name": "Școala Gimnazială „Bălcescu-Petőfi”",
      "category": "education",
      "lat": 47.7817092,
      "lon": 22.8576201,
      "tags": {
        "building": "school",
        "name": "Școala Gimnazială „Bălcescu-Petőfi”",
        "website": "https://www.balcescupetofi.ro/"
      }
    },
    {
      "id": "way/1303925394",
      "osm_id": 1303925394,
      "osm_type": "way",
      "name": "Fără nume",
      "category": "education",
      "lat": 47.7820785,
      "lon": 22.8572595,
      "tags": {
        "building": "school"
      }
    },
    {
      "id": "way/1303934076",
      "osm_id": 1303934076,
      "osm_type": "way",
      "name": "Scoala Dariu Pop",
      "category": "education",
      "lat": 47.7880719,
      "lon": 22.8579152,
      "tags": {
        "building": "school",
        "name": "Scoala Dariu Pop"
      }
    },
    {
      "id": "way/1303934077",
      "osm_id": 1303934077,
      "osm_type": "way",
      "name": "Fără nume",
      "category": "education",
      "lat": 47.7881356,
      "lon": 22.8579085,
      "tags": {
        "amenity": "school"
      }
    },
    {
      "id": "way/1304136906",
      "osm_id": 1304136906,
      "osm_type": "way",
      "name": "Fără nume",
      "category": "education",
      "lat": 47.7918885,
      "lon": 22.8675275,
      "tags": {
        "building": "kindergarten"
      }
    },
    {
      "id": "way/1306588376",
      "osm_id": 1306588376,
      "osm_type": "way",
      "name": "Conacul Vechi",
      "category": "education",
      "lat": 47.7752108,
      "lon": 22.992348,
      "tags": {
        "building": "school",
        "description": "Manor House",
        "name": "Conacul Vechi"
      }
    },
    {
      "id": "way/1311551893",
      "osm_id": 1311551893,
      "osm_type": "way",
      "name": "Liceul Tehnologic „Elisa Zamfirescu”",
      "category": "education",
      "lat": 47.779781,
      "lon": 22.8713876,
      "tags": {
        "building": "school",
        "name": "Liceul Tehnologic „Elisa Zamfirescu”"
      }
    },
    {
      "id": "way/1311551894",
      "osm_id": 1311551894,
      "osm_type": "way",
      "name": "Atelier de bobinaj Kingof",
      "category": "education",
      "lat": 47.7796341,
      "lon": 22.8717594,
      "tags": {
        "building": "school",
        "name": "Atelier de bobinaj Kingof"
      }
    },
    {
      "id": "way/1311551897",
      "osm_id": 1311551897,
      "osm_type": "way",
      "name": "Fără nume",
      "category": "education",
      "lat": 47.7796753,
      "lon": 22.8715265,
      "tags": {
        "amenity": "school"
      }
    },
    {
      "id": "way/1311579988",
      "osm_id": 1311579988,
      "osm_type": "way",
      "name": "Fără nume",
      "category": "education",
      "lat": 47.789849,
      "lon": 22.8722545,
      "tags": {
        "building": "school"
      }
    },
    {
      "id": "way/1311579989",
      "osm_id": 1311579989,
      "osm_type": "way",
      "name": "Fără nume",
      "category": "education",
      "lat": 47.7900133,
      "lon": 22.8718073,
      "tags": {
        "building": "school"
      }
    },
    {
      "id": "way/1311579991",
      "osm_id": 1311579991,
      "osm_type": "way",
      "name": "Școala Gimnazială Constantin Brâncoveanu",
      "category": "education",
      "lat": 47.7899377,
      "lon": 22.872076,
      "tags": {
        "amenity": "school",
        "education": "school",
        "name": "Școala Gimnazială Constantin Brâncoveanu"
      }
    },
    {
      "id": "way/1314116728",
      "osm_id": 1314116728,
      "osm_type": "way",
      "name": "Liceul de Arte ”Aurel Popp” Cladirea A",
      "category": "education",
      "lat": 47.7956462,
      "lon": 22.8760386,
      "tags": {
        "building": "school",
        "name": "Liceul de Arte ”Aurel Popp” Cladirea A"
      }
    },
    {
      "id": "way/1314116730",
      "osm_id": 1314116730,
      "osm_type": "way",
      "name": "Liceul de Arte ”Aurel Popp” Cladirea B",
      "category": "education",
      "lat": 47.7957878,
      "lon": 22.8754705,
      "tags": {
        "building": "school",
        "name": "Liceul de Arte ”Aurel Popp” Cladirea B"
      }
    },
    {
      "id": "way/1314116732",
      "osm_id": 1314116732,
      "osm_type": "way",
      "name": "Fără nume",
      "category": "education",
      "lat": 47.7958585,
      "lon": 22.8756824,
      "tags": {
        "amenity": "school",
        "education": "school"
      }
    },
    {
      "id": "way/1329048886",
      "osm_id": 1329048886,
      "osm_type": "way",
      "name": "Grupul Şcolar Ardud",
      "category": "education",
      "lat": 47.644853,
      "lon": 22.8923436,
      "tags": {
        "amenity": "school",
        "name": "Grupul Şcolar Ardud"
      }
    },
    {
      "id": "way/1335362268",
      "osm_id": 1335362268,
      "osm_type": "way",
      "name": "Gradinita CPP Cetate",
      "category": "education",
      "lat": 47.6535279,
      "lon": 22.8892769,
      "tags": {
        "amenity": "kindergarten",
        "name": "Gradinita CPP Cetate"
      }
    },
    {
      "id": "way/1366191712",
      "osm_id": 1366191712,
      "osm_type": "way",
      "name": "Scoală Gimnazială",
      "category": "education",
      "lat": 47.9005778,
      "lon": 22.9487017,
      "tags": {
        "addr:city": "Micula",
        "building": "school",
        "name": "Scoală Gimnazială"
      }
    },
    {
      "id": "way/1366202721",
      "osm_id": 1366202721,
      "osm_type": "way",
      "name": "Grădinița",
      "category": "education",
      "lat": 47.8557685,
      "lon": 22.8697153,
      "tags": {
        "addr:city": "Lazuri",
        "building": "kindergarten",
        "name": "Grădinița"
      }
    },
    {
      "id": "way/1366241903",
      "osm_id": 1366241903,
      "osm_type": "way",
      "name": "Școala Gimnazială Petőfi Sándor",
      "category": "education",
      "lat": 47.8541227,
      "lon": 22.8693891,
      "tags": {
        "addr:city": "Lazuri",
        "addr:postcode": "447170q",
        "building": "school",
        "name": "Școala Gimnazială Petőfi Sándor"
      }
    },
    {
      "id": "way/1366241904",
      "osm_id": 1366241904,
      "osm_type": "way",
      "name": "Școala Gimnazială Petőfi Sándor",
      "category": "education",
      "lat": 47.85419,
      "lon": 22.8697427,
      "tags": {
        "building": "school",
        "name": "Școala Gimnazială Petőfi Sándor"
      }
    },
    {
      "id": "way/1366241905",
      "osm_id": 1366241905,
      "osm_type": "way",
      "name": "Fără nume",
      "category": "education",
      "lat": 47.8542546,
      "lon": 22.8694755,
      "tags": {
        "amenity": "school"
      }
    },
    {
      "id": "way/1366320242",
      "osm_id": 1366320242,
      "osm_type": "way",
      "name": "Şcoala Cu Clasele I-VIII Păuleşti",
      "category": "education",
      "lat": 47.7786185,
      "lon": 22.9211385,
      "tags": {
        "building": "school",
        "name": "Şcoala Cu Clasele I-VIII Păuleşti"
      }
    },
    {
      "id": "way/1366320243",
      "osm_id": 1366320243,
      "osm_type": "way",
      "name": "Fără nume",
      "category": "education",
      "lat": 47.7785301,
      "lon": 22.920975,
      "tags": {
        "amenity": "school"
      }
    },
    {
      "id": "way/1377280822",
      "osm_id": 1377280822,
      "osm_type": "way",
      "name": "Liceul Tehnologic George Barițiu Din Livada",
      "category": "education",
      "lat": 47.8628412,
      "lon": 23.1220709,
      "tags": {
        "building": "school",
        "building:levels": "3",
        "name": "Liceul Tehnologic George Barițiu Din Livada"
      }
    },
    {
      "id": "way/1377280852",
      "osm_id": 1377280852,
      "osm_type": "way",
      "name": "Fără nume",
      "category": "education",
      "lat": 47.8624961,
      "lon": 23.1230298,
      "tags": {
        "amenity": "school"
      }
    },
    {
      "id": "way/1378135914",
      "osm_id": 1378135914,
      "osm_type": "way",
      "name": "Fără nume",
      "category": "education",
      "lat": 47.493685,
      "lon": 22.8285616,
      "tags": {
        "building": "school"
      }
    },
    {
      "id": "way/1378135916",
      "osm_id": 1378135916,
      "osm_type": "way",
      "name": "Fără nume",
      "category": "education",
      "lat": 47.5472775,
      "lon": 22.842308,
      "tags": {
        "building": "school"
      }
    },
    {
      "id": "way/1382504701",
      "osm_id": 1382504701,
      "osm_type": "way",
      "name": "ŞCOALA CU CLASELE I-VIII CSÜRY BALINT",
      "category": "education",
      "lat": 47.8807953,
      "lon": 23.0017504,
      "tags": {
        "building": "school",
        "name": "ŞCOALA CU CLASELE I-VIII CSÜRY BALINT"
      }
    },
    {
      "id": "way/1382504702",
      "osm_id": 1382504702,
      "osm_type": "way",
      "name": "Fără nume",
      "category": "education",
      "lat": 47.8809349,
      "lon": 23.0016875,
      "tags": {
        "amenity": "school"
      }
    },
    {
      "id": "way/1383928666",
      "osm_id": 1383928666,
      "osm_type": "way",
      "name": "Școala Cu Clasele I-VIII",
      "category": "education",
      "lat": 47.8430285,
      "lon": 22.8103808,
      "tags": {
        "addr:city": "Dorolț",
        "amenity": "school",
        "building": "school",
        "name": "Școala Cu Clasele I-VIII"
      }
    },
    {
      "id": "way/1383946297",
      "osm_id": 1383946297,
      "osm_type": "way",
      "name": "George Coșbuc",
      "category": "education",
      "lat": 47.7887803,
      "lon": 23.1343137,
      "tags": {
        "building": "school",
        "name": "George Coșbuc"
      }
    },
    {
      "id": "way/1383946298",
      "osm_id": 1383946298,
      "osm_type": "way",
      "name": "Fără nume",
      "category": "education",
      "lat": 47.7886976,
      "lon": 23.1347053,
      "tags": {
        "building": "school"
      }
    },
    {
      "id": "way/1383946299",
      "osm_id": 1383946299,
      "osm_type": "way",
      "name": "Fără nume",
      "category": "education",
      "lat": 47.7889397,
      "lon": 23.1346249,
      "tags": {
        "amenity": "school"
      }
    },
    {
      "id": "way/1388085849",
      "osm_id": 1388085849,
      "osm_type": "way",
      "name": "Școala Gimnazială",
      "category": "education",
      "lat": 47.9325345,
      "lon": 23.0827022,
      "tags": {
        "building": "school",
        "name": "Școala Gimnazială"
      }
    },
    {
      "id": "way/1388085850",
      "osm_id": 1388085850,
      "osm_type": "way",
      "name": "Școala Gimnazială",
      "category": "education",
      "lat": 47.9324698,
      "lon": 23.0822434,
      "tags": {
        "building": "school",
        "name": "Școala Gimnazială"
      }
    },
    {
      "id": "way/1388085857",
      "osm_id": 1388085857,
      "osm_type": "way",
      "name": "GRADINITA",
      "category": "education",
      "lat": 47.9346497,
      "lon": 23.0840133,
      "tags": {
        "building": "kindergarten",
        "name": "GRADINITA"
      }
    },
    {
      "id": "way/1388089882",
      "osm_id": 1388089882,
      "osm_type": "way",
      "name": "Scoala Gimnaziala",
      "category": "education",
      "lat": 47.9054602,
      "lon": 23.0765595,
      "tags": {
        "addr:city": "Drăgușeni",
        "building": "school",
        "name": "Scoala Gimnaziala"
      }
    },
    {
      "id": "way/1389892900",
      "osm_id": 1389892900,
      "osm_type": "way",
      "name": "Scoala Generala, clasele 1-4",
      "category": "education",
      "lat": 47.6630041,
      "lon": 22.9490551,
      "tags": {
        "addr:city": "Viile Satu Mare",
        "building": "school",
        "name": "Scoala Generala, clasele 1-4"
      }
    },
    {
      "id": "way/1408582161",
      "osm_id": 1408582161,
      "osm_type": "way",
      "name": "Fără nume",
      "category": "education",
      "lat": 47.7797791,
      "lon": 22.8929032,
      "tags": {
        "amenity": "school"
      }
    },
    {
      "id": "way/1420415615",
      "osm_id": 1420415615,
      "osm_type": "way",
      "name": "Fără nume",
      "category": "education",
      "lat": 47.698734,
      "lon": 23.3050793,
      "tags": {
        "amenity": "kindergarten",
        "building": "yes",
        "education": "kindergarten"
      }
    },
    {
      "id": "way/1420415673",
      "osm_id": 1420415673,
      "osm_type": "way",
      "name": "Școala Gimnazială Gheorghe Marin",
      "category": "education",
      "lat": 47.6981643,
      "lon": 23.3036126,
      "tags": {
        "amenity": "school",
        "education": "school",
        "name": "Școala Gimnazială Gheorghe Marin"
      }
    },
    {
      "id": "way/1420415675",
      "osm_id": 1420415675,
      "osm_type": "way",
      "name": "Școala Gimnazială Gheorghe Marin",
      "category": "education",
      "lat": 47.698544,
      "lon": 23.3037846,
      "tags": {
        "building": "school",
        "name": "Școala Gimnazială Gheorghe Marin"
      }
    },
    {
      "id": "way/1463939714",
      "osm_id": 1463939714,
      "osm_type": "way",
      "name": "Școala gimazială \"Fényi István\"",
      "category": "education",
      "lat": 47.7049022,
      "lon": 22.4965554,
      "tags": {
        "building": "school",
        "name": "Școala gimazială \"Fényi István\""
      }
    },
    {
      "id": "way/1463939715",
      "osm_id": 1463939715,
      "osm_type": "way",
      "name": "Fără nume",
      "category": "education",
      "lat": 47.7051872,
      "lon": 22.4971048,
      "tags": {
        "addr:city": "Căpleni",
        "addr:postcode": "447080",
        "addr:street": "Strada Principală",
        "building": "kindergarten"
      }
    },
    {
      "id": "way/1468768692",
      "osm_id": 1468768692,
      "osm_type": "way",
      "name": "Fără nume",
      "category": "education",
      "lat": 47.9825054,
      "lon": 22.9785359,
      "tags": {
        "building": "school"
      }
    },
    {
      "id": "way/1488014813",
      "osm_id": 1488014813,
      "osm_type": "way",
      "name": "Raza de Soare",
      "category": "education",
      "lat": 47.8013751,
      "lon": 22.8761419,
      "tags": {
        "amenity": "kindergarten",
        "education": "kindergarten",
        "name": "Raza de Soare"
      }
    },
    {
      "id": "relation/2350269",
      "osm_id": 2350269,
      "osm_type": "relation",
      "name": "Liceul Iuliu Maniu",
      "category": "education",
      "lat": 47.6881003,
      "lon": 22.4673976,
      "tags": {
        "addr:city": "Carei",
        "amenity": "college",
        "building": "yes",
        "name": "Liceul Iuliu Maniu",
        "type": "multipolygon"
      }
    },
    {
      "id": "relation/7677063",
      "osm_id": 7677063,
      "osm_type": "relation",
      "name": "Grup Şcolar Transporturi şi Telecomunicaţii \"Ion I.C. Brătianu\"",
      "category": "education",
      "lat": 47.7898945,
      "lon": 22.8819897,
      "tags": {
        "building": "school",
        "name": "Grup Şcolar Transporturi şi Telecomunicaţii \"Ion I.C. Brătianu\"",
        "type": "multipolygon"
      }
    },
    {
      "id": "node/361445759",
      "osm_id": 361445759,
      "osm_type": "node",
      "name": "Biserica Romano-Catolica Comuna Socond",
      "category": "place_of_worship",
      "lat": 47.5627016,
      "lon": 22.9506214,
      "tags": {
        "amenity": "place_of_worship",
        "denomination": "catholic",
        "name": "Biserica Romano-Catolica Comuna Socond",
        "religion": "christian"
      }
    },
    {
      "id": "node/490740978",
      "osm_id": 490740978,
      "osm_type": "node",
      "name": "Biserica Ortodoxă - Hodișa",
      "category": "place_of_worship",
      "lat": 47.5770043,
      "lon": 22.9743149,
      "tags": {
        "amenity": "place_of_worship",
        "denomination": "orthodox",
        "name": "Biserica Ortodoxă - Hodișa",
        "religion": "christian"
      }
    },
    {
      "id": "node/490967020",
      "osm_id": 490967020,
      "osm_type": "node",
      "name": "Biserica Reformată",
      "category": "place_of_worship",
      "lat": 47.4760705,
      "lon": 22.5818012,
      "tags": {
        "amenity": "place_of_worship",
        "check_date": "2025-07-11",
        "denomination": "reformed",
        "name": "Biserica Reformată",
        "religion": "christian"
      }
    },
    {
      "id": "node/495949736",
      "osm_id": 495949736,
      "osm_type": "node",
      "name": "Mănăstirea Țeghea",
      "category": "place_of_worship",
      "lat": 47.5866343,
      "lon": 22.7201974,
      "tags": {
        "amenity": "place_of_worship",
        "denomination": "orthodox",
        "name": "Mănăstirea Țeghea",
        "religion": "christian"
      }
    },
    {
      "id": "node/503727654",
      "osm_id": 503727654,
      "osm_type": "node",
      "name": "Biserica Catolică Mădăras",
      "category": "place_of_worship",
      "lat": 47.6834397,
      "lon": 22.8643308,
      "tags": {
        "amenity": "place_of_worship",
        "denomination": "catholic",
        "name": "Biserica Catolică Mădăras",
        "religion": "christian"
      }
    },
    {
      "id": "node/522096795",
      "osm_id": 522096795,
      "osm_type": "node",
      "name": "Biserica Romano-Catolică Craidorolț",
      "category": "place_of_worship",
      "lat": 47.6121235,
      "lon": 22.703155,
      "tags": {
        "amenity": "place_of_worship",
        "denomination": "roman_catholic",
        "name": "Biserica Romano-Catolică Craidorolț",
        "religion": "christian"
      }
    },
    {
      "id": "node/522097411",
      "osm_id": 522097411,
      "osm_type": "node",
      "name": "Biserica Ortodoxă Pișcari",
      "category": "place_of_worship",
      "lat": 47.6549029,
      "lon": 22.7301068,
      "tags": {
        "amenity": "place_of_worship",
        "denomination": "orthodox",
        "name": "Biserica Ortodoxă Pișcari",
        "religion": "christian"
      }
    },
    {
      "id": "node/522147985",
      "osm_id": 522147985,
      "osm_type": "node",
      "name": "Biserica Sf.Iosif",
      "category": "place_of_worship",
      "lat": 47.7926817,
      "lon": 22.8887129,
      "tags": {
        "amenity": "place_of_worship",
        "building": "church",
        "denomination": "roman_catholic",
        "name": "Biserica Sf.Iosif",
        "name:hu": "Szent József-templom",
        "religion": "christian",
        "url:miserend": "http://miserend.hu/templom/4536"
      }
    },
    {
      "id": "node/523433533",
      "osm_id": 523433533,
      "osm_type": "node",
      "name": "Biserica Ortodoxă Amați",
      "category": "place_of_worship",
      "lat": 47.7410192,
      "lon": 22.921748,
      "tags": {
        "amenity": "place_of_worship",
        "denomination": "orthodox",
        "name": "Biserica Ortodoxă Amați",
        "religion": "christian"
      }
    },
    {
      "id": "node/825827974",
      "osm_id": 825827974,
      "osm_type": "node",
      "name": "Biserica Catolică Santău",
      "category": "place_of_worship",
      "lat": 47.5097739,
      "lon": 22.5079114,
      "tags": {
        "amenity": "place_of_worship",
        "denomination": "catholic",
        "name": "Biserica Catolică Santău",
        "religion": "christian"
      }
    },
    {
      "id": "node/889464847",
      "osm_id": 889464847,
      "osm_type": "node",
      "name": "Biserica Culciu Mare",
      "category": "place_of_worship",
      "lat": 47.7571462,
      "lon": 23.055942,
      "tags": {
        "amenity": "place_of_worship",
        "denomination": "orthodox",
        "name": "Biserica Culciu Mare",
        "religion": "christian"
      }
    },
    {
      "id": "node/889464956",
      "osm_id": 889464956,
      "osm_type": "node",
      "name": "Biserica Ortodoxă Borlești",
      "category": "place_of_worship",
      "lat": 47.6806356,
      "lon": 23.3309114,
      "tags": {
        "amenity": "place_of_worship",
        "denomination": "orthodox",
        "name": "Biserica Ortodoxă Borlești",
        "religion": "christian"
      }
    },
    {
      "id": "node/1316062732",
      "osm_id": 1316062732,
      "osm_type": "node",
      "name": "Mănăstirea Moișeni",
      "category": "place_of_worship",
      "lat": 47.92787,
      "lon": 23.46739,
      "tags": {
        "amenity": "place_of_worship",
        "denomination": "orthodox",
        "name": "Mănăstirea Moișeni",
        "religion": "christian",
        "source": "jonutzu@gpszone.ro"
      }
    },
    {
      "id": "node/1316063053",
      "osm_id": 1316063053,
      "osm_type": "node",
      "name": "Mănăstirea Scărișoara Nouă",
      "category": "place_of_worship",
      "lat": 47.61375,
      "lon": 22.24486,
      "tags": {
        "amenity": "place_of_worship",
        "denomination": "orthodox",
        "name": "Mănăstirea Scărișoara Nouă",
        "religion": "christian",
        "source": "jonutzu@gpszone.ro"
      }
    },
    {
      "id": "node/1316063303",
      "osm_id": 1316063303,
      "osm_type": "node",
      "name": "Mănăstirea Portărița",
      "category": "place_of_worship",
      "lat": 47.86863,
      "lon": 23.25509,
      "tags": {
        "amenity": "place_of_worship",
        "denomination": "orthodox",
        "name": "Mănăstirea Portărița",
        "religion": "christian",
        "source": "jonutzu@gpszone.ro"
      }
    },
    {
      "id": "node/1474442537",
      "osm_id": 1474442537,
      "osm_type": "node",
      "name": "Biserica Chegea",
      "category": "place_of_worship",
      "lat": 47.4592944,
      "lon": 22.678284,
      "tags": {
        "amenity": "place_of_worship",
        "denomination": "orthodox",
        "name": "Biserica Chegea",
        "religion": "christian"
      }
    },
    {
      "id": "node/1842551119",
      "osm_id": 1842551119,
      "osm_type": "node",
      "name": "Biserica Giurtelecu Hododului",
      "category": "place_of_worship",
      "lat": 47.4163794,
      "lon": 23.0915812,
      "tags": {
        "amenity": "place_of_worship",
        "denomination": "orthodox",
        "name": "Biserica Giurtelecu Hododului",
        "religion": "christian",
        "source": "Bing"
      }
    },
    {
      "id": "node/1865697322",
      "osm_id": 1865697322,
      "osm_type": "node",
      "name": "Fără nume",
      "category": "place_of_worship",
      "lat": 47.6928145,
      "lon": 22.4701995,
      "tags": {
        "amenity": "place_of_worship",
        "denomination": "romanian_orthodox",
        "religion": "christian"
      }
    },
    {
      "id": "node/1865805651",
      "osm_id": 1865805651,
      "osm_type": "node",
      "name": "Biserica Reformată Berveni",
      "category": "place_of_worship",
      "lat": 47.7555013,
      "lon": 22.4727944,
      "tags": {
        "amenity": "place_of_worship",
        "building": "church",
        "denomination": "reformed",
        "name": "Biserica Reformată Berveni",
        "religion": "christian"
      }
    },
    {
      "id": "node/1880828741",
      "osm_id": 1880828741,
      "osm_type": "node",
      "name": "Biserica Catolică Bixad",
      "category": "place_of_worship",
      "lat": 47.9189786,
      "lon": 23.3920835,
      "tags": {
        "amenity": "place_of_worship",
        "denomination": "catholic",
        "name": "Biserica Catolică Bixad",
        "religion": "christian"
      }
    },
    {
      "id": "node/1880828797",
      "osm_id": 1880828797,
      "osm_type": "node",
      "name": "Biserica Sfinții Apostoli Petru și Pavel",
      "category": "place_of_worship",
      "lat": 47.9337662,
      "lon": 23.3839092,
      "tags": {
        "amenity": "place_of_worship",
        "denomination": "orthodox",
        "name": "Biserica Sfinții Apostoli Petru și Pavel",
        "religion": "christian"
      }
    },
    {
      "id": "node/1880829567",
      "osm_id": 1880829567,
      "osm_type": "node",
      "name": "Biserica Ortodoxă Bixad",
      "category": "place_of_worship",
      "lat": 47.9335295,
      "lon": 23.3977695,
      "tags": {
        "amenity": "place_of_worship",
        "denomination": "orthodox",
        "name": "Biserica Ortodoxă Bixad",
        "religion": "christian"
      }
    },
    {
      "id": "node/1883120399",
      "osm_id": 1883120399,
      "osm_type": "node",
      "name": "Biserica Romano-Catolică",
      "category": "place_of_worship",
      "lat": 47.675338,
      "lon": 22.6571525,
      "tags": {
        "addr:city": "Moftinu Mare",
        "amenity": "place_of_worship",
        "building": "church",
        "denomination": "roman_catholic",
        "name": "Biserica Romano-Catolică",
        "name:hu": "Nagyboldogasszony templom",
        "name:ro": "Biserica Romano-Catolică",
        "religion": "christian",
        "url:miserend": "https://miserend.hu/templom/4279"
      }
    },
    {
      "id": "node/1884660328",
      "osm_id": 1884660328,
      "osm_type": "node",
      "name": "Biserica Catolică Ghilvaci",
      "category": "place_of_worship",
      "lat": 47.6783215,
      "lon": 22.6690424,
      "tags": {
        "amenity": "place_of_worship",
        "denomination": "catholic",
        "name": "Biserica Catolică Ghilvaci",
        "name:hu": "Nepomuki Szent János-templom",
        "religion": "christian"
      }
    },
    {
      "id": "node/1915627934",
      "osm_id": 1915627934,
      "osm_type": "node",
      "name": "Fără nume",
      "category": "place_of_worship",
      "lat": 47.8771264,
      "lon": 23.3181045,
      "tags": {
        "amenity": "place_of_worship",
        "denomination": "orthodox",
        "religion": "christian"
      }
    },
    {
      "id": "node/1915656326",
      "osm_id": 1915656326,
      "osm_type": "node",
      "name": "Fără nume",
      "category": "place_of_worship",
      "lat": 47.8496625,
      "lon": 23.3179707,
      "tags": {
        "amenity": "place_of_worship",
        "denomination": "orthodox",
        "religion": "christian"
      }
    },
    {
      "id": "node/1915789185",
      "osm_id": 1915789185,
      "osm_type": "node",
      "name": "Biserica Catolică Călinești-Oaș",
      "category": "place_of_worship",
      "lat": 47.9089606,
      "lon": 23.2973532,
      "tags": {
        "amenity": "place_of_worship",
        "denomination": "catholic",
        "name": "Biserica Catolică Călinești-Oaș",
        "religion": "christian"
      }
    },
    {
      "id": "node/1915789193",
      "osm_id": 1915789193,
      "osm_type": "node",
      "name": "Biserica Ortodoxă Călinești-Oaș",
      "category": "place_of_worship",
      "lat": 47.9085185,
      "lon": 23.291748,
      "tags": {
        "amenity": "place_of_worship",
        "denomination": "orthodox",
        "name": "Biserica Ortodoxă Călinești-Oaș",
        "religion": "christian"
      }
    },
    {
      "id": "node/1916022679",
      "osm_id": 1916022679,
      "osm_type": "node",
      "name": "Biserica Catolică Boinești",
      "category": "place_of_worship",
      "lat": 47.9153623,
      "lon": 23.3486329,
      "tags": {
        "amenity": "place_of_worship",
        "denomination": "catholic",
        "name": "Biserica Catolică Boinești",
        "religion": "christian"
      }
    },
    {
      "id": "node/1916022785",
      "osm_id": 1916022785,
      "osm_type": "node",
      "name": "Biserica Lechința",
      "category": "place_of_worship",
      "lat": 47.9217743,
      "lon": 23.2959303,
      "tags": {
        "amenity": "place_of_worship",
        "denomination": "orthodox",
        "name": "Biserica Lechința",
        "religion": "christian"
      }
    },
    {
      "id": "node/1916023404",
      "osm_id": 1916023404,
      "osm_type": "node",
      "name": "Biserica Ortodoxă Boinești",
      "category": "place_of_worship",
      "lat": 47.912786,
      "lon": 23.3462107,
      "tags": {
        "amenity": "place_of_worship",
        "denomination": "orthodox",
        "name": "Biserica Ortodoxă Boinești",
        "religion": "christian"
      }
    },
    {
      "id": "node/1917631177",
      "osm_id": 1917631177,
      "osm_type": "node",
      "name": "Biserica Catolică Târșolț",
      "category": "place_of_worship",
      "lat": 47.9516166,
      "lon": 23.3349447,
      "tags": {
        "amenity": "place_of_worship",
        "denomination": "catholic",
        "name": "Biserica Catolică Târșolț",
        "religion": "christian"
      }
    },
    {
      "id": "node/1917632092",
      "osm_id": 1917632092,
      "osm_type": "node",
      "name": "Biserica Ortodoxă Târșolț",
      "category": "place_of_worship",
      "lat": 47.9462953,
      "lon": 23.3408727,
      "tags": {
        "amenity": "place_of_worship",
        "denomination": "orthodox",
        "name": "Biserica Ortodoxă Târșolț",
        "religion": "christian"
      }
    },
    {
      "id": "node/1917701654",
      "osm_id": 1917701654,
      "osm_type": "node",
      "name": "Biserica Reformată Turulung",
      "category": "place_of_worship",
      "lat": 47.935317,
      "lon": 23.0824904,
      "tags": {
        "amenity": "place_of_worship",
        "denomination": "reformed",
        "name": "Biserica Reformată Turulung",
        "religion": "christian"
      }
    },
    {
      "id": "node/1917701939",
      "osm_id": 1917701939,
      "osm_type": "node",
      "name": "Biserica Reformată Halmeu",
      "category": "place_of_worship",
      "lat": 47.97712,
      "lon": 23.0179779,
      "tags": {
        "amenity": "place_of_worship",
        "building": "church",
        "denomination": "reformed",
        "name": "Biserica Reformată Halmeu",
        "religion": "christian"
      }
    },
    {
      "id": "node/1917701999",
      "osm_id": 1917701999,
      "osm_type": "node",
      "name": "Biserica Reformată Tămășeni",
      "category": "place_of_worship",
      "lat": 48.0126952,
      "lon": 23.1355067,
      "tags": {
        "amenity": "place_of_worship",
        "denomination": "reformed",
        "name": "Biserica Reformată Tămășeni",
        "religion": "christian"
      }
    },
    {
      "id": "node/1917702257",
      "osm_id": 1917702257,
      "osm_type": "node",
      "name": "Biserica Greco-Catolică Turulung",
      "category": "place_of_worship",
      "lat": 47.9376243,
      "lon": 23.0809777,
      "tags": {
        "amenity": "place_of_worship",
        "denomination": "greek_catholic",
        "name": "Biserica Greco-Catolică Turulung",
        "religion": "christian"
      }
    },
    {
      "id": "node/1919004608",
      "osm_id": 1919004608,
      "osm_type": "node",
      "name": "Biserica Ortodoxă Livada",
      "category": "place_of_worship",
      "lat": 47.8630171,
      "lon": 23.1178771,
      "tags": {
        "amenity": "place_of_worship",
        "denomination": "orthodox",
        "name": "Biserica Ortodoxă Livada",
        "religion": "christian"
      }
    },
    {
      "id": "node/1919005504",
      "osm_id": 1919005504,
      "osm_type": "node",
      "name": "Biserica Ortodoxă Drăgușeni",
      "category": "place_of_worship",
      "lat": 47.905763,
      "lon": 23.0765875,
      "tags": {
        "amenity": "place_of_worship",
        "denomination": "orthodox",
        "name": "Biserica Ortodoxă Drăgușeni",
        "religion": "christian"
      }
    },
    {
      "id": "node/1919044148",
      "osm_id": 1919044148,
      "osm_type": "node",
      "name": "Biserica Romano-Catolică",
      "category": "place_of_worship",
      "lat": 47.901818,
      "lon": 23.1260203,
      "tags": {
        "amenity": "place_of_worship",
        "building": "church",
        "denomination": "roman_catholic",
        "name": "Biserica Romano-Catolică",
        "name:hu": "Sarlós Boldogasszony-templom",
        "religion": "christian",
        "url:miserend": "http://miserend.hu/templom/4614"
      }
    },
    {
      "id": "node/1919044293",
      "osm_id": 1919044293,
      "osm_type": "node",
      "name": "Biserica Gherța Mică",
      "category": "place_of_worship",
      "lat": 47.9346638,
      "lon": 23.2204877,
      "tags": {
        "amenity": "place_of_worship",
        "denomination": "orthodox",
        "name": "Biserica Gherța Mică",
        "religion": "christian"
      }
    },
    {
      "id": "node/1921428602",
      "osm_id": 1921428602,
      "osm_type": "node",
      "name": "Biserica Sfinții Arhangheli Mihail și Gavril",
      "category": "place_of_worship",
      "lat": 47.8383214,
      "lon": 23.3930565,
      "tags": {
        "addr:city": "Vama",
        "addr:housenumber": "709",
        "addr:postcode": "447350",
        "addr:street": "Strada Principală",
        "amenity": "place_of_worship",
        "denomination": "orthodox",
        "email": "romanioan69@yahoo.com",
        "name": "Biserica Sfinții Arhangheli Mihail și Gavril",
        "phone": "0261 857 006",
        "religion": "christian",
        "source": "local_knowledge",
        "website": "https://bisericasfintiiarhanghelimihailsigavriil.business.site/"
      }
    },
    {
      "id": "node/1921428643",
      "osm_id": 1921428643,
      "osm_type": "node",
      "name": "Biserica Ungurească",
      "category": "place_of_worship",
      "lat": 47.8399271,
      "lon": 23.3973966,
      "tags": {
        "addr:city": "Vama",
        "addr:postcode": "447350",
        "addr:street": "Strada Petőfi Sándor",
        "amenity": "place_of_worship",
        "denomination": "reformed",
        "name": "Biserica Ungurească",
        "religion": "christian"
      }
    },
    {
      "id": "node/1922406351",
      "osm_id": 1922406351,
      "osm_type": "node",
      "name": "Parohia Racșa",
      "category": "place_of_worship",
      "lat": 47.8205133,
      "lon": 23.3348455,
      "tags": {
        "amenity": "place_of_worship",
        "denomination": "orthodox",
        "name": "Parohia Racșa",
        "religion": "christian"
      }
    },
    {
      "id": "node/1923948549",
      "osm_id": 1923948549,
      "osm_type": "node",
      "name": "Fără nume",
      "category": "place_of_worship",
      "lat": 47.8073873,
      "lon": 23.2669966,
      "tags": {
        "amenity": "place_of_worship",
        "denomination": "orthodox",
        "religion": "christian"
      }
    },
    {
      "id": "node/1924028964",
      "osm_id": 1924028964,
      "osm_type": "node",
      "name": "Biserica Reformată Orașu Nou",
      "category": "place_of_worship",
      "lat": 47.833196,
      "lon": 23.2897097,
      "tags": {
        "amenity": "place_of_worship",
        "denomination": "reformed",
        "name": "Biserica Reformată Orașu Nou",
        "religion": "christian"
      }
    },
    {
      "id": "node/1924031505",
      "osm_id": 1924031505,
      "osm_type": "node",
      "name": "Biserica Someșeni",
      "category": "place_of_worship",
      "lat": 47.7447205,
      "lon": 23.2099418,
      "tags": {
        "amenity": "place_of_worship",
        "denomination": "orthodox",
        "name": "Biserica Someșeni",
        "religion": "christian"
      }
    },
    {
      "id": "node/1924075354",
      "osm_id": 1924075354,
      "osm_type": "node",
      "name": "Biserica ortodoxă Apa",
      "category": "place_of_worship",
      "lat": 47.7623007,
      "lon": 23.1993341,
      "tags": {
        "amenity": "place_of_worship",
        "denomination": "orthodox",
        "name": "Biserica ortodoxă Apa",
        "religion": "christian"
      }
    },
    {
      "id": "node/1924075889",
      "osm_id": 1924075889,
      "osm_type": "node",
      "name": "Manastirea Lunca Apei",
      "category": "place_of_worship",
      "lat": 47.740454,
      "lon": 23.1611539,
      "tags": {
        "amenity": "place_of_worship",
        "denomination": "orthodox",
        "name": "Manastirea Lunca Apei",
        "religion": "christian"
      }
    },
    {
      "id": "node/1925347112",
      "osm_id": 1925347112,
      "osm_type": "node",
      "name": "Biserica Reformată Potău",
      "category": "place_of_worship",
      "lat": 47.7565569,
      "lon": 23.1188573,
      "tags": {
        "amenity": "place_of_worship",
        "denomination": "reformed",
        "name": "Biserica Reformată Potău",
        "religion": "christian"
      }
    },
    {
      "id": "node/1925347473",
      "osm_id": 1925347473,
      "osm_type": "node",
      "name": "Biserica Greco-Catolică Românești",
      "category": "place_of_worship",
      "lat": 47.7893417,
      "lon": 23.1138537,
      "tags": {
        "amenity": "place_of_worship",
        "denomination": "greek_catholic",
        "name": "Biserica Greco-Catolică Românești",
        "religion": "christian"
      }
    },
    {
      "id": "node/1925347484",
      "osm_id": 1925347484,
      "osm_type": "node",
      "name": "Biserica",
      "category": "place_of_worship",
      "lat": 47.8103732,
      "lon": 23.1526722,
      "tags": {
        "amenity": "place_of_worship",
        "denomination": "orthodox",
        "name": "Biserica",
        "religion": "christian"
      }
    },
    {
      "id": "node/1925347523",
      "osm_id": 1925347523,
      "osm_type": "node",
      "name": "Biserica Ortodoxă Românești",
      "category": "place_of_worship",
      "lat": 47.7901291,
      "lon": 23.1139808,
      "tags": {
        "amenity": "place_of_worship",
        "denomination": "orthodox",
        "name": "Biserica Ortodoxă Românești",
        "religion": "christian"
      }
    },
    {
      "id": "node/1925347653",
      "osm_id": 1925347653,
      "osm_type": "node",
      "name": "Biserica ortodoxă Potău",
      "category": "place_of_worship",
      "lat": 47.7554249,
      "lon": 23.12229,
      "tags": {
        "amenity": "place_of_worship",
        "denomination": "orthodox",
        "name": "Biserica ortodoxă Potău",
        "religion": "christian"
      }
    },
    {
      "id": "node/1925347685",
      "osm_id": 1925347685,
      "osm_type": "node",
      "name": "Biserica ortodoxă Iojib",
      "category": "place_of_worship",
      "lat": 47.8120877,
      "lon": 23.1588965,
      "tags": {
        "amenity": "place_of_worship",
        "denomination": "orthodox",
        "name": "Biserica ortodoxă Iojib",
        "religion": "christian"
      }
    },
    {
      "id": "node/1925347710",
      "osm_id": 1925347710,
      "osm_type": "node",
      "name": "Biserica Reformată Românești",
      "category": "place_of_worship",
      "lat": 47.7903599,
      "lon": 23.1137769,
      "tags": {
        "amenity": "place_of_worship",
        "denomination": "reformed",
        "name": "Biserica Reformată Românești",
        "religion": "christian"
      }
    },
    {
      "id": "node/1925371888",
      "osm_id": 1925371888,
      "osm_type": "node",
      "name": "Biserica Ortodoxă Băbășești",
      "category": "place_of_worship",
      "lat": 47.7763959,
      "lon": 23.0948569,
      "tags": {
        "amenity": "place_of_worship",
        "denomination": "orthodox",
        "name": "Biserica Ortodoxă Băbășești",
        "religion": "christian"
      }
    },
    {
      "id": "node/1925635587",
      "osm_id": 1925635587,
      "osm_type": "node",
      "name": "Biserica Medieșu Aurit",
      "category": "place_of_worship",
      "lat": 47.787813,
      "lon": 23.1312129,
      "tags": {
        "amenity": "place_of_worship",
        "denomination": "orthodox",
        "name": "Biserica Medieșu Aurit",
        "religion": "christian"
      }
    },
    {
      "id": "node/1925671840",
      "osm_id": 1925671840,
      "osm_type": "node",
      "name": "Biserica reformată Iojib",
      "category": "place_of_worship",
      "lat": 47.8165127,
      "lon": 23.1545293,
      "tags": {
        "amenity": "place_of_worship",
        "denomination": "reformed",
        "name": "Biserica reformată Iojib",
        "religion": "christian"
      }
    },
    {
      "id": "node/1925671907",
      "osm_id": 1925671907,
      "osm_type": "node",
      "name": "Biserica",
      "category": "place_of_worship",
      "lat": 47.8051177,
      "lon": 23.1966665,
      "tags": {
        "amenity": "place_of_worship",
        "denomination": "orthodox",
        "name": "Biserica",
        "religion": "christian"
      }
    },
    {
      "id": "node/1925671925",
      "osm_id": 1925671925,
      "osm_type": "node",
      "name": "Biserica Romano-Catolică",
      "category": "place_of_worship",
      "lat": 47.8145062,
      "lon": 23.155468,
      "tags": {
        "amenity": "place_of_worship",
        "building": "church",
        "denomination": "roman_catholic",
        "name": "Biserica Romano-Catolică",
        "name:hu": "Szent István király templom",
        "religion": "christian",
        "url:miserend": "https://miserend.hu/templom/4609"
      }
    },
    {
      "id": "node/1926699476",
      "osm_id": 1926699476,
      "osm_type": "node",
      "name": "Biserica Greco-Catolică Berindan",
      "category": "place_of_worship",
      "lat": 47.7848485,
      "lon": 23.0101968,
      "tags": {
        "amenity": "place_of_worship",
        "denomination": "catholic",
        "name": "Biserica Greco-Catolică Berindan",
        "religion": "christian"
      }
    },
    {
      "id": "node/1927201313",
      "osm_id": 1927201313,
      "osm_type": "node",
      "name": "Biserica Livada Mică",
      "category": "place_of_worship",
      "lat": 47.8440469,
      "lon": 23.1158238,
      "tags": {
        "amenity": "place_of_worship",
        "denomination": "orthodox",
        "name": "Biserica Livada Mică",
        "religion": "christian"
      }
    },
    {
      "id": "node/1927459831",
      "osm_id": 1927459831,
      "osm_type": "node",
      "name": "Biserica Reformată Agriș",
      "category": "place_of_worship",
      "lat": 47.882583,
      "lon": 23.0058005,
      "tags": {
        "amenity": "place_of_worship",
        "denomination": "reformed",
        "name": "Biserica Reformată Agriș",
        "religion": "christian"
      }
    },
    {
      "id": "node/1927489174",
      "osm_id": 1927489174,
      "osm_type": "node",
      "name": "Biserica Aciua",
      "category": "place_of_worship",
      "lat": 47.6841012,
      "lon": 23.364492,
      "tags": {
        "amenity": "place_of_worship",
        "denomination": "orthodox",
        "name": "Biserica Aciua",
        "religion": "christian"
      }
    },
    {
      "id": "node/1927501694",
      "osm_id": 1927501694,
      "osm_type": "node",
      "name": "Biserica Catolică Borlești",
      "category": "place_of_worship",
      "lat": 47.6773221,
      "lon": 23.3345052,
      "tags": {
        "amenity": "place_of_worship",
        "denomination": "catholic",
        "name": "Biserica Catolică Borlești",
        "religion": "christian"
      }
    },
    {
      "id": "node/1927645954",
      "osm_id": 1927645954,
      "osm_type": "node",
      "name": "Biserica Pomi",
      "category": "place_of_worship",
      "lat": 47.6992703,
      "lon": 23.3062361,
      "tags": {
        "amenity": "place_of_worship",
        "denomination": "orthodox",
        "name": "Biserica Pomi",
        "religion": "christian"
      }
    },
    {
      "id": "node/1927740784",
      "osm_id": 1927740784,
      "osm_type": "node",
      "name": "Biserica Crucișor",
      "category": "place_of_worship",
      "lat": 47.6938587,
      "lon": 23.2272747,
      "tags": {
        "amenity": "place_of_worship",
        "denomination": "orthodox",
        "name": "Biserica Crucișor",
        "religion": "christian"
      }
    },
    {
      "id": "node/1927740938",
      "osm_id": 1927740938,
      "osm_type": "node",
      "name": "Biserica Iegheriște",
      "category": "place_of_worship",
      "lat": 47.6572909,
      "lon": 23.260695,
      "tags": {
        "amenity": "place_of_worship",
        "denomination": "orthodox",
        "name": "Biserica Iegheriște",
        "religion": "christian"
      }
    },
    {
      "id": "node/1927740993",
      "osm_id": 1927740993,
      "osm_type": "node",
      "name": "Fără nume",
      "category": "place_of_worship",
      "lat": 47.6835308,
      "lon": 23.2482818,
      "tags": {
        "amenity": "place_of_worship",
        "denomination": "orthodox",
        "religion": "christian"
      }
    },
    {
      "id": "node/1927742169",
      "osm_id": 1927742169,
      "osm_type": "node",
      "name": "Biserica Bicău",
      "category": "place_of_worship",
      "lat": 47.6633317,
      "lon": 23.2878548,
      "tags": {
        "amenity": "place_of_worship",
        "denomination": "orthodox",
        "name": "Biserica Bicău",
        "religion": "christian"
      }
    },
    {
      "id": "node/1927822692",
      "osm_id": 1927822692,
      "osm_type": "node",
      "name": "Biserica Poiana Codrului",
      "category": "place_of_worship",
      "lat": 47.6258674,
      "lon": 23.2444998,
      "tags": {
        "amenity": "place_of_worship",
        "denomination": "orthodox",
        "name": "Biserica Poiana Codrului",
        "religion": "christian"
      }
    },
    {
      "id": "node/1927823624",
      "osm_id": 1927823624,
      "osm_type": "node",
      "name": "Biserica Bârsău de Jos",
      "category": "place_of_worship",
      "lat": 47.5973158,
      "lon": 23.2634577,
      "tags": {
        "amenity": "place_of_worship",
        "denomination": "orthodox",
        "name": "Biserica Bârsău de Jos",
        "religion": "christian"
      }
    },
    {
      "id": "node/1929475779",
      "osm_id": 1929475779,
      "osm_type": "node",
      "name": "Biserica Ortodoxă Bârsău de Sus",
      "category": "place_of_worship",
      "lat": 47.5947071,
      "lon": 23.2176861,
      "tags": {
        "addr:city": "Bârsău de Sus",
        "amenity": "place_of_worship",
        "denomination": "orthodox",
        "name": "Biserica Ortodoxă Bârsău de Sus",
        "name:ro": "Biserica Ortodoxă Bârsău de Sus",
        "religion": "christian"
      }
    },
    {
      "id": "node/1930133234",
      "osm_id": 1930133234,
      "osm_type": "node",
      "name": "Biserica Măriuș",
      "category": "place_of_worship",
      "lat": 47.6660891,
      "lon": 23.1830766,
      "tags": {
        "amenity": "place_of_worship",
        "denomination": "orthodox",
        "name": "Biserica Măriuș",
        "religion": "christian",
        "source": "Bing"
      }
    },
    {
      "id": "node/1930164057",
      "osm_id": 1930164057,
      "osm_type": "node",
      "name": "Biserica Valea Vinului",
      "category": "place_of_worship",
      "lat": 47.7186434,
      "lon": 23.1888269,
      "tags": {
        "amenity": "place_of_worship",
        "denomination": "orthodox",
        "name": "Biserica Valea Vinului",
        "religion": "christian"
      }
    },
    {
      "id": "node/1930164328",
      "osm_id": 1930164328,
      "osm_type": "node",
      "name": "Biserica Roșiori",
      "category": "place_of_worship",
      "lat": 47.7134272,
      "lon": 23.2355501,
      "tags": {
        "amenity": "place_of_worship",
        "denomination": "orthodox",
        "name": "Biserica Roșiori",
        "religion": "christian"
      }
    },
    {
      "id": "node/1935597301",
      "osm_id": 1935597301,
      "osm_type": "node",
      "name": "Biserica Ortodoxă Necopoi",
      "category": "place_of_worship",
      "lat": 47.6811336,
      "lon": 23.0656591,
      "tags": {
        "amenity": "place_of_worship",
        "denomination": "orthodox",
        "name": "Biserica Ortodoxă Necopoi",
        "religion": "christian"
      }
    },
    {
      "id": "node/1935715166",
      "osm_id": 1935715166,
      "osm_type": "node",
      "name": "Biserica Satului Tătărești",
      "category": "place_of_worship",
      "lat": 47.6858519,
      "lon": 23.0077091,
      "tags": {
        "amenity": "place_of_worship",
        "denomination": "orthodox",
        "name": "Biserica Satului Tătărești",
        "religion": "christian",
        "source": "Bing"
      }
    },
    {
      "id": "node/1935715173",
      "osm_id": 1935715173,
      "osm_type": "node",
      "name": "Biserica Tireac",
      "category": "place_of_worship",
      "lat": 47.6943181,
      "lon": 23.0360247,
      "tags": {
        "amenity": "place_of_worship",
        "denomination": "orthodox",
        "name": "Biserica Tireac",
        "religion": "christian"
      }
    },
    {
      "id": "node/1935770530",
      "osm_id": 1935770530,
      "osm_type": "node",
      "name": "Biserica Chilia",
      "category": "place_of_worship",
      "lat": 47.641723,
      "lon": 23.0768802,
      "tags": {
        "amenity": "place_of_worship",
        "denomination": "orthodox",
        "name": "Biserica Chilia",
        "religion": "christian",
        "source": "Bing"
      }
    },
    {
      "id": "node/1935770531",
      "osm_id": 1935770531,
      "osm_type": "node",
      "name": "Mânăstirea Homorodu de Mijloc",
      "category": "place_of_worship",
      "lat": 47.6443967,
      "lon": 23.0713947,
      "tags": {
        "amenity": "monastery",
        "denomination": "romanian_orthodox",
        "name": "Mânăstirea Homorodu de Mijloc",
        "religion": "christian",
        "source": "Bing"
      }
    },
    {
      "id": "node/1935812369",
      "osm_id": 1935812369,
      "osm_type": "node",
      "name": "Biserica Ortodoxă Homorodu de Sus",
      "category": "place_of_worship",
      "lat": 47.6156391,
      "lon": 23.0525762,
      "tags": {
        "amenity": "place_of_worship",
        "denomination": "orthodox",
        "name": "Biserica Ortodoxă Homorodu de Sus",
        "religion": "christian",
        "source": "Bing"
      }
    },
    {
      "id": "node/1935812370",
      "osm_id": 1935812370,
      "osm_type": "node",
      "name": "Biserica Homorodu de Mijloc",
      "category": "place_of_worship",
      "lat": 47.6281037,
      "lon": 23.0566024,
      "tags": {
        "amenity": "place_of_worship",
        "denomination": "orthodox",
        "name": "Biserica Homorodu de Mijloc",
        "religion": "christian"
      }
    },
    {
      "id": "node/1935814961",
      "osm_id": 1935814961,
      "osm_type": "node",
      "name": "Biserica Baptistă Homorodu de Sus",
      "category": "place_of_worship",
      "lat": 47.6171808,
      "lon": 23.0527179,
      "tags": {
        "amenity": "place_of_worship",
        "denomination": "baptist",
        "name": "Biserica Baptistă Homorodu de Sus",
        "religion": "christian",
        "source": "Bing"
      }
    },
    {
      "id": "node/1936807414",
      "osm_id": 1936807414,
      "osm_type": "node",
      "name": "Biserica Solduba",
      "category": "place_of_worship",
      "lat": 47.5994842,
      "lon": 23.03899,
      "tags": {
        "amenity": "place_of_worship",
        "denomination": "orthodox",
        "name": "Biserica Solduba",
        "religion": "christian",
        "source": "Bing"
      }
    },
    {
      "id": "node/1936807415",
      "osm_id": 1936807415,
      "osm_type": "node",
      "name": "Biserica Medișa",
      "category": "place_of_worship",
      "lat": 47.6060896,
      "lon": 23.0043517,
      "tags": {
        "amenity": "place_of_worship",
        "denomination": "orthodox",
        "name": "Biserica Medișa",
        "religion": "christian",
        "source": "Bing"
      }
    },
    {
      "id": "node/1936824599",
      "osm_id": 1936824599,
      "osm_type": "node",
      "name": "Biserica Cuța",
      "category": "place_of_worship",
      "lat": 47.5364745,
      "lon": 23.0051473,
      "tags": {
        "amenity": "place_of_worship",
        "denomination": "orthodox",
        "name": "Biserica Cuța",
        "religion": "christian",
        "source": "Bing"
      }
    },