[
  {
    "id": "node-873887919",
    "name": "Biserica Sfânta Mare Muceniță Ecaterina",
    "type": "church",
    "subcategory": "christian",
    "lat": 44.22064,
    "lng": 28.5907291,
    "osmType": "node",
    "brand": null,
    "operator": null
  },
  {
    "id": "node-1491143452",
    "name": "Cardiomed",
    "type": "medical",
    "subcategory": "clinic",
    "lat": 44.1731031,
    "lng": 28.6416461,
    "osmType": "node",
    "brand": null,
    "operator": null
  },
  {
    "id": "node-2446148677",
    "name": "Biserica Adventistă de ziua a șaptea - Viile Noi",
    "type": "church",
    "subcategory": "christian",
    "lat": 44.1566813,
    "lng": 28.6119113,
    "osmType": "node",
    "brand": null,
    "operator": null
  },
  {
    "id": "node-3739458679",
    "name": "Black Sea Health Medical Center",
    "type": "medical",
    "subcategory": "clinic",
    "lat": 44.1875883,
    "lng": 28.6510262,
    "osmType": "node",
    "brand": null,
    "operator": null
  },
  {
    "id": "node-3810251096",
    "name": "Geamia Azizie",
    "type": "church",
    "subcategory": "muslim",
    "lat": 44.2324829,
    "lng": 28.5962357,
    "osmType": "node",
    "brand": null,
    "operator": null
  },
  {
    "id": "node-3810977606",
    "name": "Policlinica Farma Medis",
    "type": "medical",
    "subcategory": "clinic",
    "lat": 44.1424279,
    "lng": 28.6324379,
    "osmType": "node",
    "brand": null,
    "operator": null
  },
  {
    "id": "node-3813637170",
    "name": "Centrul Regional de Transfuzii Sanguine Constanța",
    "type": "medical",
    "subcategory": "clinic",
    "lat": 44.1865723,
    "lng": 28.6414114,
    "osmType": "node",
    "brand": null,
    "operator": null
  },
  {
    "id": "node-3831663818",
    "name": "Clinica Sante",
    "type": "medical",
    "subcategory": "clinic",
    "lat": 44.1849597,
    "lng": 28.6364164,
    "osmType": "node",
    "brand": "Clinica Sante",
    "operator": null
  },
  {
    "id": "node-3842520370",
    "name": "Centrul Educational IQ",
    "type": "school",
    "subcategory": "childcare",
    "lat": 44.1869252,
    "lng": 28.6118651,
    "osmType": "node",
    "brand": null,
    "operator": null
  },
  {
    "id": "node-4019664083",
    "name": "Cabinet Oftalmologic",
    "type": "medical",
    "subcategory": "clinic",
    "lat": 44.1994822,
    "lng": 28.6277486,
    "osmType": "node",
    "brand": null,
    "operator": null
  },
  {
    "id": "node-4228875702",
    "name": "Colegiul Nautic Român",
    "type": "school",
    "subcategory": "college",
    "lat": 44.1794073,
    "lng": 28.6164105,
    "osmType": "node",
    "brand": null,
    "operator": null
  },
  {
    "id": "node-4242459890",
    "name": "C.P.I. Madalina Ghizu",
    "type": "medical",
    "subcategory": "clinic",
    "lat": 44.1976369,
    "lng": 28.6271925,
    "osmType": "node",
    "brand": null,
    "operator": null
  },
  {
    "id": "node-4272203489",
    "name": "Mediconst",
    "type": "medical",
    "subcategory": "clinic",
    "lat": 44.1889734,
    "lng": 28.6373749,
    "osmType": "node",
    "brand": null,
    "operator": null
  },
  {
    "id": "node-4283999017",
    "name": "Fără nume",
    "type": "church",
    "subcategory": "christian",
    "lat": 44.1041616,
    "lng": 28.6039088,
    "osmType": "node",
    "brand": null,
    "operator": null
  },
  {
    "id": "node-4298905232",
    "name": "Grădinița Licuriciul",
    "type": "school",
    "subcategory": "kindergarten",
    "lat": 44.2512544,
    "lng": 28.5666601,
    "osmType": "node",
    "brand": null,
    "operator": null
  },
  {
    "id": "node-4298905239",
    "name": "Școala Nr. 2",
    "type": "school",
    "subcategory": "school",
    "lat": 44.2511122,
    "lng": 28.5676497,
    "osmType": "node",
    "brand": null,
    "operator": null
  },
  {
    "id": "node-4322826991",
    "name": "Dental White",
    "type": "medical",
    "subcategory": "doctors",
    "lat": 44.1588945,
    "lng": 28.6314254,
    "osmType": "node",
    "brand": null,
    "operator": null
  },
  {
    "id": "node-4391461094",
    "name": "ORL Dr. Anca Iliant",
    "type": "medical",
    "subcategory": "doctors",
    "lat": 44.1828043,
    "lng": 28.6447198,
    "osmType": "node",
    "brand": null,
    "operator": null
  },
  {
    "id": "node-4456743189",
    "name": "CMI COJOCARU CRISTINA",
    "type": "medical",
    "subcategory": "clinic",
    "lat": 44.207169,
    "lng": 28.6223896,
    "osmType": "node",
    "brand": null,
    "operator": null
  },
  {
    "id": "node-4815307021",
    "name": "Ok Medical",
    "type": "medical",
    "subcategory": "clinic",
    "lat": 44.1794464,
    "lng": 28.6411821,
    "osmType": "node",
    "brand": null,
    "operator": null
  },
  {
    "id": "node-4915138821",
    "name": "Sinevo",
    "type": "medical",
    "subcategory": "clinic",
    "lat": 44.1723361,
    "lng": 28.6376824,
    "osmType": "node",
    "brand": null,
    "operator": null
  },
  {
    "id": "node-5177045978",
    "name": "Asociația Colegiul Nautic Român",
    "type": "school",
    "subcategory": "college",
    "lat": 44.1759638,
    "lng": 28.6601704,
    "osmType": "node",
    "brand": null,
    "operator": null
  },
  {
    "id": "node-5196310105",
    "name": "Asclepios Medical Center",
    "type": "medical",
    "subcategory": "clinic",
    "lat": 44.1887781,
    "lng": 28.6520648,
    "osmType": "node",
    "brand": null,
    "operator": null
  },
  {
    "id": "node-5548343629",
    "name": "Bio Ortoclinic",
    "type": "medical",
    "subcategory": "clinic",
    "lat": 44.180392,
    "lng": 28.6493271,
    "osmType": "node",
    "brand": null,
    "operator": null
  },
  {
    "id": "node-5901726687",
    "name": "Fără nume",
    "type": "medical",
    "subcategory": "doctors",
    "lat": 44.1473577,
    "lng": 28.6274985,
    "osmType": "node",
    "brand": null,
    "operator": null
  },
  {
    "id": "node-5920719294",
    "name": "Centrul Medical Provita 2000",
    "type": "medical",
    "subcategory": "clinic",
    "lat": 44.1941716,
    "lng": 28.6387899,
    "osmType": "node",
    "brand": null,
    "operator": null
  },
  {
    "id": "node-5926488535",
    "name": "Dr. Mariana Aldeș",
    "type": "medical",
    "subcategory": "doctors",
    "lat": 44.1943509,
    "lng": 28.6453205,
    "osmType": "node",
    "brand": null,
    "operator": null
  },
  {
    "id": "node-5926816925",
    "name": "Școala „Sfinții Martiri Brâncoveni”",
    "type": "school",
    "subcategory": "school",
    "lat": 44.1621526,
    "lng": 28.631435,
    "osmType": "node",
    "brand": null,
    "operator": null
  },
  {
    "id": "node-5950987411",
    "name": "Dr. Pascu Gina",
    "type": "medical",
    "subcategory": "doctors",
    "lat": 44.2017097,
    "lng": 28.623367,
    "osmType": "node",
    "brand": null,
    "operator": null
  },
  {
    "id": "node-6040405544",
    "name": "Clinica Sante",
    "type": "medical",
    "subcategory": "clinic",
    "lat": 44.2014485,
    "lng": 28.630244,
    "osmType": "node",
    "brand": "Clinica Sante",
    "operator": null
  },
  {
    "id": "node-6046907982",
    "name": "Hyperclinica MedLife",
    "type": "medical",
    "subcategory": "clinic",
    "lat": 44.180196,
    "lng": 28.6496284,
    "osmType": "node",
    "brand": null,
    "operator": "Sistemul Medical MedLife"
  },
  {
    "id": "node-6139021986",
    "name": "Cabinet Obstetrica-Ginecologie Dr. Savu Cornelia",
    "type": "medical",
    "subcategory": "doctors",
    "lat": 44.1800862,
    "lng": 28.6384285,
    "osmType": "node",
    "brand": null,
    "operator": null
  },
  {
    "id": "node-6621187145",
    "name": "Prosana Medical Center",
    "type": "medical",
    "subcategory": "clinic",
    "lat": 44.1944678,
    "lng": 28.6428736,
    "osmType": "node",
    "brand": null,
    "operator": "Prosana Medical Center SRL"
  },
  {
    "id": "node-6742226041",
    "name": "Fleschin Dorina",
    "type": "medical",
    "subcategory": "doctors",
    "lat": 44.1770897,
    "lng": 28.6379117,
    "osmType": "node",
    "brand": null,
    "operator": null
  },
  {
    "id": "node-7902536949",
    "name": "Med Center",
    "type": "medical",
    "subcategory": "clinic",
    "lat": 44.1796211,
    "lng": 28.6167003,
    "osmType": "node",
    "brand": null,
    "operator": null
  },
  {
    "id": "node-7954732147",
    "name": "Biserica ARKA",
    "type": "church",
    "subcategory": "christian",
    "lat": 44.1588855,
    "lng": 28.5917697,
    "osmType": "node",
    "brand": null,
    "operator": null
  },
  {
    "id": "node-7989838730",
    "name": "Dr. Chiornița Veronica",
    "type": "medical",
    "subcategory": "doctors",
    "lat": 44.1978087,
    "lng": 28.6517969,
    "osmType": "node",
    "brand": null,
    "operator": null
  },
  {
    "id": "node-7993285006",
    "name": "Superbet",
    "type": "superbet",
    "subcategory": "betting",
    "lat": 44.2040078,
    "lng": 28.6487864,
    "osmType": "node",
    "brand": "Superbet",
    "operator": "Superbet Betting & Gaming SA"
  },
  {
    "id": "node-8010209653",
    "name": "Centrul Medical Cermed",
    "type": "medical",
    "subcategory": "clinic",
    "lat": 44.1796799,
    "lng": 28.6378333,
    "osmType": "node",
    "brand": null,
    "operator": null
  },
  {
    "id": "node-8142512544",
    "name": "Medic de familie",
    "type": "medical",
    "subcategory": "doctors",
    "lat": 44.1932437,
    "lng": 28.632521,
    "osmType": "node",
    "brand": null,
    "operator": null
  },
  {
    "id": "node-8149322030",
    "name": "Poliana",
    "type": "medical",
    "subcategory": "clinic",
    "lat": 44.2108916,
    "lng": 28.6445015,
    "osmType": "node",
    "brand": null,
    "operator": null
  },
  {
    "id": "node-8273877565",
    "name": "Axis",
    "type": "medical",
    "subcategory": "clinic",
    "lat": 44.2022109,
    "lng": 28.6349014,
    "osmType": "node",
    "brand": null,
    "operator": null
  },
  {
    "id": "node-8290940612",
    "name": "Grădinița Căsuța cu Povești",
    "type": "school",
    "subcategory": "kindergarten",
    "lat": 44.2194402,
    "lng": 28.621838,
    "osmType": "node",
    "brand": null,
    "operator": null
  },
  {
    "id": "node-8354715930",
    "name": "Policlinica Gastromond",
    "type": "medical",
    "subcategory": "clinic",
    "lat": 44.1854754,
    "lng": 28.6443657,
    "osmType": "node",
    "brand": null,
    "operator": "Regina Marai"
  },
  {
    "id": "node-8628417550",
    "name": "Superbet",
    "type": "superbet",
    "subcategory": "betting",
    "lat": 44.1602776,
    "lng": 28.6286491,
    "osmType": "node",
    "brand": "Superbet",
    "operator": "Superbet Betting & Gaming SA"
  },
  {
    "id": "node-8628417625",
    "name": "Superbet",
    "type": "superbet",
    "subcategory": "betting",
    "lat": 44.1969701,
    "lng": 28.6243819,
    "osmType": "node",
    "brand": "Superbet",
    "operator": "Superbet Betting & Gaming SA"
  },
  {
    "id": "node-8628417673",
    "name": "Superbet",
    "type": "superbet",
    "subcategory": "betting",
    "lat": 44.1763774,
    "lng": 28.6140472,
    "osmType": "node",
    "brand": "Superbet",
    "operator": "Superbet Betting & Gaming SA"
  },
  {
    "id": "node-8628417675",
    "name": "Superbet",
    "type": "superbet",
    "subcategory": "betting",
    "lat": 44.209815,
    "lng": 28.623467,
    "osmType": "node",
    "brand": "Superbet",
    "operator": "Superbet Betting & Gaming SA"
  },
  {
    "id": "node-8628417681",
    "name": "Superbet",
    "type": "superbet",
    "subcategory": "betting",
    "lat": 44.2019241,
    "lng": 28.6282441,
    "osmType": "node",
    "brand": "Superbet",
    "operator": "Superbet Betting & Gaming SA"
  },
  {
    "id": "node-8628417724",
    "name": "Superbet",
    "type": "superbet",
    "subcategory": "betting",
    "lat": 44.1796918,
    "lng": 28.6490761,
    "osmType": "node",
    "brand": "Superbet",
    "operator": "Superbet Betting & Gaming SA"
  },
  {
    "id": "node-8628417725",
    "name": "Superbet",
    "type": "superbet",
    "subcategory": "betting",
    "lat": 44.19049,
    "lng": 28.624942,
    "osmType": "node",
    "brand": "Superbet",
    "operator": "Superbet Betting & Gaming SA"
  },
  {
    "id": "node-8628417782",
    "name": "Superbet",
    "type": "superbet",
    "subcategory": "betting",
    "lat": 44.158002,
    "lng": 28.611896,
    "osmType": "node",
    "brand": "Superbet",
    "operator": "Superbet Betting & Gaming SA"
  },
  {
    "id": "node-8628417783",
    "name": "Superbet",
    "type": "superbet",
    "subcategory": "betting",
    "lat": 44.1793764,
    "lng": 28.6365375,
    "osmType": "node",
    "brand": "Superbet",
    "operator": "Superbet Betting & Gaming SA"
  },
  {
    "id": "node-8628417854",
    "name": "Superbet",
    "type": "superbet",
    "subcategory": "betting",
    "lat": 44.205343,
    "lng": 28.644984,
    "osmType": "node",
    "brand": "Superbet",
    "operator": "Superbet Betting & Gaming SA"
  },
  {
    "id": "node-8628417970",
    "name": "Superbet",
    "type": "superbet",
    "subcategory": "betting",
    "lat": 44.1711217,
    "lng": 28.6113435,
    "osmType": "node",
    "brand": "Superbet",
    "operator": "Superbet Betting & Gaming SA"
  },
  {
    "id": "node-8628418037",
    "name": "Superbet",
    "type": "superbet",
    "subcategory": "betting",
    "lat": 44.1665774,
    "lng": 28.633799,
    "osmType": "node",
    "brand": "Superbet",
    "operator": "Superbet Betting & Gaming SA"
  },
  {
    "id": "node-8628418038",
    "name": "Superbet",
    "type": "superbet",
    "subcategory": "betting",
    "lat": 44.1760985,
    "lng": 28.642779,
    "osmType": "node",
    "brand": "Superbet",
    "operator": "Superbet Betting & Gaming SA"
  },
  {
    "id": "node-8628418046",
    "name": "Superbet",
    "type": "superbet",
    "subcategory": "betting",
    "lat": 44.1949163,
    "lng": 28.6326231,
    "osmType": "node",
    "brand": "Superbet",
    "operator": "Superbet Betting & Gaming SA"
  },
  {
    "id": "node-8628418060",
    "name": "Superbet",
    "type": "superbet",
    "subcategory": "betting",
    "lat": 44.154311,
    "lng": 28.62718,
    "osmType": "node",
    "brand": "Superbet",
    "operator": "Superbet Betting & Gaming SA"
  },
  {
    "id": "node-8628418061",
    "name": "Superbet",
    "type": "superbet",
    "subcategory": "betting",
    "lat": 44.1581401,
    "lng": 28.6116868,
    "osmType": "node",
    "brand": "Superbet",
    "operator": "Superbet Betting & Gaming SA"
  },
  {
    "id": "node-8628418098",
    "name": "Superbet",
    "type": "superbet",
    "subcategory": "betting",
    "lat": 44.1784665,
    "lng": 28.6357999,
    "osmType": "node",
    "brand": "Superbet",
    "operator": "Superbet Betting & Gaming SA"
  },
  {
    "id": "node-8628418099",
    "name": "Superbet",
    "type": "superbet",
    "subcategory": "betting",
    "lat": 44.1859681,
    "lng": 28.6465904,
    "osmType": "node",
    "brand": "Superbet",
    "operator": "Superbet Betting & Gaming SA"
  },
  {
    "id": "node-8628418101",
    "name": "Superbet",
    "type": "superbet",
    "subcategory": "betting",
    "lat": 44.190144,
    "lng": 28.624057,
    "osmType": "node",
    "brand": "Superbet",
    "operator": "Superbet Betting & Gaming SA"
  },
  {
    "id": "node-8628418107",
    "name": "Superbet",
    "type": "superbet",
    "subcategory": "betting",
    "lat": 44.2018222,
    "lng": 28.6196959,
    "osmType": "node",
    "brand": "Superbet",
    "operator": "Superbet Betting & Gaming SA"
  },
  {
    "id": "node-8628418109",
    "name": "Superbet",
    "type": "superbet",
    "subcategory": "betting",
    "lat": 44.179076,
    "lng": 28.649705,
    "osmType": "node",
    "brand": "Superbet",
    "operator": "Superbet Betting & Gaming SA"
  },
  {
    "id": "node-8628418141",
    "name": "Superbet",
    "type": "superbet",
    "subcategory": "betting",
    "lat": 44.188836,
    "lng": 28.634513,
    "osmType": "node",
    "brand": "Superbet",
    "operator": "Superbet Betting & Gaming SA"
  },
  {
    "id": "node-8628418151",
    "name": "Superbet",
    "type": "superbet",
    "subcategory": "betting",
    "lat": 44.1922535,
    "lng": 28.6384034,
    "osmType": "node",
    "brand": "Superbet",
    "operator": "Superbet Betting & Gaming SA"
  },
  {
    "id": "node-8628418172",
    "name": "Superbet",
    "type": "superbet",
    "subcategory": "betting",
    "lat": 44.2066272,
    "lng": 28.6290273,
    "osmType": "node",
    "brand": "Superbet",
    "operator": "Superbet Betting & Gaming SA"
  },
  {
    "id": "node-8628418278",
    "name": "Superbet",
    "type": "superbet",
    "subcategory": "betting",
    "lat": 44.149923,
    "lng": 28.623982,
    "osmType": "node",
    "brand": "Superbet",
    "operator": "Superbet Betting & Gaming SA"
  },
  {
    "id": "node-8628418303",
    "name": "Superbet",
    "type": "superbet",
    "subcategory": "betting",
    "lat": 44.1767622,
    "lng": 28.6149645,
    "osmType": "node",
    "brand": "Superbet",
    "operator": "Superbet Betting & Gaming SA"
  },
  {
    "id": "node-8628418363",
    "name": "Superbet",
    "type": "superbet",
    "subcategory": "betting",
    "lat": 44.144783,
    "lng": 28.6307561,
    "osmType": "node",
    "brand": "Superbet",
    "operator": "Superbet Betting & Gaming SA"
  },
  {
    "id": "node-8628418364",
    "name": "Superbet",
    "type": "superbet",
    "subcategory": "betting",
    "lat": 44.177347,
    "lng": 28.6445734,
    "osmType": "node",
    "brand": "Superbet",
    "operator": "Superbet Betting & Gaming SA"
  },
  {
    "id": "node-8628418365",
    "name": "Superbet",
    "type": "superbet",
    "subcategory": "betting",
    "lat": 44.2009914,
    "lng": 28.6255521,
    "osmType": "node",
    "brand": "Superbet",
    "operator": "Superbet Betting & Gaming SA"
  },
  {
    "id": "node-8733320011",
    "name": "Superbet",
    "type": "superbet",
    "subcategory": "betting",
    "lat": 44.17284,
    "lng": 28.638037,
    "osmType": "node",
    "brand": "Superbet",
    "operator": "Superbet Betting & Gaming SA"
  },
  {
    "id": "node-9047355739",
    "name": "Superbet",
    "type": "superbet",
    "subcategory": "betting",
    "lat": 44.234204,
    "lng": 28.62623,
    "osmType": "node",
    "brand": null,
    "operator": "Superbet Betting & Gaming SA"
  },
  {
    "id": "node-9047355746",
    "name": "Superbet",
    "type": "superbet",
    "subcategory": "betting",
    "lat": 44.228855,
    "lng": 28.6283836,
    "osmType": "node",
    "brand": null,
    "operator": "Superbet Betting & Gaming SA"
  },
  {
    "id": "node-9047355748",
    "name": "Superbet",
    "type": "superbet",
    "subcategory": "betting",
    "lat": 44.2583336,
    "lng": 28.6193905,
    "osmType": "node",
    "brand": null,
    "operator": "Superbet Betting & Gaming SA"
  },
  {
    "id": "node-9246549736",
    "name": "Creșa nr. 13 Fluturașii",
    "type": "school",
    "subcategory": "childcare",
    "lat": 44.1593536,
    "lng": 28.6120568,
    "osmType": "node",
    "brand": null,
    "operator": "SPAS Constanța"
  },
  {
    "id": "node-9246549737",
    "name": "Creșa nr. 18 Albă ca Zăpada",
    "type": "school",
    "subcategory": "childcare",
    "lat": 44.1771343,
    "lng": 28.6176135,
    "osmType": "node",
    "brand": null,
    "operator": null
  },
  {
    "id": "node-9351968226",
    "name": "Aqua Clinic",
    "type": "medical",
    "subcategory": "clinic",
    "lat": 44.1864728,
    "lng": 28.6441208,
    "osmType": "node",
    "brand": null,
    "operator": null
  },
  {
    "id": "node-9424549169",
    "name": "Superbet",
    "type": "superbet",
    "subcategory": "betting",
    "lat": 44.20262,
    "lng": 28.622625,
    "osmType": "node",
    "brand": "Superbet",
    "operator": "Superbet Betting & Gaming SA"
  },
  {
    "id": "node-9424549171",
    "name": "Superbet",
    "type": "superbet",
    "subcategory": "betting",
    "lat": 44.1798284,
    "lng": 28.6355692,
    "osmType": "node",
    "brand": "Superbet",
    "operator": "Superbet Betting & Gaming SA"
  },
  {
    "id": "node-9428787731",
    "name": "Grădinița cu program normal nr. 40",
    "type": "school",
    "subcategory": "kindergarten",
    "lat": 44.1481787,
    "lng": 28.6208451,
    "osmType": "node",
    "brand": null,
    "operator": null
  },
  {
    "id": "node-9430582255",
    "name": "Grădinița cu program normal nr. 52 Delfinii Jucăuși",
    "type": "school",
    "subcategory": "kindergarten",
    "lat": 44.1811029,
    "lng": 28.6177596,
    "osmType": "node",
    "brand": null,
    "operator": null
  },
  {
    "id": "node-9430582256",
    "name": "Grădinița cu program normal nr. 30",
    "type": "school",
    "subcategory": "kindergarten",
    "lat": 44.1958306,
    "lng": 28.6524694,
    "osmType": "node",
    "brand": null,
    "operator": null
  },
  {
    "id": "node-9465937476",
    "name": "Regina Maria - Policlinica Delfinariu",
    "type": "medical",
    "subcategory": "clinic",
    "lat": 44.2018215,
    "lng": 28.6462838,
    "osmType": "node",
    "brand": null,
    "operator": "Regina Maria"
  },
  {
    "id": "node-9498805622",
    "name": "Grădinița cu program normal nr. 55 Abracadabra",
    "type": "school",
    "subcategory": "kindergarten",
    "lat": 44.1433584,
    "lng": 28.6131434,
    "osmType": "node",
    "brand": null,
    "operator": null
  },
  {
    "id": "node-9499273390",
    "name": "Grădinița cu program prelungit „Căsuța Poveștilor”",
    "type": "school",
    "subcategory": "kindergarten",
    "lat": 44.1987222,
    "lng": 28.6342348,
    "osmType": "node",
    "brand": null,
    "operator": null
  },
  {
    "id": "node-9508434199",
    "name": "Grădinița cu Program Prelungit nr. 3 Rosetti",
    "type": "school",
    "subcategory": "kindergarten",
    "lat": 44.1624915,
    "lng": 28.6319473,
    "osmType": "node",
    "brand": null,
    "operator": null
  },
  {
    "id": "node-9511206682",
    "name": "Grădinița cu program prelungit Kițy Bițy",
    "type": "school",
    "subcategory": "kindergarten",
    "lat": 44.1705975,
    "lng": 28.6035116,
    "osmType": "node",
    "brand": null,
    "operator": null
  },
  {
    "id": "node-9511206755",
    "name": "Școala Gimanzială Wilhelm Moldovan",
    "type": "school",
    "subcategory": "school",
    "lat": 44.1768964,
    "lng": 28.6245018,
    "osmType": "node",
    "brand": null,
    "operator": null
  },
  {
    "id": "node-9511206781",
    "name": "Liceul Tehnologic UCECOM Spiru Haret",
    "type": "school",
    "subcategory": "school",
    "lat": 44.1897034,
    "lng": 28.6428335,
    "osmType": "node",
    "brand": null,
    "operator": null
  },
  {
    "id": "node-9511206789",
    "name": "Școala Postliceală Henri Coandă",
    "type": "school",
    "subcategory": "college",
    "lat": 44.1974305,
    "lng": 28.6526222,
    "osmType": "node",
    "brand": null,
    "operator": null
  },
  {
    "id": "node-9511206790",
    "name": "Școala Gimnazială Anastasia",
    "type": "school",
    "subcategory": "school",
    "lat": 44.1575321,
    "lng": 28.6154167,
    "osmType": "node",
    "brand": null,
    "operator": null
  },
  {
    "id": "node-9511206793",
    "name": "Școala Postliceală Pro Scientia",
    "type": "school",
    "subcategory": "school",
    "lat": 44.1909993,
    "lng": 28.6396103,
    "osmType": "node",
    "brand": null,
    "operator": null
  },
  {
    "id": "node-9511206794",
    "name": "Școala postliceală Fortuna",
    "type": "school",
    "subcategory": "school",
    "lat": 44.1907704,
    "lng": 28.649975,
    "osmType": "node",
    "brand": null,
    "operator": null
  },
  {
    "id": "node-9511206795",
    "name": "Liceul Educația Viitorului",
    "type": "school",
    "subcategory": "school",
    "lat": 44.1923478,
    "lng": 28.6411228,
    "osmType": "node",
    "brand": null,
    "operator": null
  },
  {
    "id": "node-9511206804",
    "name": "Grădinița cu program normal Hello Teddy One",
    "type": "school",
    "subcategory": "kindergarten",
    "lat": 44.1893962,
    "lng": 28.6534472,
    "osmType": "node",
    "brand": null,
    "operator": null
  },
  {
    "id": "node-9511206805",
    "name": "Grădinița Primăverii",
    "type": "school",
    "subcategory": "kindergarten",
    "lat": 44.194322,
    "lng": 28.6391214,
    "osmType": "node",
    "brand": null,
    "operator": null
  },
  {
    "id": "node-9514449468",
    "name": "Grădinița Colibri - sediu 2",
    "type": "school",
    "subcategory": "kindergarten",
    "lat": 44.2095038,
    "lng": 28.6460848,
    "osmType": "node",
    "brand": null,
    "operator": null
  },
  {
    "id": "node-9516266995",
    "name": "Creșa Licuricii",
    "type": "school",
    "subcategory": "childcare",
    "lat": 44.1720695,
    "lng": 28.6256969,
    "osmType": "node",
    "brand": null,
    "operator": null
  },
  {
    "id": "node-9516266996",
    "name": "Grădinița cu program normal nr. 29",
    "type": "school",
    "subcategory": "kindergarten",
    "lat": 44.1708943,
    "lng": 28.5993228,
    "osmType": "node",
    "brand": null,
    "operator": null
  },
  {
    "id": "node-9554414491",
    "name": "Grădinița cu Program Prelungit Victoria",
    "type": "school",
    "subcategory": "kindergarten",
    "lat": 44.2196436,
    "lng": 28.5989144,
    "osmType": "node",
    "brand": null,
    "operator": null
  },
  {
    "id": "node-9560732951",
    "name": "Biserica Sfinții Epictet și Astion",
    "type": "church",
    "subcategory": "christian",
    "lat": 44.134551,
    "lng": 28.6125596,
    "osmType": "node",
    "brand": null,
    "operator": null
  },
  {
    "id": "node-9560861683",
    "name": "Biserica Nouapostolică",
    "type": "church",
    "subcategory": "christian",
    "lat": 44.1818109,
    "lng": 28.6451987,
    "osmType": "node",
    "brand": null,
    "operator": null
  },
  {
    "id": "node-9560861685",
    "name": "Biserica Ortodoxă Întâmpinarea Domnului",
    "type": "church",
    "subcategory": "christian",
    "lat": 44.1679239,
    "lng": 28.5827166,
    "osmType": "node",
    "brand": null,
    "operator": null
  },
  {
    "id": "node-9560861697",
    "name": "Biserica Penticostală Farul",
    "type": "church",
    "subcategory": "christian",
    "lat": 44.1425493,
    "lng": 28.6187442,
    "osmType": "node",
    "brand": null,
    "operator": null
  },
  {
    "id": "node-9568602123",
    "name": "Grădinița cu program normal nr. 27",
    "type": "school",
    "subcategory": "kindergarten",
    "lat": 44.2041025,
    "lng": 28.6507751,
    "osmType": "node",
    "brand": null,
    "operator": null
  },
  {
    "id": "node-10601769246",
    "name": "Clinic Doctor 3D",
    "type": "medical",
    "subcategory": "clinic",
    "lat": 44.1808172,
    "lng": 28.6396277,
    "osmType": "node",
    "brand": null,
    "operator": null
  },
  {
    "id": "node-10715805805",
    "name": "Geamia Ovidiu",
    "type": "church",
    "subcategory": "muslim",
    "lat": 44.2506436,
    "lng": 28.5668555,
    "osmType": "node",
    "brand": null,
    "operator": null
  },
  {
    "id": "node-10921840724",
    "name": "Fără nume",
    "type": "medical",
    "subcategory": "clinic",
    "lat": 44.173413,
    "lng": 28.6413448,
    "osmType": "node",
    "brand": null,
    "operator": null
  },
  {
    "id": "node-11118736647",
    "name": "Visa Med",
    "type": "medical",
    "subcategory": "clinic",
    "lat": 44.2156767,
    "lng": 28.6288059,
    "osmType": "node",
    "brand": null,
    "operator": null
  },
  {
    "id": "node-11118736648",
    "name": "Visa Med",
    "type": "medical",
    "subcategory": "clinic",
    "lat": 44.2057623,
    "lng": 28.6458185,
    "osmType": "node",
    "brand": null,
    "operator": null
  },
  {
    "id": "node-11118736649",
    "name": "Visa Med",
    "type": "medical",
    "subcategory": "clinic",
    "lat": 44.2180578,
    "lng": 28.6376783,
    "osmType": "node",
    "brand": null,
    "operator": null
  },
  {
    "id": "node-11188737752",
    "name": "Afrodite",
    "type": "medical",
    "subcategory": "doctors",
    "lat": 44.1856573,
    "lng": 28.6452249,
    "osmType": "node",
    "brand": null,
    "operator": null
  },
  {
    "id": "node-11225307844",
    "name": "Grădinița cu program prelungit Wonderland",
    "type": "school",
    "subcategory": "kindergarten",
    "lat": 44.2188634,
    "lng": 28.6201895,
    "osmType": "node",
    "brand": null,
    "operator": "Quasar Studia & Design SRL"
  },
  {
    "id": "node-11396425414",
    "name": "EURODIALIZA",
    "type": "medical",
    "subcategory": "clinic",
    "lat": 44.1617066,
    "lng": 28.6063993,
    "osmType": "node",
    "brand": null,
    "operator": null
  },
  {
    "id": "node-11522518802",
    "name": "Laboratoare Facultatea de Medicină Dentară",
    "type": "school",
    "subcategory": "university",
    "lat": 44.1745312,
    "lng": 28.6233399,
    "osmType": "node",
    "brand": null,
    "operator": "Universitatea Ovidius Constanța"
  },
  {
    "id": "node-11522518810",
    "name": "Dispensar medical nr. 2-4",
    "type": "medical",
    "subcategory": "clinic",
    "lat": 44.1799693,
    "lng": 28.6514007,
    "osmType": "node",
    "brand": null,
    "operator": null
  },
  {
    "id": "node-11741787462",
    "name": "Fără nume",
    "type": "medical",
    "subcategory": "doctors",
    "lat": 44.1761299,
    "lng": 28.6486474,
    "osmType": "node",
    "brand": null,
    "operator": null
  },
  {
    "id": "node-12500405930",
    "name": "Logiscool",
    "type": "school",
    "subcategory": "school",
    "lat": 44.1805584,
    "lng": 28.6494061,
    "osmType": "node",
    "brand": null,
    "operator": null
  },
  {
    "id": "node-12509760888",
    "name": "Liceul Internațional de Informatică",
    "type": "school",
    "subcategory": "school",
    "lat": 44.2332907,
    "lng": 28.5812834,
    "osmType": "node",
    "brand": null,
    "operator": null
  },
  {
    "id": "node-12867049353",
    "name": "Gradinița Zurli",
    "type": "school",
    "subcategory": "kindergarten",
    "lat": 44.1666297,
    "lng": 28.5838974,
    "osmType": "node",
    "brand": null,
    "operator": null
  },
  {
    "id": "node-13020800357",
    "name": "ROCOMED - Clinică de chirurgie",
    "type": "medical",
    "subcategory": "clinic",
    "lat": 44.1645748,
    "lng": 28.6019337,
    "osmType": "node",
    "brand": null,
    "operator": null
  },
  {
    "id": "node-13337177475",
    "name": "Centrul Multifuncțional de Asistență Socio-Medicală",
    "type": "medical",
    "subcategory": "clinic",
    "lat": 44.1128389,
    "lng": 28.5557244,
    "osmType": "node",
    "brand": null,
    "operator": null
  },
  {
    "id": "node-13337177478",
    "name": "Biserica Betiană",
    "type": "church",
    "subcategory": "christian",
    "lat": 44.1066808,
    "lng": 28.5492688,
    "osmType": "node",
    "brand": null,
    "operator": null
  },
  {
    "id": "node-13806415301",
    "name": "Clinica Fiziozone",
    "type": "medical",
    "subcategory": "clinic",
    "lat": 44.1912651,
    "lng": 28.6340446,
    "osmType": "node",
    "brand": null,
    "operator": null
  },
  {
    "id": "way-28488938",
    "name": "Biserica Ortodoxă „Sfântul Mina”",
    "type": "church",
    "subcategory": "christian",
    "lat": 44.2043741,
    "lng": 28.6387857,
    "osmType": "way",
    "brand": null,
    "operator": null
  },
  {
    "id": "way-100198490",
    "name": "Biserica Ortodoxă „Sfinții 4 Martiri de la Niculițel”",
    "type": "church",
    "subcategory": "christian",
    "lat": 44.210621,
    "lng": 28.6465988,
    "osmType": "way",
    "brand": null,
    "operator": null
  },
  {
    "id": "way-100286007",
    "name": "Biserica Ortodoxă Sfântul Dumitru",
    "type": "church",
    "subcategory": "christian",
    "lat": 44.2003288,
    "lng": 28.6473697,
    "osmType": "way",
    "brand": null,
    "operator": null
  },
  {
    "id": "way-100442814",
    "name": "Universitatea Maritimă Constanța",
    "type": "school",
    "subcategory": "university",
    "lat": 44.182577,
    "lng": 28.6510472,
    "osmType": "way",
    "brand": null,
    "operator": null
  },
  {
    "id": "way-100442827",
    "name": "Biserica Ortodoxă „Sfântul Gheorghe”",
    "type": "church",
    "subcategory": "christian",
    "lat": 44.1903703,
    "lng": 28.6485714,
    "osmType": "way",
    "brand": null,
    "operator": null
  },
  {
    "id": "way-100541373",
    "name": "Biserica Ortodoxă „Sfinții Arhangheli Mihail și Gavriil”",
    "type": "church",
    "subcategory": "christian",
    "lat": 44.1880829,
    "lng": 28.6431749,
    "osmType": "way",
    "brand": null,
    "operator": null
  },
  {
    "id": "way-105589326",
    "name": "Cabinet Medico-Sanitar de Frontiera Port Constanța",
    "type": "medical",
    "subcategory": "hospital",
    "lat": 44.1715666,
    "lng": 28.6569786,
    "osmType": "way",
    "brand": null,
    "operator": null
  },
  {
    "id": "way-107039830",
    "name": "Școala Militară de Maiștri Militari a Forțelor Navale „Amiral Ion Murgescu”",
    "type": "school",
    "subcategory": "school",
    "lat": 44.1844743,
    "lng": 28.6203238,
    "osmType": "way",
    "brand": null,
    "operator": null
  },
  {
    "id": "way-107063229",
    "name": "Fără nume",
    "type": "school",
    "subcategory": "childcare",
    "lat": 44.2019703,
    "lng": 28.651579,
    "osmType": "way",
    "brand": null,
    "operator": null
  },
  {
    "id": "way-107183752",
    "name": "Școala Gimnazială Nr. 40 „Aurel Vlaicu”",
    "type": "school",
    "subcategory": "school",
    "lat": 44.1611069,
    "lng": 28.6120294,
    "osmType": "way",
    "brand": null,
    "operator": null
  },
  {
    "id": "way-107247852",
    "name": "Școala Gimnazială Nr. 31",
    "type": "school",
    "subcategory": "school",
    "lat": 44.1689209,
    "lng": 28.5870317,
    "osmType": "way",
    "brand": null,
    "operator": null
  },
  {
    "id": "way-107425515",
    "name": "Spitalul Clinic de Pneumoftiziologie Constanța",
    "type": "medical",
    "subcategory": "hospital",
    "lat": 44.2310366,
    "lng": 28.6078247,
    "osmType": "way",
    "brand": null,
    "operator": "Consiliul Județean Constanța"
  },
  {
    "id": "way-107425518",
    "name": "Spitalul de Psihiatrie Palazu Mare",
    "type": "medical",
    "subcategory": "hospital",
    "lat": 44.2330245,
    "lng": 28.600245,
    "osmType": "way",
    "brand": null,
    "operator": "Spitalul Clinic Județean de Urgență Constanța"
  },
  {
    "id": "way-107425520",
    "name": "Grădinița cu program normal Nr. 39",
    "type": "school",
    "subcategory": "kindergarten",
    "lat": 44.2316995,
    "lng": 28.5994497,
    "osmType": "way",
    "brand": null,
    "operator": null
  },
  {
    "id": "way-107478746",
    "name": "Colegiul Național Militar „Alexandru Ioan Cuza”",
    "type": "school",
    "subcategory": "school",
    "lat": 44.1463773,
    "lng": 28.629782,
    "osmType": "way",
    "brand": null,
    "operator": null
  },
  {
    "id": "way-135184998",
    "name": "Grădinița cu program prelungit Căluțul de Mare",
    "type": "school",
    "subcategory": "kindergarten",
    "lat": 44.1830988,
    "lng": 28.6173478,
    "osmType": "way",
    "brand": null,
    "operator": null
  },
  {
    "id": "way-135185263",
    "name": "Colegiul Național Militar „Alexandru Ioan Cuza”",
    "type": "school",
    "subcategory": "school",
    "lat": 44.1835976,
    "lng": 28.6137993,
    "osmType": "way",
    "brand": null,
    "operator": null
  },
  {
    "id": "way-135254969",
    "name": "Universitatea Creștină „Dimitrie Cantemir”",
    "type": "school",
    "subcategory": "university",
    "lat": 44.1794869,
    "lng": 28.6162747,
    "osmType": "way",
    "brand": null,
    "operator": null
  },
  {
    "id": "way-135260830",
    "name": "Biserica „Sfântul Vasile cel Mare”",
    "type": "church",
    "subcategory": "christian",
    "lat": 44.1761034,
    "lng": 28.6116146,
    "osmType": "way",
    "brand": null,
    "operator": null
  },
  {
    "id": "way-135408334",
    "name": "Biserica Sfântul Cuvios Antonie cel Mare",
    "type": "church",
    "subcategory": "christian",
    "lat": 44.1965454,
    "lng": 28.6227832,
    "osmType": "way",
    "brand": null,
    "operator": null
  },
  {
    "id": "way-135412074",
    "name": "Serviciul Clinic Județean de Medicină Legală",
    "type": "medical",
    "subcategory": "clinic",
    "lat": 44.2007022,
    "lng": 28.6248831,
    "osmType": "way",
    "brand": null,
    "operator": "Spitalul Clinic Județean de Urgență Constanța"
  },
  {
    "id": "way-135510335",
    "name": "Universitatea Andrei Șaguna",
    "type": "school",
    "subcategory": "university",
    "lat": 44.1836332,
    "lng": 28.634921,
    "osmType": "way",
    "brand": null,
    "operator": null
  },
  {
    "id": "way-135518013",
    "name": "Dispensarele nr 16, 17, 18, 28",
    "type": "medical",
    "subcategory": "clinic",
    "lat": 44.1704889,
    "lng": 28.6091998,
    "osmType": "way",
    "brand": null,
    "operator": null
  },
  {
    "id": "way-135632237",
    "name": "Dispensar TBC",
    "type": "medical",
    "subcategory": "hospital",
    "lat": 44.201175,
    "lng": 28.630142,
    "osmType": "way",
    "brand": null,
    "operator": "Spitalul Clinic de Pneumoftiziologie Constanța"
  },
  {
    "id": "way-135632249",
    "name": "Clinica Stomatologie nr. 2",
    "type": "medical",
    "subcategory": "clinic",
    "lat": 44.2077538,
    "lng": 28.6251299,
    "osmType": "way",
    "brand": null,
    "operator": null
  },
  {
    "id": "way-135632259",
    "name": "Policinica Stomatologică nr. 2",
    "type": "medical",
    "subcategory": "clinic",
    "lat": 44.2080892,
    "lng": 28.625109,
    "osmType": "way",
    "brand": null,
    "operator": null
  },
  {
    "id": "way-135633156",
    "name": "Biserica Catolică „Sf. Pius din Pietrelcina”",
    "type": "church",
    "subcategory": "christian",
    "lat": 44.1996217,
    "lng": 28.6304796,
    "osmType": "way",
    "brand": null,
    "operator": null
  },
  {
    "id": "way-135664634",
    "name": "Fără nume",
    "type": "school",
    "subcategory": "childcare",
    "lat": 44.2108501,
    "lng": 28.6260854,
    "osmType": "way",
    "brand": null,
    "operator": null
  },
  {
    "id": "way-135726955",
    "name": "Secția boli interne și diabet",
    "type": "medical",
    "subcategory": "clinic",
    "lat": 44.172081,
    "lng": 28.6384888,
    "osmType": "way",
    "brand": null,
    "operator": null
  },
  {
    "id": "way-135727775",
    "name": "Liceul Teoretic „Ovidius”",
    "type": "school",
    "subcategory": "school",
    "lat": 44.1719382,
    "lng": 28.6355134,
    "osmType": "way",
    "brand": null,
    "operator": null
  },
  {
    "id": "way-135780821",
    "name": "Liceul Teoretic „George Emil Palade”",
    "type": "school",
    "subcategory": "school",
    "lat": 44.1859759,
    "lng": 28.6405851,
    "osmType": "way",
    "brand": null,
    "operator": null
  },
  {
    "id": "way-135780838",
    "name": "Affidea",
    "type": "medical",
    "subcategory": "clinic",
    "lat": 44.1857961,
    "lng": 28.6435437,
    "osmType": "way",
    "brand": null,
    "operator": null
  },
  {
    "id": "way-135785407",
    "name": "Școala Gimnazială Nr. 33 „Anghel Saligny”",
    "type": "school",
    "subcategory": "school",
    "lat": 44.1472033,
    "lng": 28.618645,
    "osmType": "way",
    "brand": null,
    "operator": null
  },
  {
    "id": "way-135847048",
    "name": "Secția Clinică de Dermatovenerologie",
    "type": "medical",
    "subcategory": "clinic",
    "lat": 44.161388,
    "lng": 28.6307399,
    "osmType": "way",
    "brand": null,
    "operator": "Spitalul Județean Constanța"
  },
  {
    "id": "way-135847758",
    "name": "Biserica Sfânta Maria",
    "type": "church",
    "subcategory": "christian",
    "lat": 44.1603116,
    "lng": 28.6322594,
    "osmType": "way",
    "brand": null,
    "operator": null
  },
  {
    "id": "way-135869732",
    "name": "Dispensar medical nr. 27-30",
    "type": "medical",
    "subcategory": "clinic",
    "lat": 44.2034095,
    "lng": 28.6183727,
    "osmType": "way",
    "brand": null,
    "operator": null
  },
  {
    "id": "way-135870393",
    "name": "Euromaterna",
    "type": "medical",
    "subcategory": "hospital",
    "lat": 44.2012127,
    "lng": 28.6138357,
    "osmType": "way",
    "brand": null,
    "operator": "Euromaterna"
  },
  {
    "id": "way-135998620",
    "name": "Academia Navală „Mircea cel Bătrân”",
    "type": "school",
    "subcategory": "university",
    "lat": 44.1829819,
    "lng": 28.6162611,
    "osmType": "way",
    "brand": null,
    "operator": null
  },
  {
    "id": "way-161303323",
    "name": "Spitalul Clinic C.F. Constanța",
    "type": "medical",
    "subcategory": "hospital",
    "lat": 44.1738023,
    "lng": 28.6513384,
    "osmType": "way",
    "brand": null,
    "operator": "Ministerul Transporturilor"
  },
  {
    "id": "way-162542503",
    "name": "Liceul Teoretic „Lucian Blaga”",
    "type": "school",
    "subcategory": "school",
    "lat": 44.1426334,
    "lng": 28.6286692,
    "osmType": "way",
    "brand": null,
    "operator": null
  },
  {
    "id": "way-162658059",
    "name": "Catedrala Ortodoxă „Sfinții Apostoli Petru și Pavel”",
    "type": "church",
    "subcategory": "christian",
    "lat": 44.1712888,
    "lng": 28.660996,
    "osmType": "way",
    "brand": null,
    "operator": null
  },
  {
    "id": "way-213131973",
    "name": "Biserica  „Sfântul Dimitrie Izvorâtorul de Mir”",
    "type": "church",
    "subcategory": "christian",
    "lat": 44.0950899,
    "lng": 28.6114191,
    "osmType": "way",
    "brand": null,
    "operator": null
  },
  {
    "id": "way-221613412",
    "name": "Fără nume",
    "type": "church",
    "subcategory": "muslim",
    "lat": 44.0914683,
    "lng": 28.6130772,
    "osmType": "way",
    "brand": null,
    "operator": null
  },
  {
    "id": "way-252107432",
    "name": "Biserica Sf. Ierarh Nectarie Taumaturgul",
    "type": "church",
    "subcategory": "christian",
    "lat": 44.1639484,
    "lng": 28.6080362,
    "osmType": "way",
    "brand": null,
    "operator": null
  },
  {
    "id": "way-262854196",
    "name": "Biserica Ortodoxă „Buna Vestire”",
    "type": "church",
    "subcategory": "christian",
    "lat": 44.1886511,
    "lng": 28.6225795,
    "osmType": "way",
    "brand": null,
    "operator": null
  },
  {
    "id": "way-263775049",
    "name": "Biserica Ortodoxă „Sf. Împărați Constantin și Elena”",
    "type": "church",
    "subcategory": "christian",
    "lat": 44.1821014,
    "lng": 28.6393657,
    "osmType": "way",
    "brand": null,
    "operator": null
  },
  {
    "id": "way-263775050",
    "name": "Grădinița Nr. 23",
    "type": "school",
    "subcategory": "kindergarten",
    "lat": 44.1815603,
    "lng": 28.63849,
    "osmType": "way",
    "brand": null,
    "operator": null
  },
  {
    "id": "way-268853375",
    "name": "Geamia Hunchiar",
    "type": "church",
    "subcategory": "muslim",
    "lat": 44.1756749,
    "lng": 28.6550515,
    "osmType": "way",
    "brand": null,
    "operator": null
  },
  {
    "id": "way-272825919",
    "name": "Moscheea Carol I",
    "type": "church",
    "subcategory": "muslim",
    "lat": 44.1733466,
    "lng": 28.6597435,
    "osmType": "way",
    "brand": null,
    "operator": null
  },
  {
    "id": "way-272828619",
    "name": "Biserica Ortodoxă „Sfântul Nicolae Vechi”",
    "type": "church",
    "subcategory": "christian",
    "lat": 44.1726339,
    "lng": 28.6611115,
    "osmType": "way",
    "brand": null,
    "operator": null
  },
  {
    "id": "way-272841140",
    "name": "Biserica catolică „Sfântul Anton de Padova”",
    "type": "church",
    "subcategory": "christian",
    "lat": 44.1721395,
    "lng": 28.659904,
    "osmType": "way",
    "brand": null,
    "operator": null
  },
  {
    "id": "way-272841966",
    "name": "Sinagoga Mare din Constanța",
    "type": "church",
    "subcategory": "jewish",
    "lat": 44.1745083,
    "lng": 28.6567526,
    "osmType": "way",
    "brand": null,
    "operator": null
  },
  {
    "id": "way-303453850",
    "name": "Biserica Sfântul Ioan Botezătorul",
    "type": "church",
    "subcategory": "christian",
    "lat": 44.1714992,
    "lng": 28.6119972,
    "osmType": "way",
    "brand": null,
    "operator": null
  },
  {
    "id": "way-304047196",
    "name": "Armonia Hospital",
    "type": "medical",
    "subcategory": "hospital",
    "lat": 44.1823183,
    "lng": 28.6512963,
    "osmType": "way",
    "brand": null,
    "operator": null
  },
  {
    "id": "way-308841548",
    "name": "Biserica Sfântul Nicolaie - Catedrala Navigatorilor",
    "type": "church",
    "subcategory": "christian",
    "lat": 44.1410394,
    "lng": 28.621172,
    "osmType": "way",
    "brand": null,
    "operator": null
  },
  {
    "id": "way-310417063",
    "name": "Facultatea de Medicină Dentară",
    "type": "school",
    "subcategory": "university",
    "lat": 44.1780072,
    "lng": 28.6457507,
    "osmType": "way",
    "brand": null,
    "operator": "Universitatea Ovidius Constanța"
  },
  {
    "id": "way-313344754",
    "name": "Biserica „Adormirea Maicii Domnului” II",
    "type": "church",
    "subcategory": "christian",
    "lat": 44.1947356,
    "lng": 28.6363332,
    "osmType": "way",
    "brand": null,
    "operator": null
  },
  {
    "id": "way-337230577",
    "name": "Biserica Ortodoxă „Schimbarea la Față”",
    "type": "church",
    "subcategory": "christian",
    "lat": 44.1771317,
    "lng": 28.6562725,
    "osmType": "way",
    "brand": null,
    "operator": null
  },
  {
    "id": "way-340283605",
    "name": "Geamia Kumluk",
    "type": "church",
    "subcategory": "muslim",
    "lat": 44.1943652,
    "lng": 28.6456226,
    "osmType": "way",
    "brand": null,
    "operator": null
  },
  {
    "id": "way-345206211",
    "name": "Clinica MAN",
    "type": "medical",
    "subcategory": "clinic",
    "lat": 44.1715003,
    "lng": 28.6129763,
    "osmType": "way",
    "brand": null,
    "operator": null
  },
  {
    "id": "way-356786500",
    "name": "Biserica Sfântul Gheorghe",
    "type": "church",
    "subcategory": "christian",
    "lat": 44.2292883,
    "lng": 28.6007373,
    "osmType": "way",
    "brand": null,
    "operator": null
  },
  {
    "id": "way-360846569",
    "name": "Fără nume",
    "type": "church",
    "subcategory": "christian",
    "lat": 44.2015879,
    "lng": 28.6252705,
    "osmType": "way",
    "brand": null,
    "operator": null
  },
  {
    "id": "way-361941114",
    "name": "Biserica Ortodoxă „Adormirea Maicii Domnului”",
    "type": "church",
    "subcategory": "christian",
    "lat": 44.1792572,
    "lng": 28.6474828,
    "osmType": "way",
    "brand": null,
    "operator": null
  },
  {
    "id": "way-367132666",
    "name": "Biserica Adventistă Dumbrava Roșie",
    "type": "church",
    "subcategory": "christian",
    "lat": 44.1874156,
    "lng": 28.6448506,
    "osmType": "way",
    "brand": null,
    "operator": null
  },
  {
    "id": "way-367132995",
    "name": "Biserica Adventistă Speranța",
    "type": "church",
    "subcategory": "christian",
    "lat": 44.1769197,
    "lng": 28.6243995,
    "osmType": "way",
    "brand": null,
    "operator": null
  },
  {
    "id": "way-376562419",
    "name": "Biserica Intrarea în Biserica a Maicii Domnului",
    "type": "church",
    "subcategory": "christian",
    "lat": 44.1834556,
    "lng": 28.6124938,
    "osmType": "way",
    "brand": null,
    "operator": null
  },
  {
    "id": "way-376571388",
    "name": "Biserica baptistă Nova Vita",
    "type": "church",
    "subcategory": "christian",
    "lat": 44.1900264,
    "lng": 28.6139769,
    "osmType": "way",
    "brand": null,
    "operator": null
  },
  {
    "id": "way-377266075",
    "name": "Policlinica Tomis",
    "type": "medical",
    "subcategory": "clinic",
    "lat": 44.182699,
    "lng": 28.6432776,
    "osmType": "way",
    "brand": null,
    "operator": "Regina Maria"
  },
  {
    "id": "way-377353655",
    "name": "Geamia Tomis Nord",
    "type": "church",
    "subcategory": "muslim",
    "lat": 44.2074328,
    "lng": 28.62625,
    "osmType": "way",
    "brand": null,
    "operator": null
  },
  {
    "id": "way-377735363",
    "name": "Biserica Lipovenească Sf. Ilie",
    "type": "church",
    "subcategory": "christian",
    "lat": 44.2005864,
    "lng": 28.6191948,
    "osmType": "way",
    "brand": null,
    "operator": null
  },
  {
    "id": "way-377757144",
    "name": "Biserica Ortodoxă „Pogorârea Sfântului Duh” și „Sfântul Ierarh Alexandru”",
    "type": "church",
    "subcategory": "christian",
    "lat": 44.2011476,
    "lng": 28.633752,
    "osmType": "way",
    "brand": null,
    "operator": null
  },
  {
    "id": "way-377761730",
    "name": "Biserica Adormirea Maicii Domnului și Sf. Cuvioasa Parascheva",
    "type": "church",
    "subcategory": "christian",
    "lat": 44.2296891,
    "lng": 28.5999621,
    "osmType": "way",
    "brand": null,
    "operator": null
  },
  {
    "id": "way-377764224",
    "name": "Biserica Duminica Tuturor Sfinților",
    "type": "church",
    "subcategory": "christian",
    "lat": 44.1722339,
    "lng": 28.6017914,
    "osmType": "way",
    "brand": null,
    "operator": null
  },
  {
    "id": "way-377764225",
    "name": "Biserica Sfânta Cruce și Sfântul Ierarh Calinic de la Cernica",
    "type": "church",
    "subcategory": "christian",
    "lat": 44.1870215,
    "lng": 28.6129422,
    "osmType": "way",
    "brand": null,
    "operator": null
  },
  {
    "id": "way-377764226",
    "name": "Biserica Sfântul Haralambie",
    "type": "church",
    "subcategory": "christian",
    "lat": 44.2039238,
    "lng": 28.6211427,
    "osmType": "way",
    "brand": null,
    "operator": null
  },
  {
    "id": "way-377950004",
    "name": "Grădinița cu program normal „Hänsel și Gretel”",
    "type": "school",
    "subcategory": "kindergarten",
    "lat": 44.1922751,
    "lng": 28.6407222,
    "osmType": "way",
    "brand": null,
    "operator": null
  },
  {
    "id": "way-381114106",
    "name": "Medstar 2000",
    "type": "medical",
    "subcategory": "clinic",
    "lat": 44.2029104,
    "lng": 28.6457708,
    "osmType": "way",
    "brand": null,
    "operator": null
  },
  {
    "id": "way-381787285",
    "name": "Diantus Estet",
    "type": "medical",
    "subcategory": "clinic",
    "lat": 44.2026257,
    "lng": 28.6458365,
    "osmType": "way",
    "brand": null,
    "operator": null
  },
  {
    "id": "way-382848280",
    "name": "Biserica Sf. Apostol și Evanghelist Ioan",
    "type": "church",
    "subcategory": "christian",
    "lat": 44.1977037,
    "lng": 28.6218591,
    "osmType": "way",
    "brand": null,
    "operator": null
  },
  {
    "id": "way-384059661",
    "name": "Biserica Armenească „Sfânta Maria”",
    "type": "church",
    "subcategory": "christian",
    "lat": 44.176457,
    "lng": 28.6587452,
    "osmType": "way",
    "brand": null,
    "operator": null
  },
  {
    "id": "way-384155203",
    "name": "Biserica Sfânta Treime",
    "type": "church",
    "subcategory": "christian",
    "lat": 44.1821633,
    "lng": 28.6340491,
    "osmType": "way",
    "brand": null,
    "operator": null
  },
  {
    "id": "way-405636564",
    "name": "Fără nume",
    "type": "medical",
    "subcategory": "clinic",
    "lat": 44.1726241,
    "lng": 28.6336176,
    "osmType": "way",
    "brand": null,
    "operator": null
  },
  {
    "id": "way-420076725",
    "name": "Geamia Anadolchioi",
    "type": "church",
    "subcategory": "muslim",
    "lat": 44.1935202,
    "lng": 28.6349495,
    "osmType": "way",
    "brand": null,
    "operator": null
  },
  {
    "id": "way-426855623",
    "name": "Cermed",
    "type": "medical",
    "subcategory": "clinic",
    "lat": 44.1735574,
    "lng": 28.6117777,
    "osmType": "way",
    "brand": null,
    "operator": null
  },
  {
    "id": "way-436907325",
    "name": "Sala Regatului a Martorilor lui Iehova",
    "type": "church",
    "subcategory": "christian",
    "lat": 44.1783195,
    "lng": 28.6310327,
    "osmType": "way",
    "brand": null,
    "operator": null
  },
  {
    "id": "way-448866764",
    "name": "Policlinica de stomatologie nr. 1",
    "type": "medical",
    "subcategory": "clinic",
    "lat": 44.1817185,
    "lng": 28.6476077,
    "osmType": "way",
    "brand": null,
    "operator": null
  },
  {
    "id": "way-455121458",
    "name": "Biserica lui Isus Hristos a Sfinților din Zilele din Urmă",
    "type": "church",
    "subcategory": "christian",
    "lat": 44.2074995,
    "lng": 28.6447209,
    "osmType": "way",
    "brand": null,
    "operator": null
  },
  {
    "id": "way-455121459",
    "name": "Moschee Islamul Azi",
    "type": "church",
    "subcategory": "muslim",
    "lat": 44.20723,
    "lng": 28.645461,
    "osmType": "way",
    "brand": null,
    "operator": null
  },
  {
    "id": "way-479696063",
    "name": "Clinica MACTA Medical Analysis",
    "type": "medical",
    "subcategory": "clinic",
    "lat": 44.1826212,
    "lng": 28.6450604,
    "osmType": "way",
    "brand": null,
    "operator": null
  },
  {
    "id": "way-563696671",
    "name": "Secția Pneumologie TBC a SJU Constanța",
    "type": "medical",
    "subcategory": "hospital",
    "lat": 44.092358,
    "lng": 28.6412921,
    "osmType": "way",
    "brand": null,
    "operator": "Spitalul Clinic Județean de Urgență Constanța"
  },
  {
    "id": "way-610500415",
    "name": "Geamia Coiciu",
    "type": "church",
    "subcategory": "muslim",
    "lat": 44.1843476,
    "lng": 28.6333284,
    "osmType": "way",
    "brand": null,
    "operator": null
  },
  {
    "id": "way-625067309",
    "name": "Școala Gimnazială Nr. 3 „Ciprian Porumbescu”",
    "type": "school",
    "subcategory": "school",
    "lat": 44.2017546,
    "lng": 28.6506019,
    "osmType": "way",
    "brand": null,
    "operator": null
  },
  {
    "id": "way-625077228",
    "name": "Facultatea de Construcții",
    "type": "school",
    "subcategory": "university",
    "lat": 44.1964606,
    "lng": 28.6523877,
    "osmType": "way",
    "brand": null,
    "operator": "Universitatea Ovidius Constanța"
  },
  {
    "id": "way-625077229",
    "name": "Școala Gimnazială Nr. 43 „Ferdinand”",
    "type": "school",
    "subcategory": "school",
    "lat": 44.1958403,
    "lng": 28.6527786,
    "osmType": "way",
    "brand": null,
    "operator": null
  },
  {
    "id": "way-625257939",
    "name": "Școala Gimnazială Nr. 6 „Nicolae Titulescu”",
    "type": "school",
    "subcategory": "school",
    "lat": 44.1987073,
    "lng": 28.6339966,
    "osmType": "way",
    "brand": null,
    "operator": null
  },
  {
    "id": "way-625257954",
    "name": "Școala Gimnazială Nr. 7 „Remus Opreanu”",
    "type": "school",
    "subcategory": "school",
    "lat": 44.2037378,
    "lng": 28.627152,
    "osmType": "way",
    "brand": null,
    "operator": null
  },
  {
    "id": "way-625375716",
    "name": "Colegiul Național Pedagogic „Constantin Brătescu”",
    "type": "school",
    "subcategory": "school",
    "lat": 44.1827114,
    "lng": 28.6462737,
    "osmType": "way",
    "brand": null,
    "operator": null
  },
  {
    "id": "way-626373719",
    "name": "Școala Gimnazială Nr. 8",
    "type": "school",
    "subcategory": "school",
    "lat": 44.1717106,
    "lng": 28.6165607,
    "osmType": "way",
    "brand": null,
    "operator": null
  },
  {
    "id": "way-626375081",
    "name": "Școala Gimnazială Nr. 10 „Mihail Koiciu”",
    "type": "school",
    "subcategory": "school",
    "lat": 44.1862389,
    "lng": 28.6294405,
    "osmType": "way",
    "brand": null,
    "operator": "Inspectoratul Școlar Județean Constanța"
  },
  {
    "id": "way-626376332",
    "name": "Școala Gimnazială Nr. 11 „Dr. Constantin Angelescu”",
    "type": "school",
    "subcategory": "school",
    "lat": 44.1817118,
    "lng": 28.6387209,
    "osmType": "way",
    "brand": null,
    "operator": "Inspectoratul Școlar Județean Constanța"
  },
  {
    "id": "way-627186622",
    "name": "Grădinița cu Program Prelungit Nr. 45",
    "type": "school",
    "subcategory": "kindergarten",
    "lat": 44.2022293,
    "lng": 28.6499461,
    "osmType": "way",
    "brand": null,
    "operator": null
  },
  {
    "id": "way-627213894",
    "name": "Biserica Sfinții Trei Ierarhi",
    "type": "church",
    "subcategory": "christian",
    "lat": 44.2120006,
    "lng": 28.6247336,
    "osmType": "way",
    "brand": null,
    "operator": null
  },
  {
    "id": "way-627374470",
    "name": "Colegiul Comercial „Carol I”",
    "type": "school",
    "subcategory": "school",
    "lat": 44.1839894,
    "lng": 28.6507638,
    "osmType": "way",
    "brand": null,
    "operator": null
  },
  {
    "id": "way-627374474",
    "name": "Școala Gimnazială Nr. 28 „Dan Barbilian”",
    "type": "school",
    "subcategory": "school",
    "lat": 44.1839097,
    "lng": 28.6513169,
    "osmType": "way",
    "brand": null,
    "operator": null
  },
  {
    "id": "way-627624971",
    "name": "Colegiul Național de Arte „Regina Maria”",
    "type": "school",
    "subcategory": "school",
    "lat": 44.1834005,
    "lng": 28.6336488,
    "osmType": "way",
    "brand": null,
    "operator": null
  },
  {
    "id": "way-627626859",
    "name": "Colegiul Național „Mihai Eminescu”",
    "type": "school",
    "subcategory": "school",
    "lat": 44.1747062,
    "lng": 28.6553044,
    "osmType": "way",
    "brand": null,
    "operator": null
  },
  {
    "id": "way-627631357",
    "name": "Colegiul Național „Mircea cel Bătrân”",
    "type": "school",
    "subcategory": "school",
    "lat": 44.1811595,
    "lng": 28.6510895,
    "osmType": "way",
    "brand": null,
    "operator": null
  },
  {
    "id": "way-627635126",
    "name": "Liceul Energetic",
    "type": "school",
    "subcategory": "school",
    "lat": 44.2094992,
    "lng": 28.6445114,
    "osmType": "way",
    "brand": null,
    "operator": null
  },
  {
    "id": "way-627636106",
    "name": "Liceul Tehnologic „Pontica”",
    "type": "school",
    "subcategory": "school",
    "lat": 44.1703554,
    "lng": 28.5810059,
    "osmType": "way",
    "brand": null,
    "operator": null
  },
  {
    "id": "way-627640530",
    "name": "Seminarul Teologic „Sfântul Cuvios Dionisie Exiguul”",
    "type": "school",
    "subcategory": "school",
    "lat": 44.1900688,
    "lng": 28.6395599,
    "osmType": "way",
    "brand": null,
    "operator": null
  },
  {
    "id": "way-627640533",
    "name": "Liceul Internațional de Informatică",
    "type": "school",
    "subcategory": "school",
    "lat": 44.1903419,
    "lng": 28.6401756,
    "osmType": "way",
    "brand": null,
    "operator": null
  },
  {
    "id": "way-627640545",
    "name": "Liceul Tehnologic „Tomis”",
    "type": "school",
    "subcategory": "school",
    "lat": 44.1907872,
    "lng": 28.6392005,
    "osmType": "way",
    "brand": null,
    "operator": null
  },
  {
    "id": "way-627640552",
    "name": "Școala Gimnazială Nr. 30 „Gheorghe Țițeica”",
    "type": "school",
    "subcategory": "school",
    "lat": 44.1897767,
    "lng": 28.6384879,
    "osmType": "way",
    "brand": null,
    "operator": null
  },
  {
    "id": "way-627775036",
    "name": "Dispensar",
    "type": "medical",
    "subcategory": "clinic",
    "lat": 44.1943213,
    "lng": 28.6453342,
    "osmType": "way",
    "brand": null,
    "operator": null
  },
  {
    "id": "way-627782264",
    "name": "Facultatea de Științe Economice",
    "type": "school",
    "subcategory": "university",
    "lat": 44.1940448,
    "lng": 28.6462291,
    "osmType": "way",
    "brand": null,
    "operator": "Universitatea Ovidius Constanța"
  },
  {
    "id": "way-627785883",
    "name": "Universitatea Ovidius",
    "type": "school",
    "subcategory": "university",
    "lat": 44.1945298,
    "lng": 28.6508699,
    "osmType": "way",
    "brand": null,
    "operator": "Universitatea „Ovidius” din Constanța"
  },
  {
    "id": "way-627806813",
    "name": "Liceul Tehnologic „C.A. Rosetti”",
    "type": "school",
    "subcategory": "school",
    "lat": 44.1623456,
    "lng": 28.6311876,
    "osmType": "way",
    "brand": null,
    "operator": null
  },
  {
    "id": "way-630010062",
    "name": "Policlinica cu Plată",
    "type": "medical",
    "subcategory": "clinic",
    "lat": 44.1753873,
    "lng": 28.643067,
    "osmType": "way",
    "brand": null,
    "operator": null
  },
  {
    "id": "way-630016941",
    "name": "Fără nume",
    "type": "school",
    "subcategory": "school",
    "lat": 44.174752,
    "lng": 28.6424993,
    "osmType": "way",
    "brand": null,
    "operator": null
  },
  {
    "id": "way-632928181",
    "name": "Liceul Teoretic Educational Center",
    "type": "school",
    "subcategory": "school",
    "lat": 44.2057423,
    "lng": 28.6270955,
    "osmType": "way",
    "brand": null,
    "operator": null
  },
  {
    "id": "way-641865972",
    "name": "Școala Gimnazială Nr. 36 „Dimitrie Știubei”",
    "type": "school",
    "subcategory": "school",
    "lat": 44.2000597,
    "lng": 28.6187051,
    "osmType": "way",
    "brand": null,
    "operator": null
  },
  {
    "id": "way-642285963",
    "name": "Școala Gimnazială Nr. 12 „B.P. Hașdeu”",
    "type": "school",
    "subcategory": "school",
    "lat": 44.1956977,
    "lng": 28.6308588,
    "osmType": "way",
    "brand": null,
    "operator": null
  },
  {
    "id": "way-642285975",
    "name": "Grădinița cu Program Prelungit „Gulliver”",
    "type": "school",
    "subcategory": "kindergarten",
    "lat": 44.1958159,
    "lng": 28.6307113,
    "osmType": "way",
    "brand": null,
    "operator": null
  },
  {
    "id": "way-654188043",
    "name": "Liceul Teoretic „Traian”",
    "type": "school",
    "subcategory": "school",
    "lat": 44.1744249,
    "lng": 28.6472244,
    "osmType": "way",
    "brand": null,
    "operator": null
  },
  {
    "id": "way-669957714",
    "name": "Biserica Betel",
    "type": "church",
    "subcategory": "christian",
    "lat": 44.1439302,
    "lng": 28.6210256,
    "osmType": "way",
    "brand": null,
    "operator": null
  },
  {
    "id": "way-673594939",
    "name": "Liceul Teoretic „George Călinescu”",
    "type": "school",
    "subcategory": "school",
    "lat": 44.2078025,
    "lng": 28.6212554,
    "osmType": "way",
    "brand": null,
    "operator": null
  },
  {
    "id": "way-673600375",
    "name": "Școala Postliceală Hipocrate",
    "type": "school",
    "subcategory": "college",
    "lat": 44.2083173,
    "lng": 28.6215873,
    "osmType": "way",
    "brand": null,
    "operator": "Dr. Doina Rogoveanu"
  },
  {
    "id": "way-673839825",
    "name": "Școala Gimnazială Nr. 29 „Mihai Viteazul”",
    "type": "school",
    "subcategory": "school",
    "lat": 44.2085007,
    "lng": 28.6244574,
    "osmType": "way",
    "brand": null,
    "operator": null
  },
  {
    "id": "way-673844926",
    "name": "Școala Gimnazială Nr. 38 „Dimitrie Cantemir”",
    "type": "school",
    "subcategory": "school",
    "lat": 44.2094788,
    "lng": 28.6215472,
    "osmType": "way",
    "brand": null,
    "operator": null
  },
  {
    "id": "way-673976399",
    "name": "Liceul Teoretic „Decebal”",
    "type": "school",
    "subcategory": "school",
    "lat": 44.2110141,
    "lng": 28.6272283,
    "osmType": "way",
    "brand": null,
    "operator": null
  },
  {
    "id": "way-686626906",
    "name": "Biserica Sfântul Ilie",
    "type": "church",
    "subcategory": "christian",
    "lat": 44.1546887,
    "lng": 28.6154302,
    "osmType": "way",
    "brand": null,
    "operator": null
  },
  {
    "id": "way-694590205",
    "name": "Spitalul Clinic Județean de Urgență „Sf. Apostol Andrei” Constanța",
    "type": "medical",
    "subcategory": "hospital",
    "lat": 44.185938,
    "lng": 28.6421444,
    "osmType": "way",
    "brand": null,
    "operator": "SCJU Constanța"
  },
  {
    "id": "way-694975674",
    "name": "Școala Gimnazială Nr.14",
    "type": "school",
    "subcategory": "school",
    "lat": 44.2316248,
    "lng": 28.5986454,
    "osmType": "way",
    "brand": null,
    "operator": null
  },
  {
    "id": "way-695824202",
    "name": "Spitalul Clinic de Boli Infecțioase",
    "type": "medical",
    "subcategory": "hospital",
    "lat": 44.1712047,
    "lng": 28.6380516,
    "osmType": "way",
    "brand": null,
    "operator": "SCBI Constanța"
  },
  {
    "id": "way-695825380",
    "name": "Școala Gimnazială Nr. 16 „Marin Ionescu Dobrogianu”",
    "type": "school",
    "subcategory": "school",
    "lat": 44.1560736,
    "lng": 28.6290487,
    "osmType": "way",
    "brand": null,
    "operator": null
  },
  {
    "id": "way-696866736",
    "name": "Liceul Tehnologic Dimitrie Leonida",
    "type": "school",
    "subcategory": "school",
    "lat": 44.1599147,
    "lng": 28.6140548,
    "osmType": "way",
    "brand": null,
    "operator": null
  },
  {
    "id": "way-697548623",
    "name": "Liceul cu Program Sportiv „Nicolae Rotaru”",
    "type": "school",
    "subcategory": "school",
    "lat": 44.1778408,
    "lng": 28.6323074,
    "osmType": "way",
    "brand": null,
    "operator": null
  },
  {
    "id": "way-706791970",
    "name": "Biserica „Adormirea Maicii Domnului”",
    "type": "church",
    "subcategory": "christian",
    "lat": 44.2571971,
    "lng": 28.5606449,
    "osmType": "way",
    "brand": null,
    "operator": null
  },
  {
    "id": "way-823187611",
    "name": "Biserica Creștină Evanghelică",
    "type": "church",
    "subcategory": "christian",
    "lat": 44.1720666,
    "lng": 28.6328576,
    "osmType": "way",
    "brand": null,
    "operator": null
  },
  {
    "id": "way-846858052",
    "name": "Școala Gimnazială „Ion Borcea”",
    "type": "school",
    "subcategory": "school",
    "lat": 44.0932667,
    "lng": 28.6104053,
    "osmType": "way",
    "brand": null,
    "operator": null
  },
  {
    "id": "way-846860190",
    "name": "Grădinița cu Program Prelungit „Rița Gărgărița”",
    "type": "school",
    "subcategory": "kindergarten",
    "lat": 44.0915096,
    "lng": 28.6142531,
    "osmType": "way",
    "brand": null,
    "operator": null
  },
  {
    "id": "way-846876966",
    "name": "Grădinița Adia Kindergarden",
    "type": "school",
    "subcategory": "kindergarten",
    "lat": 44.1718169,
    "lng": 28.6117128,
    "osmType": "way",
    "brand": null,
    "operator": null
  },
  {
    "id": "way-846879761",
    "name": "Grădinița Căsuța din pădure",
    "type": "school",
    "subcategory": "kindergarten",
    "lat": 44.1536564,
    "lng": 28.6169859,
    "osmType": "way",
    "brand": null,
    "operator": null
  },
  {
    "id": "way-846881579",
    "name": "Grădinița Colibri",
    "type": "school",
    "subcategory": "kindergarten",
    "lat": 44.1961328,
    "lng": 28.636539,
    "osmType": "way",
    "brand": null,
    "operator": null
  },
  {
    "id": "way-846883684",
    "name": "Școala Gimnazială Nr. 17 „Ion Minulescu”",
    "type": "school",
    "subcategory": "school",
    "lat": 44.1435613,
    "lng": 28.6130032,
    "osmType": "way",
    "brand": null,
    "operator": null
  },
  {
    "id": "way-847083011",
    "name": "Liceul de Marină Constanța",
    "type": "school",
    "subcategory": "school",
    "lat": 44.1394927,
    "lng": 28.6209095,
    "osmType": "way",
    "brand": null,
    "operator": null
  },
  {
    "id": "way-847085527",
    "name": "Liceul Economic „Virgil Madgearu”",
    "type": "school",
    "subcategory": "school",
    "lat": 44.2134993,
    "lng": 28.6260615,
    "osmType": "way",
    "brand": null,
    "operator": null
  },
  {
    "id": "way-847092565",
    "name": "Liceul Tehnologic de Electrotehnică și Telecomunicații",
    "type": "school",
    "subcategory": "school",
    "lat": 44.184903,
    "lng": 28.6345424,
    "osmType": "way",
    "brand": null,
    "operator": null
  },
  {
    "id": "way-847098496",
    "name": "Liceul Tehnologic „Gheorghe Duca”",
    "type": "school",
    "subcategory": "school",
    "lat": 44.1668015,
    "lng": 28.5817507,
    "osmType": "way",
    "brand": null,
    "operator": null
  },
  {
    "id": "way-847135512",
    "name": "Școala Gimnazială nr. 20 „Marin Sorescu”",
    "type": "school",
    "subcategory": "school",
    "lat": 44.1667673,
    "lng": 28.5839982,
    "osmType": "way",
    "brand": null,
    "operator": null
  },
  {
    "id": "way-847145510",
    "name": "Liceul Tehnologic „Gheorghe Miron Costin”",
    "type": "school",
    "subcategory": "school",
    "lat": 44.1580333,
    "lng": 28.6136415,
    "osmType": "way",
    "brand": null,
    "operator": null
  },
  {
    "id": "way-847485139",
    "name": "Grădinița cu Program Normal Nr. 22",
    "type": "school",
    "subcategory": "kindergarten",
    "lat": 44.1666042,
    "lng": 28.6333713,
    "osmType": "way",
    "brand": null,
    "operator": null
  },
  {
    "id": "way-847502645",
    "name": "Școala Gimnazială Nr. 18 „Jean Bart”",
    "type": "school",
    "subcategory": "school",
    "lat": 44.154429,
    "lng": 28.6133907,
    "osmType": "way",
    "brand": null,
    "operator": null
  },
  {
    "id": "way-849725701",
    "name": "Grădinița cu program prelungit Green Land",
    "type": "school",
    "subcategory": "kindergarten",
    "lat": 44.1989863,
    "lng": 28.6487642,
    "osmType": "way",
    "brand": null,
    "operator": null
  },
  {
    "id": "way-855834830",
    "name": "Paraclisul ”Sfântul Mare Mucenic Pantelimon”",
    "type": "church",
    "subcategory": "christian",
    "lat": 44.2077867,
    "lng": 28.6468327,
    "osmType": "way",
    "brand": null,
    "operator": null
  },
  {
    "id": "way-856968478",
    "name": "Universitatea Spiru Haret",
    "type": "school",
    "subcategory": "university",
    "lat": 44.1975119,
    "lng": 28.6524268,
    "osmType": "way",
    "brand": null,
    "operator": null
  },
  {
    "id": "way-868056594",
    "name": "Universitatea Tomis",
    "type": "school",
    "subcategory": "university",
    "lat": 44.1924817,
    "lng": 28.6412749,
    "osmType": "way",
    "brand": null,
    "operator": null
  },
  {
    "id": "way-874528499",
    "name": "Centru de Radioterapie",
    "type": "medical",
    "subcategory": "clinic",
    "lat": 44.2009751,
    "lng": 28.6140789,
    "osmType": "way",
    "brand": null,
    "operator": "MedEuropa"
  },
  {
    "id": "way-876101412",
    "name": "ABC Medical Center",
    "type": "medical",
    "subcategory": "clinic",
    "lat": 44.1828306,
    "lng": 28.6365687,
    "osmType": "way",
    "brand": null,
    "operator": null
  },
  {
    "id": "way-876235761",
    "name": "Biserica creștină baptistă nr. 1 Sfânta Treime",
    "type": "church",
    "subcategory": "christian",
    "lat": 44.1840567,
    "lng": 28.6402078,
    "osmType": "way",
    "brand": null,
    "operator": null
  },
  {
    "id": "way-878829599",
    "name": "Clinica 360",
    "type": "medical",
    "subcategory": "clinic",
    "lat": 44.1766908,
    "lng": 28.6326617,
    "osmType": "way",
    "brand": null,
    "operator": null
  },
  {
    "id": "way-893111044",
    "name": "Grădinița cu program normal și prelungit Nordic Kids",
    "type": "school",
    "subcategory": "kindergarten",
    "lat": 44.1817544,
    "lng": 28.6513312,
    "osmType": "way",
    "brand": null,
    "operator": null
  },
  {
    "id": "way-893305152",
    "name": "Centrul Școlar pentru Educație Incluzivă „Delfinul”",
    "type": "school",
    "subcategory": "school",
    "lat": 44.1914414,
    "lng": 28.6310636,
    "osmType": "way",
    "brand": null,
    "operator": null
  },
  {
    "id": "way-893307475",
    "name": "Școala Gimnazială Spectrum",
    "type": "school",
    "subcategory": "school",
    "lat": 44.1927509,
    "lng": 28.632394,
    "osmType": "way",
    "brand": null,
    "operator": null
  },
  {
    "id": "way-893353801",
    "name": "Școala Gimnazială Nr. 39 „Nicolae Tonitza”",
    "type": "school",
    "subcategory": "school",
    "lat": 44.1783244,
    "lng": 28.6184006,
    "osmType": "way",
    "brand": null,
    "operator": null
  },
  {
    "id": "way-893805211",
    "name": "Școala Gimnazială Nr. 22 „I.C. Brătianu”",
    "type": "school",
    "subcategory": "school",
    "lat": 44.1726338,
    "lng": 28.6024589,
    "osmType": "way",
    "brand": null,
    "operator": null
  },
  {
    "id": "way-893805216",
    "name": "Centrul Școlar pentru Educație Incluzivă „Maria Montessori”",
    "type": "school",
    "subcategory": "school",
    "lat": 44.1729917,
    "lng": 28.6030957,
    "osmType": "way",
    "brand": null,
    "operator": null
  },
  {
    "id": "way-893943156",
    "name": "Școala Gimnazială Nr. 23 „Constantin Brâncoveanu”",
    "type": "school",
    "subcategory": "school",
    "lat": 44.1811384,
    "lng": 28.6178157,
    "osmType": "way",
    "brand": null,
    "operator": null
  },
  {
    "id": "way-910108347",
    "name": "Capela Jandarmeriei",
    "type": "church",
    "subcategory": "christian",
    "lat": 44.1850788,
    "lng": 28.6498486,
    "osmType": "way",
    "brand": null,
    "operator": null
  },
  {
    "id": "way-936311426",
    "name": "Școala Gimnazială Nr. 24 „Ion Jalea”",
    "type": "school",
    "subcategory": "school",
    "lat": 44.1735597,
    "lng": 28.6377122,
    "osmType": "way",
    "brand": null,
    "operator": null
  },
  {
    "id": "way-961348787",
    "name": "Capela Mamaia",
    "type": "church",
    "subcategory": "christian",
    "lat": 44.2299075,
    "lng": 28.6265919,
    "osmType": "way",
    "brand": null,
    "operator": null
  },
  {
    "id": "way-998786599",
    "name": "Iowemed",
    "type": "medical",
    "subcategory": "clinic",
    "lat": 44.2140724,
    "lng": 28.6293694,
    "osmType": "way",
    "brand": null,
    "operator": "Medicover"
  },
  {
    "id": "way-1001165597",
    "name": "Policlinica CFR",
    "type": "medical",
    "subcategory": "hospital",
    "lat": 44.1716996,
    "lng": 28.6301986,
    "osmType": "way",
    "brand": null,
    "operator": null
  },
  {
    "id": "way-1001165603",
    "name": "Fără nume",
    "type": "school",
    "subcategory": "kindergarten",
    "lat": 44.144795,
    "lng": 28.6144833,
    "osmType": "way",
    "brand": null,
    "operator": null
  },
  {
    "id": "way-1001502902",
    "name": "Grupul Școlar Cooperatist Constanța",
    "type": "school",
    "subcategory": "school",
    "lat": 44.1576587,
    "lng": 28.6152039,
    "osmType": "way",
    "brand": null,
    "operator": "CENTROCOOP"
  },
  {
    "id": "way-1001502907",
    "name": "Spitalului Universitar CF",
    "type": "medical",
    "subcategory": "hospital",
    "lat": 44.1672863,
    "lng": 28.5838682,
    "osmType": "way",
    "brand": null,
    "operator": null
  },
  {
    "id": "way-1001522600",
    "name": "Grădinița cu program prelungit nr. 10",
    "type": "school",
    "subcategory": "kindergarten",
    "lat": 44.1738998,
    "lng": 28.6194865,
    "osmType": "way",
    "brand": null,
    "operator": null
  },
  {
    "id": "way-1001522603",
    "name": "Grădinița cu program prelungit nr. 36 „Steluțele Mării”",
    "type": "school",
    "subcategory": "kindergarten",
    "lat": 44.1741873,
    "lng": 28.6243777,
    "osmType": "way",
    "brand": null,
    "operator": null
  },
  {
    "id": "way-1001727667",
    "name": "Clinica stomatologie nr. 1",
    "type": "medical",
    "subcategory": "clinic",
    "lat": 44.1745266,
    "lng": 28.6236099,
    "osmType": "way",
    "brand": null,
    "operator": null
  },
  {
    "id": "way-1001754630",
    "name": "Fără nume",
    "type": "medical",
    "subcategory": "clinic",
    "lat": 44.1859063,
    "lng": 28.6287136,
    "osmType": "way",
    "brand": null,
    "operator": null
  },
  {
    "id": "way-1001754632",
    "name": "Grădinița cu program prelungit nr. 46 „Azur”",
    "type": "school",
    "subcategory": "kindergarten",
    "lat": 44.1855179,
    "lng": 28.6293177,
    "osmType": "way",
    "brand": null,
    "operator": null
  },
  {
    "id": "way-1001754633",
    "name": "Grădinița cu program normal nr. 35",
    "type": "school",
    "subcategory": "kindergarten",
    "lat": 44.1854518,
    "lng": 28.6297016,
    "osmType": "way",
    "brand": null,
    "operator": null
  },
  {
    "id": "way-1001833787",
    "name": "Centrul Școlar pentru Educație Incluzivă „Albatros”",
    "type": "school",
    "subcategory": "school",
    "lat": 44.1904679,
    "lng": 28.6207459,
    "osmType": "way",
    "brand": null,
    "operator": null
  },
  {
    "id": "way-1005906368",
    "name": "Spitalul Clinic Căi Ferate Constanța",
    "type": "medical",
    "subcategory": "hospital",
    "lat": 44.1655479,
    "lng": 28.6342395,
    "osmType": "way",
    "brand": null,
    "operator": "Ministerul Transporturilor și Infrastructurii"
  },
  {
    "id": "way-1005927955",
    "name": "Grădinița cu program normal Roboțel",
    "type": "school",
    "subcategory": "kindergarten",
    "lat": 44.1994759,
    "lng": 28.6461868,
    "osmType": "way",
    "brand": null,
    "operator": null
  },
  {
    "id": "way-1005927956",
    "name": "Biserica creștină baptistă nr. 3 „Speranța”",
    "type": "church",
    "subcategory": "christian",
    "lat": 44.1988567,
    "lng": 28.6445104,
    "osmType": "way",
    "brand": null,
    "operator": null
  },
  {
    "id": "way-1008690144",
    "name": "Secția de pregătire marinărească și sporturi nautice Palazu Mare",
    "type": "school",
    "subcategory": "university",
    "lat": 44.2305463,
    "lng": 28.6127102,
    "osmType": "way",
    "brand": null,
    "operator": "Academia Navală Mircea cel Bătrân"
  },
  {
    "id": "way-1010745577",
    "name": "Centrul Medical Județean Constanța al Ministerului de Afaceri Interne",
    "type": "medical",
    "subcategory": "hospital",
    "lat": 44.2099409,
    "lng": 28.6425856,
    "osmType": "way",
    "brand": null,
    "operator": "Ministerul de Interne"
  },
  {
    "id": "way-1010745578",
    "name": "Fără nume",
    "type": "medical",
    "subcategory": "clinic",
    "lat": 44.2098998,
    "lng": 28.6428394,
    "osmType": "way",
    "brand": null,
    "operator": null
  },
  {
    "id": "way-1012155284",
    "name": "Grădinița cu Program Prelungit Nr. 57",
    "type": "school",
    "subcategory": "kindergarten",
    "lat": 44.1595435,
    "lng": 28.6273274,
    "osmType": "way",
    "brand": null,
    "operator": null
  },
  {
    "id": "way-1012705700",
    "name": "Grădinița cu program prelungit nr. 12 „Amicii”",
    "type": "school",
    "subcategory": "kindergarten",
    "lat": 44.2101195,
    "lng": 28.6223649,
    "osmType": "way",
    "brand": null,
    "operator": null
  },
  {
    "id": "way-1012830384",
    "name": "Grădinița cu program prelungit Roboțel",
    "type": "school",
    "subcategory": "kindergarten",
    "lat": 44.1900948,
    "lng": 28.6479133,
    "osmType": "way",
    "brand": null,
    "operator": null
  },
  {
    "id": "way-1013746158",
    "name": "Grădinița cu Program Prelungit „Mugurel”",
    "type": "school",
    "subcategory": "kindergarten",
    "lat": 44.2002854,
    "lng": 28.6174411,
    "osmType": "way",
    "brand": null,
    "operator": null
  },
  {
    "id": "way-1014330358",
    "name": "Biserica „Sfântul Ștefan”",
    "type": "church",
    "subcategory": "christian",
    "lat": 44.1683472,
    "lng": 28.6356265,
    "osmType": "way",
    "brand": null,
    "operator": null
  },
  {
    "id": "way-1020293316",
    "name": "Fără nume",
    "type": "school",
    "subcategory": "childcare",
    "lat": 44.2003662,
    "lng": 28.6172628,
    "osmType": "way",
    "brand": null,
    "operator": null
  },
  {
    "id": "way-1020338227",
    "name": "Fără nume",
    "type": "school",
    "subcategory": "school",
    "lat": 44.1714549,
    "lng": 28.6352099,
    "osmType": "way",
    "brand": null,
    "operator": null
  },
  {
    "id": "way-1020511547",
    "name": "Fără nume",
    "type": "school",
    "subcategory": "school",
    "lat": 44.1766451,
    "lng": 28.6560265,
    "osmType": "way",
    "brand": null,
    "operator": null
  },
  {
    "id": "way-1020906118",
    "name": "Grădinița cu program prelungit nr. 6",
    "type": "school",
    "subcategory": "kindergarten",
    "lat": 44.1886321,
    "lng": 28.6393799,
    "osmType": "way",
    "brand": null,
    "operator": null
  },
  {
    "id": "way-1020906123",
    "name": "Creșa nr. 2 Căsuța Spiridușilor",
    "type": "school",
    "subcategory": "childcare",
    "lat": 44.1883185,
    "lng": 28.639644,
    "osmType": "way",
    "brand": null,
    "operator": null
  },
  {
    "id": "way-1021114833",
    "name": "Grădinița cu Program Prelungit Nr. 49 „Lumea Copiilor”",
    "type": "school",
    "subcategory": "kindergarten",
    "lat": 44.1606132,
    "lng": 28.6121702,
    "osmType": "way",
    "brand": null,
    "operator": null
  },
  {
    "id": "way-1021133658",
    "name": "Grădinița cu program prelungit nr. 14 „Căsuța de turtă dulce”",
    "type": "school",
    "subcategory": "kindergarten",
    "lat": 44.207604,
    "lng": 28.6249138,
    "osmType": "way",
    "brand": null,
    "operator": null
  },
  {
    "id": "way-1021133659",
    "name": "Dispensar medical nr. 9-10",
    "type": "medical",
    "subcategory": "clinic",
    "lat": 44.2080185,
    "lng": 28.6248276,
    "osmType": "way",
    "brand": null,
    "operator": null
  },
  {
    "id": "way-1021213222",
    "name": "Policlinica Nr.2",
    "type": "medical",
    "subcategory": "hospital",
    "lat": 44.1720921,
    "lng": 28.6381074,
    "osmType": "way",
    "brand": null,
    "operator": "Spitalul Clinic Județean de Urgență Constanța"
  },
  {
    "id": "way-1021213223",
    "name": "Fără nume",
    "type": "medical",
    "subcategory": "hospital",
    "lat": 44.1718335,
    "lng": 28.6376115,
    "osmType": "way",
    "brand": null,
    "operator": null
  },
  {
    "id": "way-1021213232",
    "name": "Biserica Sfântul Apostol Andrei",
    "type": "church",
    "subcategory": "christian",
    "lat": 44.1671035,
    "lng": 28.5852435,
    "osmType": "way",
    "brand": null,
    "operator": null
  },
  {
    "id": "way-1021213235",
    "name": "Creșa nr. 1 Delfinașul",
    "type": "school",
    "subcategory": "childcare",
    "lat": 44.2024575,
    "lng": 28.6268035,
    "osmType": "way",
    "brand": null,
    "operator": null
  },
  {
    "id": "way-1021213236",
    "name": "Creșa nr. 5 Lumea Poveștilor",
    "type": "school",
    "subcategory": "childcare",
    "lat": 44.2007479,
    "lng": 28.6321578,
    "osmType": "way",
    "brand": null,
    "operator": null
  },
  {
    "id": "way-1021213237",
    "name": "Grădinița cu program prelungit nr. 13 Norocel",
    "type": "school",
    "subcategory": "kindergarten",
    "lat": 44.2008475,
    "lng": 28.6327431,
    "osmType": "way",
    "brand": null,
    "operator": null
  },
  {
    "id": "way-1021984526",
    "name": "Grădinița cu program normal nr. 59 Bilingvă Româno-Italiană",
    "type": "school",
    "subcategory": "kindergarten",
    "lat": 44.1885245,
    "lng": 28.6363369,
    "osmType": "way",
    "brand": null,
    "operator": null
  },
  {
    "id": "way-1021984530",
    "name": "Grădinița cu program normal Nr.58 Zubeyde Hanim",
    "type": "school",
    "subcategory": "kindergarten",
    "lat": 44.1949629,
    "lng": 28.6303652,
    "osmType": "way",
    "brand": null,
    "operator": null
  },
  {
    "id": "way-1021984531",
    "name": "Grădinița cu program normal Tom Degețel",
    "type": "school",
    "subcategory": "kindergarten",
    "lat": 44.1948173,
    "lng": 28.6305477,
    "osmType": "way",
    "brand": null,
    "operator": null
  },
  {
    "id": "way-1021984536",
    "name": "Grădinița cu Program Prelungit „Lumea Poveștilor”",
    "type": "school",
    "subcategory": "kindergarten",
    "lat": 44.1782519,
    "lng": 28.6179416,
    "osmType": "way",
    "brand": null,
    "operator": null
  },
  {
    "id": "way-1021984541",
    "name": "Centru De Excelență Clinică Fundația Baylor",
    "type": "medical",
    "subcategory": "hospital",
    "lat": 44.1495929,
    "lng": 28.6237347,
    "osmType": "way",
    "brand": null,
    "operator": null
  },
  {
    "id": "way-1021984543",
    "name": "Grădinița cu program prelungit nr. 33",
    "type": "school",
    "subcategory": "kindergarten",
    "lat": 44.1489318,
    "lng": 28.6231708,
    "osmType": "way",
    "brand": null,
    "operator": null
  },
  {
    "id": "way-1021984544",
    "name": "Școala Gimnazială Nr.37",
    "type": "school",
    "subcategory": "school",
    "lat": 44.1482732,
    "lng": 28.6227523,
    "osmType": "way",
    "brand": null,
    "operator": null
  },
  {
    "id": "way-1022028922",
    "name": "Grădinița cu program prelungit nr. 19 Dumbrava Minunată",
    "type": "school",
    "subcategory": "kindergarten",
    "lat": 44.1484805,
    "lng": 28.6202312,
    "osmType": "way",
    "brand": null,
    "operator": null
  },
  {
    "id": "way-1022028923",
    "name": "Grădinița cu program prelungit Nr. 2 „2 Pitici”",
    "type": "school",
    "subcategory": "kindergarten",
    "lat": 44.170985,
    "lng": 28.5996376,
    "osmType": "way",
    "brand": null,
    "operator": null
  },
  {
    "id": "way-1022028926",
    "name": "Grădinița cu program prleungit Nr. 42",
    "type": "school",
    "subcategory": "kindergarten",
    "lat": 44.1613067,
    "lng": 28.6313308,
    "osmType": "way",
    "brand": null,
    "operator": null
  },
  {
    "id": "way-1022242212",
    "name": "Grădinița cu program prelungit nr. 44",
    "type": "school",
    "subcategory": "kindergarten",
    "lat": 44.1732033,
    "lng": 28.6305703,
    "osmType": "way",
    "brand": null,
    "operator": null
  },
  {
    "id": "way-1022242214",
    "name": "Grădinița cu Program Prelungit Nr.53",
    "type": "school",
    "subcategory": "kindergarten",
    "lat": 44.1462079,
    "lng": 28.6291004,
    "osmType": "way",
    "brand": null,
    "operator": null
  },
  {
    "id": "way-1022271897",
    "name": "Grădinița cu Program Prelungit Nr. 8",
    "type": "school",
    "subcategory": "kindergarten",
    "lat": 44.1894376,
    "lng": 28.644598,
    "osmType": "way",
    "brand": null,
    "operator": null
  },
  {
    "id": "way-1022271912",
    "name": "Grădinița cu program normal nr. 26",
    "type": "school",
    "subcategory": "kindergarten",
    "lat": 44.1935811,
    "lng": 28.6396814,
    "osmType": "way",
    "brand": null,
    "operator": null
  },
  {
    "id": "way-1022271916",
    "name": "Grădinița cu program prelungit nr. 11 Perluțele mării",
    "type": "school",
    "subcategory": "kindergarten",
    "lat": 44.181354,
    "lng": 28.6432042,
    "osmType": "way",
    "brand": null,
    "operator": null
  },
  {
    "id": "way-1022328600",
    "name": "Grădinița cu program normal nr. 34",
    "type": "school",
    "subcategory": "kindergarten",
    "lat": 44.1651708,
    "lng": 28.6025483,
    "osmType": "way",
    "brand": null,
    "operator": null
  },
  {
    "id": "way-1022537632",
    "name": "Grădinița cu program normal Mica Sirenă",
    "type": "school",
    "subcategory": "kindergarten",
    "lat": 44.1837355,
    "lng": 28.6109552,
    "osmType": "way",
    "brand": null,
    "operator": null
  },
  {
    "id": "way-1022662952",
    "name": "Grădinița cu program normal nr. 24",
    "type": "school",
    "subcategory": "kindergarten",
    "lat": 44.1747694,
    "lng": 28.6407307,
    "osmType": "way",
    "brand": null,
    "operator": null
  },
  {
    "id": "way-1025484416",
    "name": "Spitalul Clinic de Boli Infecțioase Constanța",
    "type": "medical",
    "subcategory": "hospital",
    "lat": 44.1643008,
    "lng": 28.6016949,
    "osmType": "way",
    "brand": null,
    "operator": null
  },
  {
    "id": "way-1025698836",
    "name": "Grădinița cu program normal Nr. 51",
    "type": "school",
    "subcategory": "kindergarten",
    "lat": 44.2028849,
    "lng": 28.6180365,
    "osmType": "way",
    "brand": null,
    "operator": null
  },
  {
    "id": "way-1030454439",
    "name": "Grădinița cu program normal Nr. 37",
    "type": "school",
    "subcategory": "kindergarten",
    "lat": 44.1528668,
    "lng": 28.6141479,
    "osmType": "way",
    "brand": null,
    "operator": null
  },
  {
    "id": "way-1030454440",
    "name": "Grădinița cu program normal nr. 32 Năsturel",
    "type": "school",
    "subcategory": "kindergarten",
    "lat": 44.1557847,
    "lng": 28.6291316,
    "osmType": "way",
    "brand": null,
    "operator": null
  },
  {
    "id": "way-1031683295",
    "name": "Grădinița cu program normal nr.16",
    "type": "school",
    "subcategory": "kindergarten",
    "lat": 44.1746929,
    "lng": 28.6560743,
    "osmType": "way",
    "brand": null,
    "operator": null
  },
  {
    "id": "way-1031709987",
    "name": "Școala Postliceală „Sf. Theodor”",
    "type": "school",
    "subcategory": "school",
    "lat": 44.1729895,
    "lng": 28.5825891,
    "osmType": "way",
    "brand": null,
    "operator": null
  },
  {
    "id": "way-1032085287",
    "name": "Grădinița Vila Montessori",
    "type": "school",
    "subcategory": "kindergarten",
    "lat": 44.1844708,
    "lng": 28.6363368,
    "osmType": "way",
    "brand": null,
    "operator": null
  },
  {
    "id": "way-1032085288",
    "name": "Grădinița Tom și Jerry Junior",
    "type": "school",
    "subcategory": "kindergarten",
    "lat": 44.1889393,
    "lng": 28.6199582,
    "osmType": "way",
    "brand": null,
    "operator": null
  },
  {
    "id": "way-1032085289",
    "name": "Grădinița cu program prelungit Comenius",
    "type": "school",
    "subcategory": "kindergarten",
    "lat": 44.1843138,
    "lng": 28.6327247,
    "osmType": "way",
    "brand": null,
    "operator": null
  },
  {
    "id": "way-1032085290",
    "name": "Grădinița Gamex",
    "type": "school",
    "subcategory": "kindergarten",
    "lat": 44.1817611,
    "lng": 28.6470474,
    "osmType": "way",
    "brand": null,
    "operator": null
  },
  {
    "id": "way-1032085291",
    "name": "Grădinița cu program prelungit Piticot",
    "type": "school",
    "subcategory": "kindergarten",
    "lat": 44.2093297,
    "lng": 28.6449693,
    "osmType": "way",
    "brand": null,
    "operator": null
  },
  {
    "id": "way-1032085292",
    "name": "Grădinița Mini London",
    "type": "school",
    "subcategory": "kindergarten",
    "lat": 44.186577,
    "lng": 28.6369753,
    "osmType": "way",
    "brand": null,
    "operator": null
  },
  {
    "id": "way-1032085293",
    "name": "Grădinița cu program prelungit Little Kids",
    "type": "school",
    "subcategory": "kindergarten",
    "lat": 44.1874962,
    "lng": 28.630981,
    "osmType": "way",
    "brand": null,
    "operator": null
  },
  {
    "id": "way-1032085295",
    "name": "Grădinița The Little Bumbelbees",
    "type": "school",
    "subcategory": "kindergarten",
    "lat": 44.1782942,
    "lng": 28.6301292,
    "osmType": "way",
    "brand": null,
    "operator": null
  },
  {
    "id": "way-1032085296",
    "name": "Grădinița Santa Maria del Mar",
    "type": "school",
    "subcategory": "kindergarten",
    "lat": 44.1969771,
    "lng": 28.6495476,
    "osmType": "way",
    "brand": null,
    "operator": null
  },
  {
    "id": "way-1032085297",
    "name": "Școala Gimnazială Petre Ispirescu",
    "type": "school",
    "subcategory": "school",
    "lat": 44.2194893,
    "lng": 28.6220658,
    "osmType": "way",
    "brand": null,
    "operator": null
  },
  {
    "id": "way-1032085299",
    "name": "Școala Primară School of London",
    "type": "school",
    "subcategory": "school",
    "lat": 44.1871148,
    "lng": 28.6515926,
    "osmType": "way",
    "brand": null,
    "operator": null
  },
  {
    "id": "way-1032085303",
    "name": "Școala primară Champions for Life",
    "type": "school",
    "subcategory": "school",
    "lat": 44.1901395,
    "lng": 28.6152141,
    "osmType": "way",
    "brand": null,
    "operator": null
  },
  {
    "id": "way-1032085307",
    "name": "Biserica Nașterea Sfântului „Ioan Botezătorul”",
    "type": "church",
    "subcategory": "christian",
    "lat": 44.2057872,
    "lng": 28.6265613,
    "osmType": "way",
    "brand": null,
    "operator": null
  },
  {
    "id": "way-1032085310",
    "name": "Liceul Tehnologic Concord",
    "type": "school",
    "subcategory": "school",
    "lat": 44.1908065,
    "lng": 28.649873,
    "osmType": "way",
    "brand": null,
    "operator": null
  },
  {
    "id": "way-1032085311",
    "name": "Școala Postliceală FEG",
    "type": "school",
    "subcategory": "school",
    "lat": 44.1703306,
    "lng": 28.5994718,
    "osmType": "way",
    "brand": null,
    "operator": null
  },
  {
    "id": "way-1032085314",
    "name": "Grădinița cu program prelungit Baby Genius",
    "type": "school",
    "subcategory": "kindergarten",
    "lat": 44.1883768,
    "lng": 28.6284687,
    "osmType": "way",
    "brand": null,
    "operator": null
  },
  {
    "id": "way-1032085315",
    "name": "Grădinița Cip și Dale",
    "type": "school",
    "subcategory": "kindergarten",
    "lat": 44.1939956,
    "lng": 28.6419286,
    "osmType": "way",
    "brand": null,
    "operator": null
  },
  {
    "id": "way-1032645454",
    "name": "Fresenius Nephrocare Constanța",
    "type": "medical",
    "subcategory": "clinic",
    "lat": 44.21028,
    "lng": 28.6436163,
    "osmType": "way",
    "brand": null,
    "operator": "NephroCare"
  },
  {
    "id": "way-1032645464",
    "name": "Școala primară Colibri",
    "type": "school",
    "subcategory": "school",
    "lat": 44.2094555,
    "lng": 28.6459708,
    "osmType": "way",
    "brand": null,
    "operator": null
  },
  {
    "id": "way-1032659287",
    "name": "Grădinița cu Program Prelungit Tărâmul Basmelor",
    "type": "school",
    "subcategory": "kindergarten",
    "lat": 44.1730667,
    "lng": 28.6321322,
    "osmType": "way",
    "brand": null,
    "operator": null
  },
  {
    "id": "way-1032869780",
    "name": "Biserica Ortodoxă „Sfântul Ierarh Spiridon”",
    "type": "church",
    "subcategory": "christian",
    "lat": 44.1772141,
    "lng": 28.6166212,
    "osmType": "way",
    "brand": null,
    "operator": null
  },
  {
    "id": "way-1033836721",
    "name": "Servicii Imagistică Armonia",
    "type": "medical",
    "subcategory": "hospital",
    "lat": 44.1726846,
    "lng": 28.6335689,
    "osmType": "way",
    "brand": null,
    "operator": "Armonia Group"
  },
  {
    "id": "way-1033836722",
    "name": "Clinica Medstar 2000",
    "type": "medical",
    "subcategory": "hospital",
    "lat": 44.1808573,
    "lng": 28.6446268,
    "osmType": "way",
    "brand": null,
    "operator": null
  },
  {
    "id": "way-1034251036",
    "name": "Creșă în construcție",
    "type": "school",
    "subcategory": "childcare",
    "lat": 44.2298783,
    "lng": 28.6043911,
    "osmType": "way",
    "brand": null,
    "operator": null
  },
  {
    "id": "way-1037159637",
    "name": "Grădinița cu program prelungit Kidoera",
    "type": "school",
    "subcategory": "kindergarten",
    "lat": 44.2197611,
    "lng": 28.6025383,
    "osmType": "way",
    "brand": null,
    "operator": null
  },
  {
    "id": "way-1038012379",
    "name": "Capela Militară Sfinții Împărați Constantin și Elena III",
    "type": "church",
    "subcategory": "christian",
    "lat": 44.1496534,
    "lng": 28.6227274,
    "osmType": "way",
    "brand": null,
    "operator": null
  },
  {
    "id": "way-1038012382",
    "name": "Biserica Sfânta Cuvioasă Parascheva",
    "type": "church",
    "subcategory": "christian",
    "lat": 44.174467,
    "lng": 28.6300257,
    "osmType": "way",
    "brand": null,
    "operator": null
  },
  {
    "id": "way-1038012387",
    "name": "Biserica Sfinții Ioachim și Ana",
    "type": "church",
    "subcategory": "christian",
    "lat": 44.2045146,
    "lng": 28.618474,
    "osmType": "way",
    "brand": null,
    "operator": null
  },
  {
    "id": "way-1038012388",
    "name": "Biserica Sfântul Nicolae – Coiciu",
    "type": "church",
    "subcategory": "christian",
    "lat": 44.185435,
    "lng": 28.6276854,
    "osmType": "way",
    "brand": null,
    "operator": null
  },
  {
    "id": "way-1038012391",
    "name": "Biserica Așezarea în raclă a Brâului Maicii Domnului",
    "type": "church",
    "subcategory": "christian",
    "lat": 44.1892658,
    "lng": 28.631585,
    "osmType": "way",
    "brand": null,
    "operator": null
  },
  {
    "id": "way-1038012400",
    "name": "Biserica Sf. Împărați II",
    "type": "church",
    "subcategory": "christian",
    "lat": 44.1411534,
    "lng": 28.6212473,
    "osmType": "way",
    "brand": null,
    "operator": null
  },
  {
    "id": "way-1038012403",
    "name": "Capela Tinerilor",
    "type": "church",
    "subcategory": "christian",
    "lat": 44.2189879,
    "lng": 28.6296235,
    "osmType": "way",
    "brand": null,
    "operator": null
  },
  {
    "id": "way-1038031947",
    "name": "Biserica creștină baptistă nr. 2 Golgota",
    "type": "church",
    "subcategory": "christian",
    "lat": 44.1495913,
    "lng": 28.6275344,
    "osmType": "way",
    "brand": null,
    "operator": null
  },
  {
    "id": "way-1038787552",
    "name": "Heka Hospital",
    "type": "medical",
    "subcategory": "hospital",
    "lat": 44.1737921,
    "lng": 28.6359792,
    "osmType": "way",
    "brand": null,
    "operator": null
  },
  {
    "id": "way-1038787567",
    "name": "Biserica Sfântul Gherman",
    "type": "church",
    "subcategory": "christian",
    "lat": 44.1465353,
    "lng": 28.6276526,
    "osmType": "way",
    "brand": null,
    "operator": null
  },
  {
    "id": "way-1042622215",
    "name": "Fără nume",
    "type": "medical",
    "subcategory": "clinic",
    "lat": 44.1765847,
    "lng": 28.632705,
    "osmType": "way",
    "brand": null,
    "operator": null
  },
  {
    "id": "way-1136495520",
    "name": "Asociația „Școala Wilhelm Moldovan”",
    "type": "school",
    "subcategory": "school",
    "lat": 44.1736774,
    "lng": 28.632829,
    "osmType": "way",
    "brand": null,
    "operator": null
  },
  {
    "id": "way-1154464107",
    "name": "Ovidius Clinical Hospital",
    "type": "medical",
    "subcategory": "hospital",
    "lat": 44.2320807,
    "lng": 28.5824568,
    "osmType": "way",
    "brand": null,
    "operator": "Ovidius Clinical Hospital SRL"
  },
  {
    "id": "way-1154555917",
    "name": "Spitalul Militar de Urgență „Dr. Alexandru Gafencu” Constanța",
    "type": "medical",
    "subcategory": "hospital",
    "lat": 44.1900643,
    "lng": 28.6521643,
    "osmType": "way",
    "brand": null,
    "operator": "Ministerul Apărării Naționale"
  },
  {
    "id": "way-1175021248",
    "name": "Fără nume",
    "type": "church",
    "subcategory": "christian",
    "lat": 44.091583,
    "lng": 28.6026294,
    "osmType": "way",
    "brand": null,
    "operator": null
  },
  {
    "id": "way-1175021249",
    "name": "Fără nume",
    "type": "church",
    "subcategory": "muslim",
    "lat": 44.1148789,
    "lng": 28.6078543,
    "osmType": "way",
    "brand": null,
    "operator": null
  },
  {
    "id": "way-1175021252",
    "name": "Biserica „Înălțarea Domnului\"",
    "type": "church",
    "subcategory": "christian",
    "lat": 44.113795,
    "lng": 28.6074443,
    "osmType": "way",
    "brand": null,
    "operator": null
  },
  {
    "id": "way-1177295124",
    "name": "Biserica „Sfânta Cuvioasă Parascheva\"",
    "type": "church",
    "subcategory": "christian",
    "lat": 44.1097005,
    "lng": 28.5519308,
    "osmType": "way",
    "brand": null,
    "operator": null
  },