[
  {
    "id": "node-218092022",
    "name": "Grădinița nr. 23",
    "type": "school",
    "subcategory": "kindergarten",
    "lat": 44.4421989,
    "lng": 26.1783617,
    "osmType": "node",
    "brand": null,
    "operator": null
  },
  {
    "id": "node-256669045",
    "name": "Biserica Mărcuța",
    "type": "church",
    "subcategory": "christian",
    "lat": 44.4441433,
    "lng": 26.1716382,
    "osmType": "node",
    "brand": null,
    "operator": null
  },
  {
    "id": "node-256699692",
    "name": "Biserica Izvorul Nou",
    "type": "church",
    "subcategory": "christian",
    "lat": 44.4216454,
    "lng": 26.1375743,
    "osmType": "node",
    "brand": null,
    "operator": null
  },
  {
    "id": "node-256878622",
    "name": "Biserica Ortodoxă \"Toți Sfinții Români\"",
    "type": "church",
    "subcategory": "christian",
    "lat": 44.4067705,
    "lng": 26.0734964,
    "osmType": "node",
    "brand": null,
    "operator": null
  },
  {
    "id": "node-257587205",
    "name": "Biserica Ortodoxă „Sfântul Silvestru”",
    "type": "church",
    "subcategory": "christian",
    "lat": 44.4429427,
    "lng": 26.115406,
    "osmType": "node",
    "brand": null,
    "operator": null
  },
  {
    "id": "node-268246356",
    "name": "Școala nr.158 Liceul Tehnologic \"Doamna Chiajna\"",
    "type": "school",
    "subcategory": "school",
    "lat": 44.4511825,
    "lng": 26.0123467,
    "osmType": "node",
    "brand": null,
    "operator": null
  },
  {
    "id": "node-271285333",
    "name": "Liceul Teoretic \"Ion Barbu\"",
    "type": "school",
    "subcategory": "school",
    "lat": 44.4208153,
    "lng": 26.0614585,
    "osmType": "node",
    "brand": null,
    "operator": null
  },
  {
    "id": "node-286674396",
    "name": "Biserica Sf. Vasile cel Mare și Sf. Ilie",
    "type": "church",
    "subcategory": "christian",
    "lat": 44.4107993,
    "lng": 26.0166439,
    "osmType": "node",
    "brand": null,
    "operator": null
  },
  {
    "id": "node-304915993",
    "name": "Biserica catolică „Sfinții Petru și Pavel”",
    "type": "church",
    "subcategory": "christian",
    "lat": 44.4904317,
    "lng": 26.0917094,
    "osmType": "node",
    "brand": null,
    "operator": null
  },
  {
    "id": "node-304916537",
    "name": "Biserica Floreasca - Sf Nicolae",
    "type": "church",
    "subcategory": "christian",
    "lat": 44.4701197,
    "lng": 26.1046611,
    "osmType": "node",
    "brand": null,
    "operator": null
  },
  {
    "id": "node-306343402",
    "name": "Biserica Ortodoxă „Doamna Oltea”",
    "type": "church",
    "subcategory": "christian",
    "lat": 44.4574215,
    "lng": 26.1063257,
    "osmType": "node",
    "brand": null,
    "operator": null
  },
  {
    "id": "node-408171603",
    "name": "Dr. Daniela Ersch",
    "type": "medical",
    "subcategory": "doctors",
    "lat": 44.4875288,
    "lng": 26.0966392,
    "osmType": "node",
    "brand": null,
    "operator": null
  },
  {
    "id": "node-440160978",
    "name": "Biserica Ortodoxă „Sfântul Gheorghe - Capră”",
    "type": "church",
    "subcategory": "christian",
    "lat": 44.4445627,
    "lng": 26.1462276,
    "osmType": "node",
    "brand": null,
    "operator": null
  },
  {
    "id": "node-444361321",
    "name": "School no. 178",
    "type": "school",
    "subcategory": "school",
    "lat": 44.4842108,
    "lng": 26.0553224,
    "osmType": "node",
    "brand": null,
    "operator": null
  },
  {
    "id": "node-445621098",
    "name": "Dispensarul Trei Scaune",
    "type": "medical",
    "subcategory": "doctors",
    "lat": 44.4603264,
    "lng": 26.1337484,
    "osmType": "node",
    "brand": null,
    "operator": null
  },
  {
    "id": "node-445630265",
    "name": "Biserica Sfântul Antonie - Colentina",
    "type": "church",
    "subcategory": "christian",
    "lat": 44.4601104,
    "lng": 26.1335943,
    "osmType": "node",
    "brand": null,
    "operator": null
  },
  {
    "id": "node-450603563",
    "name": "Dispensarul Băneasa",
    "type": "medical",
    "subcategory": "doctor",
    "lat": 44.4912193,
    "lng": 26.0812714,
    "osmType": "node",
    "brand": null,
    "operator": null
  },
  {
    "id": "node-462347535",
    "name": "Biserica Ortodoxă Schitu Măgureanu",
    "type": "church",
    "subcategory": "christian",
    "lat": 44.439188,
    "lng": 26.087344,
    "osmType": "node",
    "brand": null,
    "operator": null
  },
  {
    "id": "node-483544085",
    "name": "Biserica Ortodoxă Sf. Alexandru",
    "type": "church",
    "subcategory": "christian",
    "lat": 44.4566275,
    "lng": 26.1412016,
    "osmType": "node",
    "brand": null,
    "operator": null
  },
  {
    "id": "node-493727263",
    "name": "Biserica Ortodoxă \"Sfânta Treime - Dudești\"",
    "type": "church",
    "subcategory": "christian",
    "lat": 44.4224012,
    "lng": 26.1321784,
    "osmType": "node",
    "brand": null,
    "operator": null
  },
  {
    "id": "node-493732507",
    "name": "Biserica Ortodoxă \"Delea Nouă - Calist\"",
    "type": "church",
    "subcategory": "christian",
    "lat": 44.4313839,
    "lng": 26.1305134,
    "osmType": "node",
    "brand": null,
    "operator": null
  },
  {
    "id": "node-493892409",
    "name": "Biserica Ortodoxă „Dichiu”",
    "type": "church",
    "subcategory": "christian",
    "lat": 44.4476107,
    "lng": 26.1107163,
    "osmType": "node",
    "brand": null,
    "operator": null
  },
  {
    "id": "node-494791040",
    "name": "Colegiul Economic \"Hermes\"",
    "type": "school",
    "subcategory": "school",
    "lat": 44.4371396,
    "lng": 26.1132579,
    "osmType": "node",
    "brand": null,
    "operator": null
  },
  {
    "id": "node-501932616",
    "name": "Grădinița Prikindel",
    "type": "school",
    "subcategory": "kindergarten",
    "lat": 44.4260609,
    "lng": 26.0982821,
    "osmType": "node",
    "brand": null,
    "operator": null
  },
  {
    "id": "node-509347116",
    "name": "Congregația Surorilor Oblate Asumpționiste „Mănăstirea Sfânta Treime”",
    "type": "church",
    "subcategory": "christian",
    "lat": 44.4904479,
    "lng": 26.0922645,
    "osmType": "node",
    "brand": null,
    "operator": null
  },
  {
    "id": "node-529233923",
    "name": "Grădinița nr. 217 \"Fluturașul\"",
    "type": "school",
    "subcategory": "kindergarten",
    "lat": 44.4242473,
    "lng": 26.0323751,
    "osmType": "node",
    "brand": null,
    "operator": null
  },
  {
    "id": "node-535066423",
    "name": "Grădinița 238 București",
    "type": "school",
    "subcategory": "kindergarten",
    "lat": 44.4930028,
    "lng": 26.0845488,
    "osmType": "node",
    "brand": null,
    "operator": null
  },
  {
    "id": "node-559958651",
    "name": "Biserica Ortodoxă „Iancu Vechi”",
    "type": "church",
    "subcategory": "christian",
    "lat": 44.4400149,
    "lng": 26.1290681,
    "osmType": "node",
    "brand": null,
    "operator": null
  },
  {
    "id": "node-581132183",
    "name": "Centrul medical NATURALIA",
    "type": "medical",
    "subcategory": "hospital",
    "lat": 44.4981209,
    "lng": 26.1744422,
    "osmType": "node",
    "brand": null,
    "operator": null
  },
  {
    "id": "node-581138389",
    "name": "Biserica „Sfânta Irina”",
    "type": "church",
    "subcategory": "christian",
    "lat": 44.4983275,
    "lng": 26.1738736,
    "osmType": "node",
    "brand": null,
    "operator": null
  },
  {
    "id": "node-597152973",
    "name": "Fostul Lic. Ind. 13",
    "type": "school",
    "subcategory": "school",
    "lat": 44.424829,
    "lng": 26.0243144,
    "osmType": "node",
    "brand": null,
    "operator": null
  },
  {
    "id": "node-599008479",
    "name": "Biserica Ortodoxă „Sfântul Andrei”",
    "type": "church",
    "subcategory": "christian",
    "lat": 44.4176039,
    "lng": 26.0163558,
    "osmType": "node",
    "brand": null,
    "operator": null
  },
  {
    "id": "node-599019565",
    "name": "Speed Vet",
    "type": "medical",
    "subcategory": "veterinary",
    "lat": 44.425001,
    "lng": 26.0475715,
    "osmType": "node",
    "brand": null,
    "operator": null
  },
  {
    "id": "node-601723683",
    "name": "Școala Gimnazială George Bacovia",
    "type": "school",
    "subcategory": "school",
    "lat": 44.395864,
    "lng": 26.0993999,
    "osmType": "node",
    "brand": null,
    "operator": null
  },
  {
    "id": "node-619936742",
    "name": "Facultatea de Jurnalism și Științele Comunicării",
    "type": "school",
    "subcategory": "university",
    "lat": 44.4340346,
    "lng": 26.058091,
    "osmType": "node",
    "brand": null,
    "operator": null
  },
  {
    "id": "node-622331840",
    "name": "Facultatea de Știința și Ingineria Materialelor",
    "type": "school",
    "subcategory": "university",
    "lat": 44.439628,
    "lng": 26.052754,
    "osmType": "node",
    "brand": null,
    "operator": "Universitatea Politehnica București"
  },
  {
    "id": "node-622334142",
    "name": "Facultatea de Energetică",
    "type": "school",
    "subcategory": "university",
    "lat": 44.4374461,
    "lng": 26.048606,
    "osmType": "node",
    "brand": null,
    "operator": "Universitatea Politehnica București"
  },
  {
    "id": "node-623620886",
    "name": "Școala Generală nr. 89 \"Nicolae Labiș\"",
    "type": "school",
    "subcategory": "school",
    "lat": 44.4150524,
    "lng": 26.160886,
    "osmType": "node",
    "brand": null,
    "operator": null
  },
  {
    "id": "node-623681949",
    "name": "Școala Gimnazială nr. 195 \"Hamburg\"",
    "type": "school",
    "subcategory": "school",
    "lat": 44.4216158,
    "lng": 26.1614689,
    "osmType": "node",
    "brand": null,
    "operator": null
  },
  {
    "id": "node-627329481",
    "name": "Dispensar Herăstrău",
    "type": "medical",
    "subcategory": "doctors",
    "lat": 44.4789357,
    "lng": 26.0945704,
    "osmType": "node",
    "brand": null,
    "operator": null
  },
  {
    "id": "node-628598192",
    "name": "Institutul Național de Recuperare, Medicină Fizică și Balneoclimatologie",
    "type": "medical",
    "subcategory": "clinic",
    "lat": 44.4310894,
    "lng": 26.0986545,
    "osmType": "node",
    "brand": null,
    "operator": null
  },
  {
    "id": "node-630643251",
    "name": "Biserica Ortodoxă Sfântul Calinic",
    "type": "church",
    "subcategory": "christian",
    "lat": 44.4268897,
    "lng": 26.1491417,
    "osmType": "node",
    "brand": null,
    "operator": null
  },
  {
    "id": "node-631271408",
    "name": "Grădinița de copii nr. 232",
    "type": "school",
    "subcategory": "kindergarten",
    "lat": 44.4111775,
    "lng": 26.1660512,
    "osmType": "node",
    "brand": null,
    "operator": null
  },
  {
    "id": "node-631272510",
    "name": "Școala Generală nr.92",
    "type": "school",
    "subcategory": "school",
    "lat": 44.4103889,
    "lng": 26.1692083,
    "osmType": "node",
    "brand": null,
    "operator": null
  },
  {
    "id": "node-631279952",
    "name": "Grădinița nr. 211",
    "type": "school",
    "subcategory": "kindergarten",
    "lat": 44.409297,
    "lng": 26.1736259,
    "osmType": "node",
    "brand": null,
    "operator": null
  },
  {
    "id": "node-631302979",
    "name": "Școala Generală nr. 20 „Simion Mehedinți”",
    "type": "school",
    "subcategory": "school",
    "lat": 44.4083249,
    "lng": 26.1748663,
    "osmType": "node",
    "brand": null,
    "operator": null
  },
  {
    "id": "node-637696068",
    "name": "Grădinița nr. 240",
    "type": "school",
    "subcategory": "kindergarten",
    "lat": 44.4169494,
    "lng": 26.1604245,
    "osmType": "node",
    "brand": null,
    "operator": null
  },
  {
    "id": "node-639027997",
    "name": "Biserica Adventistă Balta Albă",
    "type": "church",
    "subcategory": "christian",
    "lat": 44.4112149,
    "lng": 26.1625572,
    "osmType": "node",
    "brand": null,
    "operator": null
  },
  {
    "id": "node-640391847",
    "name": "Școala nr. 199",
    "type": "school",
    "subcategory": "school",
    "lat": 44.430716,
    "lng": 26.1600592,
    "osmType": "node",
    "brand": null,
    "operator": null
  },
  {
    "id": "node-647192186",
    "name": "Universitatea \"Dimitrie Cantemir\"",
    "type": "school",
    "subcategory": "university",
    "lat": 44.4145789,
    "lng": 26.1154205,
    "osmType": "node",
    "brand": null,
    "operator": null
  },
  {
    "id": "node-656547587",
    "name": "Grădinița nr. 192 (Pisicile aristocrate)",
    "type": "school",
    "subcategory": "kindergarten",
    "lat": 44.4251395,
    "lng": 26.0969363,
    "osmType": "node",
    "brand": null,
    "operator": null
  },
  {
    "id": "node-662296416",
    "name": "Școala Generală nr. 22 \"Mexic\"",
    "type": "school",
    "subcategory": "school",
    "lat": 44.4249731,
    "lng": 26.1775908,
    "osmType": "node",
    "brand": null,
    "operator": null
  },
  {
    "id": "node-678837400",
    "name": "Gral Medical",
    "type": "medical",
    "subcategory": "clinic",
    "lat": 44.4227538,
    "lng": 26.1333309,
    "osmType": "node",
    "brand": null,
    "operator": null
  },
  {
    "id": "node-764370441",
    "name": "Facultatea de Biologie",
    "type": "school",
    "subcategory": "university",
    "lat": 44.4332655,
    "lng": 26.0835967,
    "osmType": "node",
    "brand": null,
    "operator": null
  },
  {
    "id": "node-781132026",
    "name": "Policlinica",
    "type": "medical",
    "subcategory": "clinic",
    "lat": 44.4549686,
    "lng": 26.0947031,
    "osmType": "node",
    "brand": null,
    "operator": null
  },
  {
    "id": "node-807107559",
    "name": "Doctor Anghel Medical Center",
    "type": "medical",
    "subcategory": "clinic",
    "lat": 44.4264872,
    "lng": 26.1272262,
    "osmType": "node",
    "brand": null,
    "operator": null
  },
  {
    "id": "node-893441658",
    "name": "Biserica Greco-Catolică Acvila",
    "type": "church",
    "subcategory": "christian",
    "lat": 44.4229858,
    "lng": 26.0805932,
    "osmType": "node",
    "brand": null,
    "operator": null
  },
  {
    "id": "node-899599769",
    "name": "Biserica Sfântul Nicolae - Negustori",
    "type": "church",
    "subcategory": "christian",
    "lat": 44.4339927,
    "lng": 26.1096516,
    "osmType": "node",
    "brand": null,
    "operator": null
  },
  {
    "id": "node-899633232",
    "name": "Biserica Ortodoxă Greacă",
    "type": "church",
    "subcategory": "christian",
    "lat": 44.4385505,
    "lng": 26.1176703,
    "osmType": "node",
    "brand": null,
    "operator": null
  },
  {
    "id": "node-905720788",
    "name": "Biserica Ortodoxă \"Sfinții Ioachim și Ana - Oborul Vechi\"",
    "type": "church",
    "subcategory": "christian",
    "lat": 44.4394422,
    "lng": 26.1209284,
    "osmType": "node",
    "brand": null,
    "operator": null
  },
  {
    "id": "node-905726832",
    "name": "Biserica Ortodoxă Popa Soare",
    "type": "church",
    "subcategory": "christian",
    "lat": 44.4359064,
    "lng": 26.1185658,
    "osmType": "node",
    "brand": null,
    "operator": null
  },
  {
    "id": "node-906031384",
    "name": "Biserica Ortodoxă „Precupeții Vechi - a Tuturor Sfinților”",
    "type": "church",
    "subcategory": "christian",
    "lat": 44.4464913,
    "lng": 26.1153812,
    "osmType": "node",
    "brand": null,
    "operator": null
  },
  {
    "id": "node-915929726",
    "name": "Biserica Ortodoxă „Olari”",
    "type": "church",
    "subcategory": "christian",
    "lat": 44.4387171,
    "lng": 26.1158539,
    "osmType": "node",
    "brand": null,
    "operator": null
  },
  {
    "id": "node-916164675",
    "name": "Biserica Ortodoxă „Sfinții Voievozi”",
    "type": "church",
    "subcategory": "christian",
    "lat": 44.4457095,
    "lng": 26.0839578,
    "osmType": "node",
    "brand": null,
    "operator": null
  },
  {
    "id": "node-919559390",
    "name": "International School for Primary Education",
    "type": "school",
    "subcategory": "school",
    "lat": 44.4967417,
    "lng": 26.057137,
    "osmType": "node",
    "brand": null,
    "operator": null
  },
  {
    "id": "node-920697793",
    "name": "Biserica Ortodoxă „Sfântul Pantelimon”",
    "type": "church",
    "subcategory": "christian",
    "lat": 44.4424804,
    "lng": 26.1217895,
    "osmType": "node",
    "brand": null,
    "operator": null
  },
  {
    "id": "node-921794024",
    "name": "Biserica Ortodoxă Andronache",
    "type": "church",
    "subcategory": "christian",
    "lat": 44.476829,
    "lng": 26.1517568,
    "osmType": "node",
    "brand": null,
    "operator": null
  },
  {
    "id": "node-923488368",
    "name": "Școala Specială Nr. 8",
    "type": "school",
    "subcategory": "school",
    "lat": 44.4879702,
    "lng": 26.0522342,
    "osmType": "node",
    "brand": null,
    "operator": null
  },
  {
    "id": "node-924445135",
    "name": "Biserica Ortodoxă „Popa Șapcă” Voluntari",
    "type": "church",
    "subcategory": "christian",
    "lat": 44.4858829,
    "lng": 26.1801426,
    "osmType": "node",
    "brand": null,
    "operator": null
  },
  {
    "id": "node-929291571",
    "name": "Superbet",
    "type": "superbet",
    "subcategory": "betting",
    "lat": 44.4130634,
    "lng": 26.0728085,
    "osmType": "node",
    "brand": "Superbet",
    "operator": null
  },
  {
    "id": "node-931776203",
    "name": "Regina Maria - Policlinica Băneasa și Clinica Private Care",
    "type": "medical",
    "subcategory": "clinic",
    "lat": 44.4948215,
    "lng": 26.0781373,
    "osmType": "node",
    "brand": null,
    "operator": null
  },
  {
    "id": "node-933872147",
    "name": "Biserica Ortodoxă „Sf. Cuv. Paraschiva Galileea Străulești”",
    "type": "church",
    "subcategory": "christian",
    "lat": 44.4971158,
    "lng": 26.0290689,
    "osmType": "node",
    "brand": null,
    "operator": null
  },
  {
    "id": "node-933918714",
    "name": "Biserica Ortodoxă Ghencea – Nașterea Domnului",
    "type": "church",
    "subcategory": "christian",
    "lat": 44.4129019,
    "lng": 26.0605709,
    "osmType": "node",
    "brand": null,
    "operator": null
  },
  {
    "id": "node-937640311",
    "name": "Regina Maria",
    "type": "medical",
    "subcategory": "doctors",
    "lat": 44.4826242,
    "lng": 26.0740003,
    "osmType": "node",
    "brand": null,
    "operator": "Regina Maria"
  },
  {
    "id": "node-938768192",
    "name": "Biserica Înălțarea Domnului",
    "type": "church",
    "subcategory": "christian",
    "lat": 44.4248331,
    "lng": 26.0224533,
    "osmType": "node",
    "brand": null,
    "operator": null
  },
  {
    "id": "node-938819576",
    "name": "Biserica Ortodoxă Nașterea Maicii Domnului – Drumul Taberei",
    "type": "church",
    "subcategory": "christian",
    "lat": 44.4202502,
    "lng": 26.0281629,
    "osmType": "node",
    "brand": null,
    "operator": null
  },
  {
    "id": "node-938879109",
    "name": "Biserica Ortodoxă „Sfânta Maria - Herăstrău”",
    "type": "church",
    "subcategory": "christian",
    "lat": 44.489852,
    "lng": 26.0930425,
    "osmType": "node",
    "brand": null,
    "operator": null
  },
  {
    "id": "node-939770168",
    "name": "Biserica Ortodoxă Spirea Nouă",
    "type": "church",
    "subcategory": "christian",
    "lat": 44.423863,
    "lng": 26.0780903,
    "osmType": "node",
    "brand": null,
    "operator": null
  },
  {
    "id": "node-940763273",
    "name": "Biserica Ortodoxă Tudor Vladimirescu - Rahova",
    "type": "church",
    "subcategory": "christian",
    "lat": 44.4044329,
    "lng": 26.0577406,
    "osmType": "node",
    "brand": null,
    "operator": null
  },
  {
    "id": "node-940800779",
    "name": "Biserica Ortodoxă \"Vovidenia\"",
    "type": "church",
    "subcategory": "christian",
    "lat": 44.3994232,
    "lng": 26.0587911,
    "osmType": "node",
    "brand": null,
    "operator": null
  },
  {
    "id": "node-947060459",
    "name": "Biserica Ortodoxă Adormirea Maicii Domnului - Giulești",
    "type": "church",
    "subcategory": "christian",
    "lat": 44.4682758,
    "lng": 26.0308373,
    "osmType": "node",
    "brand": null,
    "operator": null
  },
  {
    "id": "node-950781677",
    "name": "Sinagoga Bet Hamirdaș",
    "type": "church",
    "subcategory": "jewish",
    "lat": 44.4320134,
    "lng": 26.1063319,
    "osmType": "node",
    "brand": null,
    "operator": null
  },
  {
    "id": "node-955132888",
    "name": "Biserica Ortodoxă „Ceauș Radu”",
    "type": "church",
    "subcategory": "christian",
    "lat": 44.4291385,
    "lng": 26.1164966,
    "osmType": "node",
    "brand": null,
    "operator": null
  },
  {
    "id": "node-955207931",
    "name": "Biserica Ortodoxă Dudești Cioplea II",
    "type": "church",
    "subcategory": "christian",
    "lat": 44.4158669,
    "lng": 26.1487225,
    "osmType": "node",
    "brand": null,
    "operator": null
  },
  {
    "id": "node-955278065",
    "name": "Biserica Ortodoxă Constantin Brâncoveanu Nouă",
    "type": "church",
    "subcategory": "christian",
    "lat": 44.3833142,
    "lng": 26.1089983,
    "osmType": "node",
    "brand": null,
    "operator": null
  },
  {
    "id": "node-959137490",
    "name": "Școala 181",
    "type": "school",
    "subcategory": "school",
    "lat": 44.4945608,
    "lng": 26.0261258,
    "osmType": "node",
    "brand": null,
    "operator": null
  },
  {
    "id": "node-979622170",
    "name": "Professional Klinic",
    "type": "medical",
    "subcategory": "clinic",
    "lat": 44.4321435,
    "lng": 26.1291285,
    "osmType": "node",
    "brand": null,
    "operator": null
  },
  {
    "id": "node-1077769284",
    "name": "Parohia Ortodoxă Sfântul Nicolae – Malaxa",
    "type": "church",
    "subcategory": "christian",
    "lat": 44.4333876,
    "lng": 26.1905617,
    "osmType": "node",
    "brand": null,
    "operator": null
  },
  {
    "id": "node-1077805582",
    "name": "Grădinița nr. 187",
    "type": "school",
    "subcategory": "kindergarten",
    "lat": 44.4325198,
    "lng": 26.1939968,
    "osmType": "node",
    "brand": null,
    "operator": null
  },
  {
    "id": "node-1100416186",
    "name": "Grădinița Ursuletu",
    "type": "school",
    "subcategory": "kindergarten",
    "lat": 44.4899464,
    "lng": 26.0379305,
    "osmType": "node",
    "brand": null,
    "operator": null
  },
  {
    "id": "node-1100418381",
    "name": "Grădinița Ciupercuța",
    "type": "school",
    "subcategory": "kindergarten",
    "lat": 44.4807136,
    "lng": 26.0501529,
    "osmType": "node",
    "brand": null,
    "operator": null
  },
  {
    "id": "node-1135489604",
    "name": "Facultatea de Inginerie Electrică",
    "type": "school",
    "subcategory": "university",
    "lat": 44.4362074,
    "lng": 26.0458196,
    "osmType": "node",
    "brand": null,
    "operator": "Universitatea Politehnica București"
  },
  {
    "id": "node-1155075920",
    "name": "Clinica Medicală Hypocrat 2000",
    "type": "medical",
    "subcategory": "hospital",
    "lat": 44.4381976,
    "lng": 26.1582115,
    "osmType": "node",
    "brand": null,
    "operator": null
  },
  {
    "id": "node-1170044778",
    "name": "Spitalul Clinic Sfânta Maria",
    "type": "medical",
    "subcategory": "hospital",
    "lat": 44.4564896,
    "lng": 26.0790405,
    "osmType": "node",
    "brand": null,
    "operator": null
  },
  {
    "id": "node-1207754042",
    "name": "Hyperclinica MedLife Unirii",
    "type": "medical",
    "subcategory": "clinic",
    "lat": 44.4244721,
    "lng": 26.1031237,
    "osmType": "node",
    "brand": null,
    "operator": null
  },
  {
    "id": "node-1207779582",
    "name": "Medlife",
    "type": "medical",
    "subcategory": "clinic",
    "lat": 44.4649584,
    "lng": 26.054379,
    "osmType": "node",
    "brand": null,
    "operator": null
  },
  {
    "id": "node-1211865828",
    "name": "Mănăstirea catolică „Sfânta Familie”",
    "type": "church",
    "subcategory": "christian",
    "lat": 44.4839532,
    "lng": 26.0440869,
    "osmType": "node",
    "brand": null,
    "operator": null
  },
  {
    "id": "node-1215723096",
    "name": "Biserica Ortodoxă „16 Februarie”",
    "type": "church",
    "subcategory": "christian",
    "lat": 44.4882733,
    "lng": 26.0229883,
    "osmType": "node",
    "brand": null,
    "operator": null
  },
  {
    "id": "node-1290688603",
    "name": "AIS Clinics & Hospitals",
    "type": "medical",
    "subcategory": "clinic",
    "lat": 44.3999106,
    "lng": 26.0482604,
    "osmType": "node",
    "brand": null,
    "operator": null
  },
  {
    "id": "node-1306485698",
    "name": "ambulatory",
    "type": "medical",
    "subcategory": "clinic",
    "lat": 44.4452897,
    "lng": 26.0453507,
    "osmType": "node",
    "brand": null,
    "operator": "Regina Maria"
  },
  {
    "id": "node-1369034400",
    "name": "Lasermed Medical Center",
    "type": "medical",
    "subcategory": "clinic",
    "lat": 44.4223422,
    "lng": 26.0404502,
    "osmType": "node",
    "brand": null,
    "operator": null
  },
  {
    "id": "node-1504208854",
    "name": "Grădinița nr. 7",
    "type": "school",
    "subcategory": "kindergarten",
    "lat": 44.461112,
    "lng": 26.118792,
    "osmType": "node",
    "brand": null,
    "operator": null
  },
  {
    "id": "node-1544915641",
    "name": "Paradisul Copiilor",
    "type": "school",
    "subcategory": "kindergarten",
    "lat": 44.4633382,
    "lng": 26.1030019,
    "osmType": "node",
    "brand": null,
    "operator": null
  },
  {
    "id": "node-1636785369",
    "name": "Facultatea de Geografie",
    "type": "school",
    "subcategory": "university",
    "lat": 44.4360329,
    "lng": 26.1017646,
    "osmType": "node",
    "brand": null,
    "operator": null
  },
  {
    "id": "node-1722794469",
    "name": "Clinica Puls Medica - Teiul Doamnei",
    "type": "medical",
    "subcategory": "clinic",
    "lat": 44.457583,
    "lng": 26.1292124,
    "osmType": "node",
    "brand": null,
    "operator": null
  },
  {
    "id": "node-1743686924",
    "name": "Expert Implant",
    "type": "medical",
    "subcategory": "doctors",
    "lat": 44.4651766,
    "lng": 26.1079673,
    "osmType": "node",
    "brand": null,
    "operator": null
  },
  {
    "id": "node-1754330697",
    "name": "Facultatea de Istorie",
    "type": "school",
    "subcategory": "university",
    "lat": 44.435416,
    "lng": 26.1006051,
    "osmType": "node",
    "brand": null,
    "operator": null
  },
  {
    "id": "node-1754330701",
    "name": "Facultatea de Matematică și Informatică",
    "type": "school",
    "subcategory": "university",
    "lat": 44.4340339,
    "lng": 26.040829,
    "osmType": "node",
    "brand": null,
    "operator": "Ministry of Education and Research"
  },
  {
    "id": "node-1768901380",
    "name": "Ambulatoriul de specialitate al Spitalului de copii Grigore Alexandrescu",
    "type": "medical",
    "subcategory": "clinic",
    "lat": 44.4505778,
    "lng": 26.0992817,
    "osmType": "node",
    "brand": null,
    "operator": null
  },
  {
    "id": "node-1820023017",
    "name": "Grădinița Sakura",
    "type": "school",
    "subcategory": "kindergarten",
    "lat": 44.4549487,
    "lng": 26.1335892,
    "osmType": "node",
    "brand": null,
    "operator": null
  },
  {
    "id": "node-1820148419",
    "name": "Fără nume",
    "type": "medical",
    "subcategory": "doctors",
    "lat": 44.4603098,
    "lng": 26.1305493,
    "osmType": "node",
    "brand": null,
    "operator": null
  },
  {
    "id": "node-1911337554",
    "name": "Facultatea de Limbi și Literaturi Străine",
    "type": "school",
    "subcategory": "university",
    "lat": 44.4358915,
    "lng": 26.1011326,
    "osmType": "node",
    "brand": null,
    "operator": null
  },
  {
    "id": "node-1935441466",
    "name": "Fără nume",
    "type": "medical",
    "subcategory": "doctors",
    "lat": 44.4669255,
    "lng": 26.1385017,
    "osmType": "node",
    "brand": null,
    "operator": null
  },
  {
    "id": "node-1935696088",
    "name": "Universitatea Lumina",
    "type": "school",
    "subcategory": "university",
    "lat": 44.4677092,
    "lng": 26.1428584,
    "osmType": "node",
    "brand": null,
    "operator": null
  },
  {
    "id": "node-1942633310",
    "name": "Biserica Ortodoxă „Sfânta Fecioară Maria”",
    "type": "church",
    "subcategory": "christian",
    "lat": 44.4208265,
    "lng": 26.1347901,
    "osmType": "node",
    "brand": null,
    "operator": null
  },
  {
    "id": "node-1982919560",
    "name": "Biserica „Înălțarea Sfintei Cruci”",
    "type": "church",
    "subcategory": "christian",
    "lat": 44.4663511,
    "lng": 26.1495325,
    "osmType": "node",
    "brand": null,
    "operator": null
  },
  {
    "id": "node-2012855430",
    "name": "Montessori Kindergarden of Bucharest",
    "type": "school",
    "subcategory": "kindergarten",
    "lat": 44.435573,
    "lng": 26.1290315,
    "osmType": "node",
    "brand": null,
    "operator": null
  },
  {
    "id": "node-2077283669",
    "name": "Spitalul Medicover",
    "type": "medical",
    "subcategory": "hospital",
    "lat": 44.4899542,
    "lng": 26.0916346,
    "osmType": "node",
    "brand": null,
    "operator": null
  },
  {
    "id": "node-2263259789",
    "name": "Grădinița nr. 225 - Veseliei",
    "type": "school",
    "subcategory": "kindergarten",
    "lat": 44.386207,
    "lng": 26.1070802,
    "osmType": "node",
    "brand": null,
    "operator": null
  },
  {
    "id": "node-2288442046",
    "name": "Iepurașul Bocănilă",
    "type": "school",
    "subcategory": "kindergarten",
    "lat": 44.3881996,
    "lng": 26.1166587,
    "osmType": "node",
    "brand": null,
    "operator": null
  },
  {
    "id": "node-2290861426",
    "name": "Romar Medical Berceni",
    "type": "medical",
    "subcategory": "doctors",
    "lat": 44.3886516,
    "lng": 26.1171887,
    "osmType": "node",
    "brand": null,
    "operator": null
  },
  {
    "id": "node-2294097546",
    "name": "Grădinița nr. 135",
    "type": "school",
    "subcategory": "kindergarten",
    "lat": 44.4560035,
    "lng": 26.1267855,
    "osmType": "node",
    "brand": null,
    "operator": null
  },
  {
    "id": "node-2353885037",
    "name": "Școala Generală Nr. 109 Șerban Vodă",
    "type": "school",
    "subcategory": "school",
    "lat": 44.388723,
    "lng": 26.0945414,
    "osmType": "node",
    "brand": null,
    "operator": null
  },
  {
    "id": "node-2393439888",
    "name": "Grădinița de copii nr. 270",
    "type": "school",
    "subcategory": "kindergarten",
    "lat": 44.4054238,
    "lng": 26.0641319,
    "osmType": "node",
    "brand": null,
    "operator": null
  },
  {
    "id": "node-2422127743",
    "name": "Cabinet Medical",
    "type": "medical",
    "subcategory": "doctors",
    "lat": 44.4211542,
    "lng": 26.0227518,
    "osmType": "node",
    "brand": null,
    "operator": null
  },
  {
    "id": "node-2422127846",
    "name": "Cabinet Medical",
    "type": "medical",
    "subcategory": "doctors",
    "lat": 44.4224266,
    "lng": 26.015553,
    "osmType": "node",
    "brand": null,
    "operator": null
  },
  {
    "id": "node-2422522668",
    "name": "Școala Gimnazială nr. 155",
    "type": "school",
    "subcategory": "school",
    "lat": 44.4202375,
    "lng": 26.0243309,
    "osmType": "node",
    "brand": null,
    "operator": null
  },
  {
    "id": "node-2422522671",
    "name": "Școala Gimnazială nr. 169",
    "type": "school",
    "subcategory": "school",
    "lat": 44.4215025,
    "lng": 26.0247676,
    "osmType": "node",
    "brand": null,
    "operator": null
  },
  {
    "id": "node-2423811323",
    "name": "Cabinet Medical",
    "type": "medical",
    "subcategory": "doctors",
    "lat": 44.4415534,
    "lng": 26.1027477,
    "osmType": "node",
    "brand": null,
    "operator": null
  },
  {
    "id": "node-2423813955",
    "name": "Grădinița nr. 203 program prelungit",
    "type": "school",
    "subcategory": "kindergarten",
    "lat": 44.4412058,
    "lng": 26.1027445,
    "osmType": "node",
    "brand": null,
    "operator": null
  },
  {
    "id": "node-2441256932",
    "name": "Grădinița nr. 7",
    "type": "school",
    "subcategory": "kindergarten",
    "lat": 44.4678869,
    "lng": 26.1154595,
    "osmType": "node",
    "brand": null,
    "operator": null
  },
  {
    "id": "node-2441258024",
    "name": "Grădinița nr. 138 cu program prelungit",
    "type": "school",
    "subcategory": "kindergarten",
    "lat": 44.4513119,
    "lng": 26.106155,
    "osmType": "node",
    "brand": null,
    "operator": null
  },
  {
    "id": "node-2441258025",
    "name": "Școala nr. 24",
    "type": "school",
    "subcategory": "school",
    "lat": 44.4511428,
    "lng": 26.1065792,
    "osmType": "node",
    "brand": null,
    "operator": null
  },
  {
    "id": "node-2441331077",
    "name": "Regina Maria",
    "type": "medical",
    "subcategory": "clinic",
    "lat": 44.4603392,
    "lng": 26.1357295,
    "osmType": "node",
    "brand": null,
    "operator": null
  },
  {
    "id": "node-2441431261",
    "name": "Grădinița Nr. 71",
    "type": "school",
    "subcategory": "kindergarten",
    "lat": 44.4177162,
    "lng": 26.1589551,
    "osmType": "node",
    "brand": null,
    "operator": null
  },
  {
    "id": "node-2442895941",
    "name": "Ioanid",
    "type": "school",
    "subcategory": "kindergarten",
    "lat": 44.4456531,
    "lng": 26.1036979,
    "osmType": "node",
    "brand": null,
    "operator": null
  },
  {
    "id": "node-2444951809",
    "name": "Dr. Pătrașcu, medic de familie",
    "type": "medical",
    "subcategory": "doctors",
    "lat": 44.4553786,
    "lng": 26.1273105,
    "osmType": "node",
    "brand": null,
    "operator": null
  },
  {
    "id": "node-2445618808",
    "name": "Eco Diagnosis",
    "type": "medical",
    "subcategory": "doctors",
    "lat": 44.4189925,
    "lng": 26.1385579,
    "osmType": "node",
    "brand": null,
    "operator": null
  },
  {
    "id": "node-2447999384",
    "name": "Grădinița Nr. 132 \"Ghiocel\"",
    "type": "school",
    "subcategory": "kindergarten",
    "lat": 44.449664,
    "lng": 26.1092113,
    "osmType": "node",
    "brand": null,
    "operator": null
  },
  {
    "id": "node-2449754938",
    "name": "Lexis școli de limbi străine",
    "type": "school",
    "subcategory": "school",
    "lat": 44.446211,
    "lng": 26.1019992,
    "osmType": "node",
    "brand": null,
    "operator": null
  },
  {
    "id": "node-2449889477",
    "name": "Universitatea Populară \"Ioan I. Dalles\"",
    "type": "school",
    "subcategory": "university",
    "lat": 44.4381254,
    "lng": 26.101366,
    "osmType": "node",
    "brand": null,
    "operator": null
  },
  {
    "id": "node-2450415606",
    "name": "Ava Clinique",
    "type": "medical",
    "subcategory": "clinic",
    "lat": 44.4820733,
    "lng": 26.0471828,
    "osmType": "node",
    "brand": null,
    "operator": null
  },
  {
    "id": "node-2454165448",
    "name": "Colegiul Preuniversitar \"Dr. I. Cantacuzino\"",
    "type": "school",
    "subcategory": "college",
    "lat": 44.4550588,
    "lng": 26.14417,
    "osmType": "node",
    "brand": null,
    "operator": null
  },
  {
    "id": "node-2455604720",
    "name": "Cabinet Medical",
    "type": "medical",
    "subcategory": "doctors",
    "lat": 44.418445,
    "lng": 26.0181475,
    "osmType": "node",
    "brand": null,
    "operator": null
  },
  {
    "id": "node-2455604752",
    "name": "Cabinet Medicină de Faminie",
    "type": "medical",
    "subcategory": "doctors",
    "lat": 44.4188642,
    "lng": 26.0181289,
    "osmType": "node",
    "brand": null,
    "operator": null
  },
  {
    "id": "node-2456512001",
    "name": "Universitatea Nicolae Titulescu",
    "type": "school",
    "subcategory": "university",
    "lat": 44.4145898,
    "lng": 26.1142262,
    "osmType": "node",
    "brand": null,
    "operator": null
  },
  {
    "id": "node-2459587268",
    "name": "Centrul socio-medical \"Sfântul Spiridon Vechi\"",
    "type": "medical",
    "subcategory": "clinic",
    "lat": 44.428916,
    "lng": 26.0956821,
    "osmType": "node",
    "brand": null,
    "operator": null
  },
  {
    "id": "node-2459587269",
    "name": "Clinica \"Nadia Comăneci\"",
    "type": "medical",
    "subcategory": "clinic",
    "lat": 44.4291713,
    "lng": 26.0955211,
    "osmType": "node",
    "brand": null,
    "operator": null
  },
  {
    "id": "node-2460684944",
    "name": "Grădinița \"Căsuța lui Andrei\"",
    "type": "school",
    "subcategory": "kindergarten",
    "lat": 44.4458868,
    "lng": 26.1343013,
    "osmType": "node",
    "brand": null,
    "operator": null
  },
  {
    "id": "node-2461396710",
    "name": "Grădinița Confort City",
    "type": "school",
    "subcategory": "kindergarten",
    "lat": 44.388913,
    "lng": 26.2029072,
    "osmType": "node",
    "brand": null,
    "operator": null
  },
  {
    "id": "node-2462561157",
    "name": "Facultatea de Chimie",
    "type": "school",
    "subcategory": "university",
    "lat": 44.43552,
    "lng": 26.1010332,
    "osmType": "node",
    "brand": null,
    "operator": null
  },
  {
    "id": "node-2463052715",
    "name": "Colegiul Tehnic \"Miron Nicolescu\"",
    "type": "school",
    "subcategory": "school",
    "lat": 44.3698924,
    "lng": 26.13932,
    "osmType": "node",
    "brand": null,
    "operator": null
  },
  {
    "id": "node-2463356683",
    "name": "Grădinița nr. 231 A",
    "type": "school",
    "subcategory": "kindergarten",
    "lat": 44.4202334,
    "lng": 26.1736707,
    "osmType": "node",
    "brand": null,
    "operator": null
  },
  {
    "id": "node-2481594474",
    "name": "Biserica Creștină după Evanghelie \"Izbânda\"",
    "type": "church",
    "subcategory": "christian",
    "lat": 44.4583133,
    "lng": 26.0471726,
    "osmType": "node",
    "brand": null,
    "operator": null
  },
  {
    "id": "node-2485364399",
    "name": "Grădinița Yuki",
    "type": "school",
    "subcategory": "kindergarten",
    "lat": 44.3939934,
    "lng": 26.1077816,
    "osmType": "node",
    "brand": null,
    "operator": null
  },
  {
    "id": "node-2485367957",
    "name": "Sebastian Centru Medical",
    "type": "medical",
    "subcategory": "clinic",
    "lat": 44.396274,
    "lng": 26.1084654,
    "osmType": "node",
    "brand": null,
    "operator": null
  },
  {
    "id": "node-2485614281",
    "name": "Clubul Școlar Sportiv nr. 2",
    "type": "school",
    "subcategory": "school",
    "lat": 44.4441994,
    "lng": 26.1318677,
    "osmType": "node",
    "brand": null,
    "operator": null
  },
  {
    "id": "node-2488190602",
    "name": "Grădinița nr. 257 \"Alice\"",
    "type": "school",
    "subcategory": "kindergarten",
    "lat": 44.4430069,
    "lng": 26.1088881,
    "osmType": "node",
    "brand": null,
    "operator": null
  },
  {
    "id": "node-2495692805",
    "name": "Grădinița Nr. 36",
    "type": "school",
    "subcategory": "kindergarten",
    "lat": 44.4440471,
    "lng": 26.1549476,
    "osmType": "node",
    "brand": null,
    "operator": null
  },
  {
    "id": "node-2495694242",
    "name": "International British School of Bucharest",
    "type": "school",
    "subcategory": "school",
    "lat": 44.4391405,
    "lng": 26.1316493,
    "osmType": "node",
    "brand": null,
    "operator": null
  },
  {
    "id": "node-2496365087",
    "name": "Clinica Eminescu 100",
    "type": "medical",
    "subcategory": "clinic",
    "lat": 44.4479236,
    "lng": 26.1056485,
    "osmType": "node",
    "brand": null,
    "operator": null
  },
  {
    "id": "node-2496375292",
    "name": "Dacia Medical Center",
    "type": "medical",
    "subcategory": "clinic",
    "lat": 44.4462089,
    "lng": 26.1083877,
    "osmType": "node",
    "brand": null,
    "operator": null
  },
  {
    "id": "node-2498560749",
    "name": "Facultatea de Medicină Dentară",
    "type": "school",
    "subcategory": "university",
    "lat": 44.4357348,
    "lng": 26.0852548,
    "osmType": "node",
    "brand": null,
    "operator": null
  },
  {
    "id": "node-2498560750",
    "name": "Facultatea de Moașe și Asistență Medicală",
    "type": "school",
    "subcategory": "university",
    "lat": 44.4345844,
    "lng": 26.0699824,
    "osmType": "node",
    "brand": null,
    "operator": null
  },
  {
    "id": "node-2498871125",
    "name": "Policlinica Cotroceni",
    "type": "medical",
    "subcategory": "clinic",
    "lat": 44.4340779,
    "lng": 26.0728539,
    "osmType": "node",
    "brand": null,
    "operator": null
  },
  {
    "id": "node-2499412817",
    "name": "Centrul de Sănătate RATB",
    "type": "medical",
    "subcategory": "clinic",
    "lat": 44.4539288,
    "lng": 26.1156489,
    "osmType": "node",
    "brand": null,
    "operator": null
  },
  {
    "id": "node-2513216698",
    "name": "Policlinică",
    "type": "medical",
    "subcategory": "clinic",
    "lat": 44.4090889,
    "lng": 26.0978281,
    "osmType": "node",
    "brand": null,
    "operator": null
  },
  {
    "id": "node-2531868415",
    "name": "Grădinița nr. 112",
    "type": "school",
    "subcategory": "kindergarten",
    "lat": 44.4511426,
    "lng": 26.0765781,
    "osmType": "node",
    "brand": null,
    "operator": null
  },
  {
    "id": "node-2531868416",
    "name": "Grădinița nr. 206",
    "type": "school",
    "subcategory": "kindergarten",
    "lat": 44.4504902,
    "lng": 26.0761381,
    "osmType": "node",
    "brand": null,
    "operator": null
  },
  {
    "id": "node-2533836755",
    "name": "Dr. Levy Medical Center",
    "type": "medical",
    "subcategory": "hospital",
    "lat": 44.4503653,
    "lng": 26.0965329,
    "osmType": "node",
    "brand": null,
    "operator": null
  },
  {
    "id": "node-2543068033",
    "name": "Clinica dermatologie Top Derm Uni - Profesor Doctor Olga Simionescu",
    "type": "medical",
    "subcategory": "clinic",
    "lat": 44.4322246,
    "lng": 26.0687837,
    "osmType": "node",
    "brand": null,
    "operator": null
  },
  {
    "id": "node-2557505729",
    "name": "Grădinița Era",
    "type": "school",
    "subcategory": "kindergarten",
    "lat": 44.4264552,
    "lng": 26.1355691,
    "osmType": "node",
    "brand": null,
    "operator": null
  },
  {
    "id": "node-2558783253",
    "name": "Grădinița nr. 116",
    "type": "school",
    "subcategory": "kindergarten",
    "lat": 44.4447743,
    "lng": 26.0963648,
    "osmType": "node",
    "brand": null,
    "operator": null
  },
  {
    "id": "node-2559264816",
    "name": "Grădinița nr. 281",
    "type": "school",
    "subcategory": "kindergarten",
    "lat": 44.4645728,
    "lng": 26.0570029,
    "osmType": "node",
    "brand": null,
    "operator": null
  },
  {
    "id": "node-2559698820",
    "name": "Grădinița nr. 43",
    "type": "school",
    "subcategory": "kindergarten",
    "lat": 44.4661259,
    "lng": 26.0594525,
    "osmType": "node",
    "brand": null,
    "operator": null
  },
  {
    "id": "node-2569322689",
    "name": "Colegiul Național de Arte Dinu Lipatti",
    "type": "school",
    "subcategory": "school",
    "lat": 44.4225247,
    "lng": 26.0968645,
    "osmType": "node",
    "brand": null,
    "operator": null
  },
  {
    "id": "node-2574127477",
    "name": "Facultatea de Inginerie Chimică și Biotehnologii",
    "type": "school",
    "subcategory": "university",
    "lat": 44.4477086,
    "lng": 26.0797526,
    "osmType": "node",
    "brand": null,
    "operator": "Universitatea Politehnica din București"
  },
  {
    "id": "node-2574127478",
    "name": "Facultatea de Inginerie Aerospațială",
    "type": "school",
    "subcategory": "university",
    "lat": 44.4473376,
    "lng": 26.0777652,
    "osmType": "node",
    "brand": null,
    "operator": "Universitatea Politehnica din București"
  },
  {
    "id": "node-2574127479",
    "name": "Facultatea de Inginerie Medicală",
    "type": "school",
    "subcategory": "university",
    "lat": 44.4474941,
    "lng": 26.0790075,
    "osmType": "node",
    "brand": null,
    "operator": "Universitatea Politehnica din București"
  },
  {
    "id": "node-2575507117",
    "name": "Școala nr. 62",
    "type": "school",
    "subcategory": "school",
    "lat": 44.443398,
    "lng": 26.1641551,
    "osmType": "node",
    "brand": null,
    "operator": null
  },
  {
    "id": "node-2586559759",
    "name": "Biserica Ortodoxă Sfântul Daniil Sihastrul",
    "type": "church",
    "subcategory": "christian",
    "lat": 44.3798191,
    "lng": 26.113312,
    "osmType": "node",
    "brand": null,
    "operator": null
  },
  {
    "id": "node-2642106292",
    "name": "Școala Mogoșoaia",
    "type": "school",
    "subcategory": "school",
    "lat": 44.528268,
    "lng": 26.0003604,
    "osmType": "node",
    "brand": null,
    "operator": null
  },
  {
    "id": "node-2645484714",
    "name": "Fiziodent",
    "type": "medical",
    "subcategory": "doctors",
    "lat": 44.4365076,
    "lng": 26.1588759,
    "osmType": "node",
    "brand": null,
    "operator": null
  },
  {
    "id": "node-2681672279",
    "name": "Medsana Cotroceni",
    "type": "medical",
    "subcategory": "clinic",
    "lat": 44.4332803,
    "lng": 26.0726603,
    "osmType": "node",
    "brand": null,
    "operator": null
  },
  {
    "id": "node-2690812689",
    "name": "Art Implant",
    "type": "medical",
    "subcategory": "clinic",
    "lat": 44.4313695,
    "lng": 26.1093029,
    "osmType": "node",
    "brand": null,
    "operator": null
  },
  {
    "id": "node-2744685198",
    "name": "ProEstetica",
    "type": "medical",
    "subcategory": "clinic",
    "lat": 44.4595921,
    "lng": 26.0980775,
    "osmType": "node",
    "brand": null,
    "operator": null
  },
  {
    "id": "node-2824862760",
    "name": "Centrul de îngrijiri paliative \"Sfântul Nectarie\"",
    "type": "medical",
    "subcategory": "clinic",
    "lat": 44.439989,
    "lng": 26.1444339,
    "osmType": "node",
    "brand": null,
    "operator": null
  },
  {
    "id": "node-2824864629",
    "name": "Prâslea cel Voinic",
    "type": "school",
    "subcategory": "kindergarten",
    "lat": 44.4416567,
    "lng": 26.1427607,
    "osmType": "node",
    "brand": null,
    "operator": null
  },
  {
    "id": "node-2838252532",
    "name": "Afterschool inGenius",
    "type": "school",
    "subcategory": "school",
    "lat": 44.4636674,
    "lng": 26.0683977,
    "osmType": "node",
    "brand": null,
    "operator": null
  },
  {
    "id": "node-2839783568",
    "name": "AIS Clinics & Hospital",
    "type": "medical",
    "subcategory": "clinic",
    "lat": 44.4077501,
    "lng": 26.0664992,
    "osmType": "node",
    "brand": null,
    "operator": "AIS Group"
  },
  {
    "id": "node-2840052660",
    "name": "Institutul Psychos",
    "type": "medical",
    "subcategory": "clinic",
    "lat": 44.4107188,
    "lng": 26.1002102,
    "osmType": "node",
    "brand": null,
    "operator": null
  },
  {
    "id": "node-2840088741",
    "name": "Vertical Bucuresti",
    "type": "church",
    "subcategory": "christian",
    "lat": 44.4201333,
    "lng": 26.109324,
    "osmType": "node",
    "brand": null,
    "operator": null
  },
  {
    "id": "node-2841152232",
    "name": "PROVITA",
    "type": "medical",
    "subcategory": "clinic",
    "lat": 44.4647504,
    "lng": 26.0833058,
    "osmType": "node",
    "brand": null,
    "operator": null
  },
  {
    "id": "node-2864433637",
    "name": "Grădinița Nr. 261 \"Micul Prinț\"",
    "type": "school",
    "subcategory": "kindergarten",
    "lat": 44.3943651,
    "lng": 26.1083725,
    "osmType": "node",
    "brand": null,
    "operator": null
  },
  {
    "id": "node-2866039866",
    "name": "Ursulețul de Pluș - Grădiniță de vară&afterschool",
    "type": "school",
    "subcategory": "kindergarten",
    "lat": 44.3968986,
    "lng": 26.1024018,
    "osmType": "node",
    "brand": null,
    "operator": null
  },
  {
    "id": "node-2866169270",
    "name": "Grădinița nr. 206",
    "type": "school",
    "subcategory": "kindergarten",
    "lat": 44.4439927,
    "lng": 26.0733313,
    "osmType": "node",
    "brand": null,
    "operator": null
  },
  {
    "id": "node-2866169272",
    "name": "Life Care Medical",
    "type": "medical",
    "subcategory": "clinic",
    "lat": 44.4447131,
    "lng": 26.0720615,
    "osmType": "node",
    "brand": null,
    "operator": null
  },
  {
    "id": "node-2866169273",
    "name": "Munor Cris Medica",
    "type": "medical",
    "subcategory": "clinic",
    "lat": 44.4433413,
    "lng": 26.0721933,
    "osmType": "node",
    "brand": null,
    "operator": null
  },
  {
    "id": "node-2872402341",
    "name": "Liceul Dimitrie Paciurea",
    "type": "school",
    "subcategory": "school",
    "lat": 44.4833975,
    "lng": 26.0633263,
    "osmType": "node",
    "brand": null,
    "operator": null
  },
  {
    "id": "node-2886624940",
    "name": "Ama Optimex",
    "type": "medical",
    "subcategory": "clinic",
    "lat": 44.4466376,
    "lng": 26.0686047,
    "osmType": "node",
    "brand": null,
    "operator": null
  },
  {
    "id": "node-2886624943",
    "name": "Grădinița Zum-zum",
    "type": "school",
    "subcategory": "kindergarten",
    "lat": 44.4453327,
    "lng": 26.0711204,
    "osmType": "node",
    "brand": null,
    "operator": null
  },
  {
    "id": "node-2886624945",
    "name": "Munposan",
    "type": "medical",
    "subcategory": "clinic",
    "lat": 44.4442319,
    "lng": 26.0731464,
    "osmType": "node",
    "brand": null,
    "operator": null
  },
  {
    "id": "node-2886624949",
    "name": "Grădinița Școala Gimnazială Uruguay",
    "type": "school",
    "subcategory": "kindergarten",
    "lat": 44.4465514,
    "lng": 26.0691176,
    "osmType": "node",
    "brand": null,
    "operator": null
  },
  {
    "id": "node-2889767598",
    "name": "Asociatia Casa Calea",
    "type": "church",
    "subcategory": "christian",
    "lat": 44.446407,
    "lng": 26.0713998,
    "osmType": "node",
    "brand": null,
    "operator": null
  },
  {
    "id": "node-2895273848",
    "name": "Fără nume",
    "type": "school",
    "subcategory": "kindergarten",
    "lat": 44.3900696,
    "lng": 26.1129907,
    "osmType": "node",
    "brand": null,
    "operator": null
  },
  {
    "id": "node-2981939443",
    "name": "Grădinița Schritt fuer Schritt",
    "type": "school",
    "subcategory": "kindergarten",
    "lat": 44.4399727,
    "lng": 26.1321669,
    "osmType": "node",
    "brand": null,
    "operator": null
  },
  {
    "id": "node-3031951805",
    "name": "Grădinița Miniterra",
    "type": "school",
    "subcategory": "kindergarten",
    "lat": 44.4821133,
    "lng": 26.0955962,
    "osmType": "node",
    "brand": null,
    "operator": null
  },
  {
    "id": "node-3053046625",
    "name": "Grădinița Goethe",
    "type": "school",
    "subcategory": "kindergarten",
    "lat": 44.4461678,
    "lng": 26.0945916,
    "osmType": "node",
    "brand": null,
    "operator": null
  },
  {
    "id": "node-3072545261",
    "name": "Grădinița nr. 73",
    "type": "school",
    "subcategory": "kindergarten",
    "lat": 44.433925,
    "lng": 26.085866,
    "osmType": "node",
    "brand": null,
    "operator": "Ministery of Education"
  },
  {
    "id": "node-3073339276",
    "name": "CROS - Universitatea Alternativa",
    "type": "school",
    "subcategory": "university",
    "lat": 44.4488061,
    "lng": 26.1039088,
    "osmType": "node",
    "brand": null,
    "operator": null
  },
  {
    "id": "node-3111590867",
    "name": "Cursuri Paleologu",
    "type": "school",
    "subcategory": "school",
    "lat": 44.4407988,
    "lng": 26.1114845,
    "osmType": "node",
    "brand": null,
    "operator": null
  },
  {
    "id": "node-3135914029",
    "name": "Universitatea Ecologică",
    "type": "school",
    "subcategory": "university",
    "lat": 44.430514,
    "lng": 26.0981083,
    "osmType": "node",
    "brand": null,
    "operator": null
  },
  {
    "id": "node-3144871469",
    "name": "Fertilia",
    "type": "medical",
    "subcategory": "clinic",
    "lat": 44.4317615,
    "lng": 26.1260253,
    "osmType": "node",
    "brand": null,
    "operator": null
  },
  {
    "id": "node-3145868463",
    "name": "Clinica Audionova",
    "type": "medical",
    "subcategory": "clinic",
    "lat": 44.4230833,
    "lng": 26.1046392,
    "osmType": "node",
    "brand": null,
    "operator": null
  },
  {
    "id": "node-3145884598",
    "name": "Clinica Audionova",
    "type": "medical",
    "subcategory": "clinic",
    "lat": 44.4225589,
    "lng": 26.1367178,
    "osmType": "node",
    "brand": null,
    "operator": null
  },
  {
    "id": "node-3145940365",
    "name": "Clinica Audionova",
    "type": "medical",
    "subcategory": "clinic",
    "lat": 44.4461339,
    "lng": 26.1199573,
    "osmType": "node",
    "brand": null,
    "operator": null
  },
  {
    "id": "node-3145953243",
    "name": "Clinica Audionova",
    "type": "medical",
    "subcategory": "clinic",
    "lat": 44.4503043,
    "lng": 26.0895573,
    "osmType": "node",
    "brand": null,
    "operator": null
  },
  {
    "id": "node-3189841435",
    "name": "Colegiul Tehnic \"Mihai Bravu\"",
    "type": "school",
    "subcategory": "college",
    "lat": 44.4194365,
    "lng": 26.1356845,
    "osmType": "node",
    "brand": null,
    "operator": "Ministerul Educației Naționale"
  },
  {
    "id": "node-3214692565",
    "name": "Centrul Medical Batiștei",
    "type": "medical",
    "subcategory": "clinic",
    "lat": 44.438995,
    "lng": 26.1038632,
    "osmType": "node",
    "brand": null,
    "operator": null
  },
  {
    "id": "node-3217291761",
    "name": "Centrul Medical de Diagnostic și Tratament Ambulatoriu Dr. \"Nicolae Kretzulescu\"",
    "type": "medical",
    "subcategory": "clinic",
    "lat": 44.4324088,
    "lng": 26.0943699,
    "osmType": "node",
    "brand": null,
    "operator": null
  },
  {
    "id": "node-3229498320",
    "name": "Zirconium dental center",
    "type": "medical",
    "subcategory": "clinic",
    "lat": 44.4651223,
    "lng": 26.0934223,
    "osmType": "node",
    "brand": null,
    "operator": null
  },
  {
    "id": "node-3261827650",
    "name": "Medicover",
    "type": "medical",
    "subcategory": "clinic",
    "lat": 44.4509595,
    "lng": 26.0903006,
    "osmType": "node",
    "brand": null,
    "operator": null
  },
  {
    "id": "node-3292193261",
    "name": "Medoc",
    "type": "medical",
    "subcategory": "doctors",
    "lat": 44.4384771,
    "lng": 26.1041314,
    "osmType": "node",
    "brand": null,
    "operator": null
  },
  {
    "id": "node-3292245061",
    "name": "Centrul Medical Hiperdia",
    "type": "medical",
    "subcategory": "clinic",
    "lat": 44.4534841,
    "lng": 26.1119754,
    "osmType": "node",
    "brand": null,
    "operator": null
  },
  {
    "id": "node-3292266261",
    "name": "Clinica de Neurologie \"Gheorghe Marinescu\"",
    "type": "medical",
    "subcategory": "clinic",
    "lat": 44.4535399,
    "lng": 26.1122073,
    "osmType": "node",
    "brand": null,
    "operator": null
  },
  {
    "id": "node-3292271361",
    "name": "Clinica de Boli Profesionale",
    "type": "medical",
    "subcategory": "clinic",
    "lat": 44.454028,
    "lng": 26.1125773,
    "osmType": "node",
    "brand": null,
    "operator": null
  },
  {
    "id": "node-3292670073",
    "name": "Facultatea de Cibernetică",
    "type": "school",
    "subcategory": "university",
    "lat": 44.4477955,
    "lng": 26.0990494,
    "osmType": "node",
    "brand": null,
    "operator": null
  },
  {
    "id": "node-3340819793",
    "name": "Grădinița Nr. 43",
    "type": "school",
    "subcategory": "kindergarten",
    "lat": 44.4635245,
    "lng": 26.0561582,
    "osmType": "node",
    "brand": null,
    "operator": null
  },
  {
    "id": "node-3364637198",
    "name": "Școala de Muzică și Arte Plastice 1",
    "type": "school",
    "subcategory": "school",
    "lat": 44.450634,
    "lng": 26.0761408,
    "osmType": "node",
    "brand": null,
    "operator": null
  },
  {
    "id": "node-3366919193",
    "name": "Universitatea Atenaeum",
    "type": "school",
    "subcategory": "university",
    "lat": 44.4613939,
    "lng": 26.1050417,
    "osmType": "node",
    "brand": null,
    "operator": null
  },
  {
    "id": "node-3413220014",
    "name": "Clinica Gral Medical",
    "type": "medical",
    "subcategory": "clinic",
    "lat": 44.4527303,
    "lng": 26.1083167,
    "osmType": "node",
    "brand": null,
    "operator": null
  },
  {
    "id": "node-3459239893",
    "name": "Grădinița 11 Ion Heliade Rădulescu",
    "type": "school",
    "subcategory": "kindergarten",
    "lat": 44.4470556,
    "lng": 26.0930238,
    "osmType": "node",
    "brand": null,
    "operator": null
  },
  {
    "id": "node-3460431719",
    "name": "Biserica Ortodoxă \"Sfântul Mare Mucenic Gheorghe\" - Chitila II",
    "type": "church",
    "subcategory": "christian",
    "lat": 44.4997457,
    "lng": 25.9801875,
    "osmType": "node",
    "brand": null,
    "operator": null
  },
  {
    "id": "node-3495740723",
    "name": "Grădinița cu program normal nr. 147",
    "type": "school",
    "subcategory": "school",
    "lat": 44.4344194,
    "lng": 26.1593905,
    "osmType": "node",
    "brand": null,
    "operator": null
  },
  {
    "id": "node-3495740732",
    "name": "Superbet",
    "type": "superbet",
    "subcategory": "betting",
    "lat": 44.4331528,
    "lng": 26.1547109,
    "osmType": "node",
    "brand": "Superbet",
    "operator": null
  },
  {
    "id": "node-3598654551",
    "name": "MedLife Berceni",
    "type": "medical",
    "subcategory": "clinic",
    "lat": 44.393389,
    "lng": 26.1201205,
    "osmType": "node",
    "brand": null,
    "operator": null
  },
  {
    "id": "node-3598654553",
    "name": "Regina Maria",
    "type": "medical",
    "subcategory": "clinic",
    "lat": 44.3946422,
    "lng": 26.1217432,
    "osmType": "node",
    "brand": null,
    "operator": null
  },
  {
    "id": "node-3605116439",
    "name": "EuroKid 3 afterschool",
    "type": "school",
    "subcategory": "kindergarten",
    "lat": 44.3937028,
    "lng": 26.1010428,
    "osmType": "node",
    "brand": null,
    "operator": null
  },
  {
    "id": "node-3747769269",
    "name": "Superbet",
    "type": "superbet",
    "subcategory": "betting",
    "lat": 44.4524483,
    "lng": 26.0778923,
    "osmType": "node",
    "brand": "Superbet",
    "operator": "Superbet Betting & Gaming SA"
  },
  {
    "id": "node-3749088960",
    "name": "Medicover",
    "type": "medical",
    "subcategory": "doctors",
    "lat": 44.4792685,
    "lng": 26.1162812,
    "osmType": "node",
    "brand": null,
    "operator": null
  },
  {
    "id": "node-3757867770",
    "name": "Centrul Educațional IBSEN",
    "type": "school",
    "subcategory": "school",
    "lat": 44.4335943,
    "lng": 26.1063525,
    "osmType": "node",
    "brand": null,
    "operator": null
  },
  {
    "id": "node-3757927663",
    "name": "Milena",
    "type": "medical",
    "subcategory": "clinic",
    "lat": 44.4425738,
    "lng": 25.9878153,
    "osmType": "node",
    "brand": null,
    "operator": null
  },
  {
    "id": "node-3757961267",
    "name": "Superbet",
    "type": "superbet",
    "subcategory": "betting",
    "lat": 44.3954151,
    "lng": 26.116401,
    "osmType": "node",
    "brand": "Superbet",
    "operator": "Superbet Betting & Gaming SA"
  },
  {
    "id": "node-3760878079",
    "name": "Biserica stilistă",
    "type": "church",
    "subcategory": "christian",
    "lat": 44.492227,
    "lng": 26.0445858,
    "osmType": "node",
    "brand": null,
    "operator": null
  },
  {
    "id": "node-3769152826",
    "name": "Syromed+",
    "type": "medical",
    "subcategory": "clinic",
    "lat": 44.45525,
    "lng": 26.1050705,
    "osmType": "node",
    "brand": null,
    "operator": null
  },
  {
    "id": "node-3770362757",
    "name": "Școala cu Clasele I-VIII RUT",
    "type": "school",
    "subcategory": "school",
    "lat": 44.3931716,
    "lng": 26.0805958,
    "osmType": "node",
    "brand": null,
    "operator": null
  },
  {
    "id": "node-3770587050",
    "name": "Biserica baptistă „Providența”",
    "type": "church",
    "subcategory": "christian",
    "lat": 44.396228,
    "lng": 26.0834796,
    "osmType": "node",
    "brand": null,
    "operator": null
  },
  {
    "id": "node-3773823666",
    "name": "Centrul de Îngrijiri Paliative „Sfânta Irina”",
    "type": "medical",
    "subcategory": "hospital",
    "lat": 44.497301,
    "lng": 26.1754403,
    "osmType": "node",
    "brand": null,
    "operator": null
  },
  {
    "id": "node-3787777530",
    "name": "Capela Ortodoxă „Sfântul Mare Mucenic Gheorghe”",
    "type": "church",
    "subcategory": "christian",
    "lat": 44.4249329,
    "lng": 26.0737121,
    "osmType": "node",
    "brand": null,
    "operator": null
  },
  {
    "id": "node-3799369465",
    "name": "Biserica Ortodoxă „Sfânta Parascheva Militari II”",
    "type": "church",
    "subcategory": "christian",
    "lat": 44.4356211,
    "lng": 26.026237,
    "osmType": "node",
    "brand": null,
    "operator": null
  },
  {
    "id": "node-3831396372",
    "name": "Grădinița Albă ca Zăpada și Piticii",
    "type": "school",
    "subcategory": "kindergarten",
    "lat": 44.394084,
    "lng": 26.0993919,
    "osmType": "node",
    "brand": null,
    "operator": null
  },
  {
    "id": "node-3835348288",
    "name": "Kids Palace",
    "type": "school",
    "subcategory": "kindergarten",
    "lat": 44.3981952,
    "lng": 26.1124246,
    "osmType": "node",
    "brand": null,
    "operator": null
  },
  {
    "id": "node-3873169601",
    "name": "Centrul medical Sanador",
    "type": "medical",
    "subcategory": "clinic",
    "lat": 44.4268861,
    "lng": 26.1296405,
    "osmType": "node",
    "brand": null,
    "operator": null
  },
  {
    "id": "node-3877013767",
    "name": "Grădinița nr. 255",
    "type": "school",
    "subcategory": "kindergarten",
    "lat": 44.4086712,
    "lng": 26.1421834,
    "osmType": "node",
    "brand": null,
    "operator": null
  },
  {
    "id": "node-3880781128",
    "name": "Clubul Sportiv Școlar nr. 5",
    "type": "school",
    "subcategory": "school",
    "lat": 44.441479,
    "lng": 26.0731435,
    "osmType": "node",
    "brand": null,
    "operator": null
  },
  {
    "id": "node-3886530578",
    "name": "Cabinet medical individual Dr. Boghiu Elena",
    "type": "medical",
    "subcategory": "doctors",
    "lat": 44.4028459,
    "lng": 26.2200953,
    "osmType": "node",
    "brand": null,
    "operator": null
  },
  {
    "id": "node-3886530580",
    "name": "Biserica Ortodoxă „Sfântul Nicolae” Cățelu",
    "type": "church",
    "subcategory": "christian",
    "lat": 44.4037331,
    "lng": 26.221871,
    "osmType": "node",
    "brand": null,
    "operator": null
  },
  {
    "id": "node-3888313510",
    "name": "Grădinița nr. 224",
    "type": "school",
    "subcategory": "kindergarten",
    "lat": 44.4212629,
    "lng": 26.0937731,
    "osmType": "node",
    "brand": null,
    "operator": null
  },
  {
    "id": "node-4012434513",
    "name": "Biserica penticostală Vestea Bună",
    "type": "church",
    "subcategory": "christian",
    "lat": 44.4316025,
    "lng": 26.1257762,
    "osmType": "node",
    "brand": null,
    "operator": null
  },
  {
    "id": "node-4012474781",
    "name": "Synlab",
    "type": "medical",
    "subcategory": "doctors",
    "lat": 44.3878591,
    "lng": 26.1145486,
    "osmType": "node",
    "brand": "Synlab",
    "operator": null
  },
  {
    "id": "node-4069576960",
    "name": "Centrul Medical Brâncoveanu",
    "type": "medical",
    "subcategory": "doctors",
    "lat": 44.3882572,
    "lng": 26.109465,
    "osmType": "node",
    "brand": null,
    "operator": null
  },
  {
    "id": "node-4081608255",
    "name": "Grădinița Zece",
    "type": "school",
    "subcategory": "kindergarten",
    "lat": 44.5007171,
    "lng": 26.127908,
    "osmType": "node",
    "brand": null,
    "operator": null
  },
  {
    "id": "node-4085138025",
    "name": "Echilibria 1",
    "type": "school",
    "subcategory": "kindergarten",
    "lat": 44.4913351,
    "lng": 26.1438676,
    "osmType": "node",
    "brand": null,
    "operator": "Echilibria Montessori Education"
  },
  {
    "id": "node-4086292808",
    "name": "Echilibria 1",
    "type": "school",
    "subcategory": "kindergarten",
    "lat": 44.5046483,
    "lng": 26.1331412,
    "osmType": "node",
    "brand": null,
    "operator": "Echilibria Montessori Education"
  },
  {
    "id": "node-4086292831",
    "name": "Mark Twain",
    "type": "school",
    "subcategory": "school",
    "lat": 44.5129047,
    "lng": 26.1350591,
    "osmType": "node",
    "brand": null,
    "operator": null
  },
  {
    "id": "node-4089160957",
    "name": "Centrul Medical Academica",
    "type": "medical",
    "subcategory": "clinic",
    "lat": 44.4647174,
    "lng": 26.0858141,
    "osmType": "node",
    "brand": null,
    "operator": null
  },
  {
    "id": "node-4089856537",
    "name": "Bio Medica Pipera",
    "type": "medical",
    "subcategory": "clinic",
    "lat": 44.5078619,
    "lng": 26.1381904,
    "osmType": "node",
    "brand": null,
    "operator": "Bio-Medica International"
  },
  {
    "id": "node-4132672400",
    "name": "Medicină internă Dr. Păun Marconescu",
    "type": "medical",
    "subcategory": "doctors",
    "lat": 44.3901848,
    "lng": 26.1103243,
    "osmType": "node",
    "brand": null,
    "operator": null
  },
  {
    "id": "node-4133568966",
    "name": "Dispensarul Popesti-Leordeni",
    "type": "medical",
    "subcategory": "clinic",
    "lat": 44.3790385,
    "lng": 26.1683898,
    "osmType": "node",
    "brand": null,
    "operator": null
  },
  {
    "id": "node-4151970314",
    "name": "Life Med",
    "type": "medical",
    "subcategory": "clinic",
    "lat": 44.4115067,
    "lng": 26.1167494,
    "osmType": "node",
    "brand": null,
    "operator": null
  },
  {
    "id": "node-4154058413",
    "name": "Affidea",
    "type": "medical",
    "subcategory": "clinic",
    "lat": 44.3932838,
    "lng": 26.1229631,
    "osmType": "node",
    "brand": null,
    "operator": null
  },
  {
    "id": "node-4165680808",
    "name": "Biserica Ortodoxă „Pogorârea Sfântului Duh - Măicăneasa”",
    "type": "church",
    "subcategory": "christian",
    "lat": 44.5024966,
    "lng": 26.0591619,
    "osmType": "node",
    "brand": null,
    "operator": null
  },
  {
    "id": "node-4193664144",
    "name": "Romar Medical",
    "type": "medical",
    "subcategory": "clinic",
    "lat": 44.4186764,
    "lng": 26.1351921,
    "osmType": "node",
    "brand": null,
    "operator": null
  },
  {
    "id": "node-4195126103",
    "name": "Centrul Medical Panduri",
    "type": "medical",
    "subcategory": "clinic",
    "lat": 44.4262805,
    "lng": 26.0699039,
    "osmType": "node",
    "brand": null,
    "operator": null
  },
  {
    "id": "node-4197486664",
    "name": "Grădinița cu program prelungit nr. 2 Otopeni",
    "type": "school",
    "subcategory": "kindergarten",
    "lat": 44.5343495,
    "lng": 26.0536087,
    "osmType": "node",
    "brand": null,
    "operator": null
  },
  {
    "id": "node-4209770710",
    "name": "Biserică",
    "type": "church",
    "subcategory": "christian",
    "lat": 44.4030865,
    "lng": 26.0823105,
    "osmType": "node",
    "brand": null,
    "operator": null
  },
  {
    "id": "node-4212139003",
    "name": "Grădinița Plușica",
    "type": "school",
    "subcategory": "kindergarten",
    "lat": 44.4214085,
    "lng": 26.1236321,
    "osmType": "node",
    "brand": null,
    "operator": null
  },
  {
    "id": "node-4259348495",
    "name": "Synevo",
    "type": "medical",
    "subcategory": "doctors",
    "lat": 44.4424773,
    "lng": 26.1705977,
    "osmType": "node",
    "brand": "Synevo",
    "operator": null
  },
  {
    "id": "node-4264728993",
    "name": "Liceul Teoretic Internațional de Informatică",
    "type": "school",
    "subcategory": "school",
    "lat": 44.4086796,
    "lng": 26.2107659,
    "osmType": "node",
    "brand": null,
    "operator": null
  },
  {
    "id": "node-4290069538",
    "name": "Clinica Nova ORL",
    "type": "medical",
    "subcategory": "clinic",
    "lat": 44.4288244,
    "lng": 26.1527363,
    "osmType": "node",
    "brand": null,
    "operator": null
  },
  {
    "id": "node-4290927289",
    "name": "INFOSAN Clinică Oftalmologică",
    "type": "medical",
    "subcategory": "clinic",
    "lat": 44.4507801,
    "lng": 26.0997912,
    "osmType": "node",
    "brand": null,
    "operator": null
  },
  {
    "id": "node-4350169501",
    "name": "British School of Bucharest",
    "type": "school",
    "subcategory": "school",
    "lat": 44.5138104,
    "lng": 26.1336599,
    "osmType": "node",
    "brand": null,
    "operator": "Fundatia Crawford House"
  },
  {
    "id": "node-4350169506",
    "name": "EUROCLINIC Pipera",
    "type": "medical",
    "subcategory": "clinic",
    "lat": 44.5149849,
    "lng": 26.1175371,
    "osmType": "node",
    "brand": null,
    "operator": null
  },
  {
    "id": "node-4355360890",
    "name": "PROVITA",
    "type": "medical",
    "subcategory": "clinic",
    "lat": 44.4550769,
    "lng": 26.1134208,
    "osmType": "node",
    "brand": null,
    "operator": null
  },
  {
    "id": "node-4360048859",
    "name": "Vechea Biserică Mărcuța",
    "type": "church",
    "subcategory": "christian",
    "lat": 44.4445134,
    "lng": 26.172691,
    "osmType": "node",
    "brand": null,
    "operator": null
  },
  {
    "id": "node-4363258289",
    "name": "Gradinita Magica",
    "type": "school",
    "subcategory": "kindergarten",
    "lat": 44.4365232,
    "lng": 26.1193235,
    "osmType": "node",
    "brand": null,
    "operator": null
  },
  {
    "id": "node-4363436376",
    "name": "Școala gimnazială nr. 3 Voluntari - Pipera",
    "type": "school",
    "subcategory": "school",
    "lat": 44.4991769,
    "lng": 26.1355983,
    "osmType": "node",
    "brand": null,
    "operator": null
  },
  {
    "id": "node-4365350292",
    "name": "Grădinița nr. 12 Albinuța",
    "type": "school",
    "subcategory": "kindergarten",
    "lat": 44.4640281,
    "lng": 26.1047087,
    "osmType": "node",
    "brand": null,
    "operator": null
  },
  {
    "id": "node-4367716116",
    "name": "Grădinița cu program prelungit Copiii Soarelui",
    "type": "school",
    "subcategory": "kindergarten",
    "lat": 44.4153979,
    "lng": 26.1006076,
    "osmType": "node",
    "brand": null,
    "operator": null
  },
  {
    "id": "node-4375400120",
    "name": "Cabinet Medical Dr. Christian Sante",
    "type": "medical",
    "subcategory": "doctors",
    "lat": 44.4678425,
    "lng": 26.0567619,
    "osmType": "node",
    "brand": null,
    "operator": null
  },
  {
    "id": "node-4389094627",
    "name": "Synevo",
    "type": "medical",
    "subcategory": "doctors",
    "lat": 44.4512048,
    "lng": 26.0698387,
    "osmType": "node",
    "brand": "Synevo",
    "operator": null
  },
  {
    "id": "node-4398792090",
    "name": "Școala Primară Just 4 Kids",
    "type": "school",
    "subcategory": "school",
    "lat": 44.4183101,
    "lng": 26.1350047,
    "osmType": "node",
    "brand": null,
    "operator": null
  },
  {
    "id": "node-4401444096",
    "name": "Superbet",
    "type": "superbet",
    "subcategory": "betting",
    "lat": 44.3714412,
    "lng": 26.153931,
    "osmType": "node",
    "brand": "Superbet",
    "operator": "Superbet Betting & Gaming SA"
  },
  {
    "id": "node-4462744289",
    "name": "Puls",
    "type": "medical",
    "subcategory": "clinic",
    "lat": 44.4499634,
    "lng": 26.1062948,
    "osmType": "node",
    "brand": null,
    "operator": null
  },
  {
    "id": "node-4486328462",
    "name": "Synevo Sebastian",
    "type": "medical",
    "subcategory": "clinic",
    "lat": 44.4176688,
    "lng": 26.0681448,
    "osmType": "node",
    "brand": null,
    "operator": null
  },
  {
    "id": "node-4486912589",
    "name": "Superbet",
    "type": "superbet",
    "subcategory": "betting",
    "lat": 44.415174,
    "lng": 26.1336616,
    "osmType": "node",
    "brand": "Superbet",
    "operator": "Superbet Betting & Gaming SA"
  },
  {
    "id": "node-4488220921",
    "name": "Grădinița Elefănțelul Curios",
    "type": "school",
    "subcategory": "kindergarten",
    "lat": 44.3956748,
    "lng": 26.1111448,
    "osmType": "node",
    "brand": null,
    "operator": null
  },
  {
    "id": "node-4513798755",
    "name": "Synevo",
    "type": "medical",
    "subcategory": "clinic",
    "lat": 44.4178293,
    "lng": 26.0328879,
    "osmType": "node",
    "brand": null,
    "operator": null
  },
  {
    "id": "node-4517779589",
    "name": "Grădinița 167",
    "type": "school",
    "subcategory": "school",
    "lat": 44.3777522,
    "lng": 26.106434,
    "osmType": "node",
    "brand": null,
    "operator": null
  },
  {
    "id": "node-4518976492",
    "name": "Centrul medical Diaverum",
    "type": "medical",
    "subcategory": "clinic",
    "lat": 44.4382933,
    "lng": 26.167622,
    "osmType": "node",
    "brand": null,
    "operator": null
  },
  {
    "id": "node-4521922609",
    "name": "Facultatea de Ingineria și Gestiunea Producțiilor Animaliere",
    "type": "school",
    "subcategory": "university",
    "lat": 44.4705864,
    "lng": 26.0711224,
    "osmType": "node",
    "brand": null,
    "operator": null
  },
  {
    "id": "node-4529210191",
    "name": "Regina Maria laborator",
    "type": "medical",
    "subcategory": "clinic",
    "lat": 44.4339865,
    "lng": 26.157246,
    "osmType": "node",
    "brand": null,
    "operator": null
  },
  {
    "id": "node-4543671390",
    "name": "Neuroptics",
    "type": "medical",
    "subcategory": "clinic",
    "lat": 44.4542885,
    "lng": 26.0746147,
    "osmType": "node",
    "brand": null,
    "operator": null
  },
  {
    "id": "node-4544813392",
    "name": "Fără nume",
    "type": "school",
    "subcategory": "kindergarten",
    "lat": 44.3882974,
    "lng": 26.0479797,
    "osmType": "node",
    "brand": null,
    "operator": null
  },
  {
    "id": "node-4557091904",
    "name": "Medicină Generala Malva Bio Service",
    "type": "medical",
    "subcategory": "doctors",
    "lat": 44.3882439,
    "lng": 26.1019413,
    "osmType": "node",
    "brand": null,
    "operator": null
  },
  {
    "id": "node-4572890394",
    "name": "Școala nr. 115",
    "type": "school",
    "subcategory": "school",
    "lat": 44.4217202,
    "lng": 26.0698484,
    "osmType": "node",
    "brand": null,
    "operator": null
  },
  {
    "id": "node-4580669901",
    "name": "Fără nume",
    "type": "school",
    "subcategory": "kindergarten",
    "lat": 44.4502125,
    "lng": 26.1061179,
    "osmType": "node",
    "brand": null,
    "operator": null
  },
  {
    "id": "node-4585296691",
    "name": "Spectrum Clinique - Clinica de Oftalmologie si Obstetrica-Ginecologie",
    "type": "medical",
    "subcategory": "clinic",
    "lat": 44.4280285,
    "lng": 26.1127075,
    "osmType": "node",
    "brand": null,
    "operator": "Dr. Constantin GHEORGHIȚĂ"
  },
  {
    "id": "node-4586018589",
    "name": "Fără nume",
    "type": "medical",
    "subcategory": "clinic",
    "lat": 44.4538822,
    "lng": 26.0789055,
    "osmType": "node",
    "brand": null,
    "operator": "Dr. Octavian Sbârnă"
  },
  {
    "id": "node-4586018789",
    "name": "Fără nume",
    "type": "school",
    "subcategory": "school",
    "lat": 44.4539361,
    "lng": 26.0789005,
    "osmType": "node",
    "brand": null,
    "operator": null
  },
  {
    "id": "node-4623284691",
    "name": "Sectia Cardiologie",
    "type": "medical",
    "subcategory": "hospital",
    "lat": 44.4539744,
    "lng": 26.1138921,
    "osmType": "node",
    "brand": null,
    "operator": null
  },
  {
    "id": "node-4630841790",
    "name": "Synevo",
    "type": "medical",
    "subcategory": "clinic",
    "lat": 44.4224102,
    "lng": 26.1180165,
    "osmType": "node",
    "brand": "Synevo",
    "operator": null
  },
  {
    "id": "node-4643171392",
    "name": "Anemona Med",
    "type": "medical",
    "subcategory": "clinic",
    "lat": 44.4772663,
    "lng": 26.0432174,
    "osmType": "node",
    "brand": null,
    "operator": null
  },
  {
    "id": "node-4686430873",
    "name": "Genesys Fertility Center",
    "type": "medical",
    "subcategory": "clinic",
    "lat": 44.4676815,
    "lng": 26.0702034,
    "osmType": "node",
    "brand": null,
    "operator": null
  },
  {
    "id": "node-4736739223",
    "name": "After School ART KIDS",
    "type": "school",
    "subcategory": "childcare",
    "lat": 44.4133503,
    "lng": 26.0723399,
    "osmType": "node",
    "brand": null,
    "operator": null
  },
  {
    "id": "node-4752541422",
    "name": "Asociația Academiei Elohim",
    "type": "school",
    "subcategory": "school",
    "lat": 44.4242489,
    "lng": 26.099875,
    "osmType": "node",
    "brand": null,
    "operator": null
  },
  {
    "id": "node-4766207560",
    "name": "Regina Maria Floreasca",
    "type": "medical",
    "subcategory": "clinic",
    "lat": 44.4543569,
    "lng": 26.0997028,
    "osmType": "node",
    "brand": null,
    "operator": null
  },
  {
    "id": "node-4766511480",
    "name": "Clinica Sf. Maria",
    "type": "medical",
    "subcategory": "doctors",
    "lat": 44.4435124,
    "lng": 26.1571924,
    "osmType": "node",
    "brand": null,
    "operator": null
  },
  {
    "id": "node-4774924531",
    "name": "Gradinita Nr. 234 - Zori de zi",
    "type": "school",
    "subcategory": "kindergarten",
    "lat": 44.4607367,
    "lng": 26.1216133,
    "osmType": "node",
    "brand": null,
    "operator": "Gradinita de stat cu program prelungit."
  },
  {
    "id": "node-4800735777",
    "name": "Grădinița Piticul Curajos",
    "type": "school",
    "subcategory": "school",
    "lat": 44.4298994,
    "lng": 26.1553117,
    "osmType": "node",
    "brand": null,
    "operator": null
  },
  {
    "id": "node-4808009159",
    "name": "Biserică",
    "type": "church",
    "subcategory": "christian",
    "lat": 44.3901645,
    "lng": 26.0539728,
    "osmType": "node",
    "brand": null,
    "operator": null
  },
  {
    "id": "node-4819847222",
    "name": "Fără nume",
    "type": "medical",
    "subcategory": "doctors",
    "lat": 44.4165364,
    "lng": 26.1294219,
    "osmType": "node",
    "brand": null,
    "operator": null
  },
  {
    "id": "node-4861564466",
    "name": "Grădinița King George",
    "type": "school",
    "subcategory": "school",
    "lat": 44.3849645,
    "lng": 26.1110689,
    "osmType": "node",
    "brand": null,
    "operator": null
  },
  {
    "id": "node-4874877421",
    "name": "Grădinița nr.133 \"Magnolia\"",
    "type": "school",
    "subcategory": "kindergarten",
    "lat": 44.4466097,
    "lng": 26.1178695,
    "osmType": "node",
    "brand": null,
    "operator": null
  },
  {
    "id": "node-4882921031",
    "name": "Scorseze Medical Grup",
    "type": "medical",
    "subcategory": "clinic",
    "lat": 44.4601918,
    "lng": 26.1200643,
    "osmType": "node",
    "brand": null,
    "operator": null
  },
  {
    "id": "node-4892592969",
    "name": "Grădinița Yannis & Yasmine",
    "type": "school",
    "subcategory": "kindergarten",
    "lat": 44.3963458,
    "lng": 26.1219361,
    "osmType": "node",
    "brand": null,
    "operator": null
  },
  {
    "id": "node-4894589222",
    "name": "Kindergarden",
    "type": "school",
    "subcategory": "kindergarten",
    "lat": 44.5155584,
    "lng": 26.1409573,
    "osmType": "node",
    "brand": null,
    "operator": null
  },
  {
    "id": "node-4894834802",
    "name": "Centrul Medireflex",
    "type": "medical",
    "subcategory": "clinic",
    "lat": 44.4671912,
    "lng": 26.0716051,
    "osmType": "node",
    "brand": null,
    "operator": null
  },
  {
    "id": "node-4897868813",
    "name": "Grădinița 97",
    "type": "school",
    "subcategory": "kindergarten",
    "lat": 44.4760021,
    "lng": 26.0360161,
    "osmType": "node",
    "brand": null,
    "operator": null
  },
  {
    "id": "node-4897920155",
    "name": "Grădinița 97",
    "type": "school",
    "subcategory": "kindergarten",
    "lat": 44.4603047,
    "lng": 26.0656697,
    "osmType": "node",
    "brand": null,
    "operator": null
  },
  {
    "id": "node-4919487972",
    "name": "Superbet",
    "type": "superbet",
    "subcategory": "betting",
    "lat": 44.3864382,
    "lng": 26.1169368,
    "osmType": "node",
    "brand": "Superbet",
    "operator": null
  },
  {
    "id": "node-4926273424",
    "name": "Biserica Bariera Rahovei",
    "type": "church",
    "subcategory": "christian",
    "lat": 44.3991441,
    "lng": 26.0492163,
    "osmType": "node",
    "brand": null,
    "operator": null
  },
  {
    "id": "node-4936745424",
    "name": "Cabinet Medical - Psihoterapie si Ginecologie",
    "type": "medical",
    "subcategory": "doctors",
    "lat": 44.4042969,
    "lng": 26.0924578,
    "osmType": "node",
    "brand": null,
    "operator": null
  },
  {
    "id": "node-4958793581",
    "name": "Grădinița KERMIT",
    "type": "school",
    "subcategory": "kindergarten",
    "lat": 44.4655282,
    "lng": 26.1669104,
    "osmType": "node",
    "brand": null,
    "operator": null
  },
  {
    "id": "node-4980337521",
    "name": "Școala Gimnazială nr.40",
    "type": "school",
    "subcategory": "school",
    "lat": 44.4772339,
    "lng": 26.150768,
    "osmType": "node",
    "brand": null,
    "operator": null
  },
  {
    "id": "node-5026519228",
    "name": "Superbet",
    "type": "superbet",
    "subcategory": "betting",
    "lat": 44.4126536,
    "lng": 26.0215892,
    "osmType": "node",
    "brand": null,
    "operator": "Superbet Betting & Gaming SA"
  },
  {
    "id": "node-5026737126",
    "name": "Dispensarul Universității București",
    "type": "medical",
    "subcategory": "doctors",
    "lat": 44.4349081,
    "lng": 26.0809199,
    "osmType": "node",
    "brand": null,
    "operator": null
  },
  {
    "id": "node-5040451820",
    "name": "Synevo",
    "type": "medical",
    "subcategory": "doctors",
    "lat": 44.3970921,
    "lng": 26.1119778,
    "osmType": "node",
    "brand": "Synevo",
    "operator": null
  },
  {
    "id": "node-5042319740",
    "name": "Regina Maria",
    "type": "medical",
    "subcategory": "clinic",
    "lat": 44.4337527,
    "lng": 26.034038,
    "osmType": "node",
    "brand": null,
    "operator": null
  },
  {
    "id": "node-5042337766",
    "name": "Kidsland",
    "type": "school",
    "subcategory": "kindergarten",
    "lat": 44.4288194,
    "lng": 26.0370002,
    "osmType": "node",
    "brand": null,
    "operator": null
  },
  {
    "id": "node-5042364604",
    "name": "Life Med",
    "type": "medical",
    "subcategory": "clinic",
    "lat": 44.4347396,
    "lng": 26.0344055,
    "osmType": "node",
    "brand": null,
    "operator": null
  },
  {
    "id": "node-5056037663",
    "name": "Centrul medical FOBAC",
    "type": "medical",
    "subcategory": "doctors",
    "lat": 44.4519232,
    "lng": 26.125432,
    "osmType": "node",
    "brand": null,
    "operator": null
  },
  {
    "id": "node-5068613372",
    "name": "Hyperclinica MedLife",
    "type": "medical",
    "subcategory": "clinic",
    "lat": 44.4905589,
    "lng": 26.079603,
    "osmType": "node",
    "brand": null,
    "operator": null
  },
  {
    "id": "node-5097170001",
    "name": "Grădinița 283",
    "type": "school",
    "subcategory": "kindergarten",
    "lat": 44.4922036,
    "lng": 26.0851166,
    "osmType": "node",
    "brand": null,
    "operator": null
  },
  {
    "id": "node-5107831758",
    "name": "Gral Băneasa",
    "type": "medical",
    "subcategory": "clinic",
    "lat": 44.4904843,
    "lng": 26.0785798,
    "osmType": "node",
    "brand": null,
    "operator": null
  },
  {
    "id": "node-5109693919",
    "name": "Derma Life",
    "type": "medical",
    "subcategory": "clinic",
    "lat": 44.4907719,
    "lng": 26.0796888,
    "osmType": "node",
    "brand": null,
    "operator": null
  },
  {
    "id": "node-5112585920",
    "name": "Grădinița Hansel und Gretel",
    "type": "school",
    "subcategory": "kindergarten",
    "lat": 44.4661744,
    "lng": 26.0696119,
    "osmType": "node",
    "brand": null,
    "operator": null
  },
  {
    "id": "node-5112597993",
    "name": "Clinica Dr. Barbu",
    "type": "medical",
    "subcategory": "clinic",
    "lat": 44.4663792,
    "lng": 26.0682584,
    "osmType": "node",
    "brand": null,
    "operator": null
  },
  {
    "id": "node-5114102057",
    "name": "UpMedical",
    "type": "medical",
    "subcategory": "clinic",
    "lat": 44.4660582,
    "lng": 26.0679568,
    "osmType": "node",
    "brand": null,
    "operator": null
  },
  {
    "id": "node-5114478247",
    "name": "Discovery Clinic",
    "type": "medical",
    "subcategory": "clinic",
    "lat": 44.3997282,
    "lng": 26.1046006,
    "osmType": "node",
    "brand": null,
    "operator": null
  },
  {
    "id": "node-5115167543",
    "name": "Clinica Dr. Albu",
    "type": "medical",
    "subcategory": "clinic",
    "lat": 44.4567464,
    "lng": 26.1055933,
    "osmType": "node",
    "brand": null,
    "operator": null
  },
  {
    "id": "node-5115168796",
    "name": "Cardio Clinic",
    "type": "medical",
    "subcategory": "clinic",
    "lat": 44.4563657,
    "lng": 26.1065433,
    "osmType": "node",
    "brand": null,
    "operator": null
  },
  {
    "id": "node-5145348165",
    "name": "Școala primară Odăile",
    "type": "school",
    "subcategory": "school",
    "lat": 44.5338252,
    "lng": 26.0548032,
    "osmType": "node",
    "brand": null,
    "operator": null
  },
  {
    "id": "node-5205645933",
    "name": "Cmi Dr. Pantelimon Stefan",
    "type": "medical",
    "subcategory": "doctors",
    "lat": 44.4230438,
    "lng": 26.1309012,
    "osmType": "node",
    "brand": null,
    "operator": null
  },
  {
    "id": "node-5207856223",
    "name": "Grădinița Maxi",
    "type": "school",
    "subcategory": "kindergarten",
    "lat": 44.4669791,
    "lng": 26.08843,
    "osmType": "node",
    "brand": null,
    "operator": null
  },
  {
    "id": "node-5207977213",
    "name": "Eurokid 1 afterschool",
    "type": "school",
    "subcategory": "kindergarten",
    "lat": 44.3933494,
    "lng": 26.1007783,
    "osmType": "node",
    "brand": null,
    "operator": null
  },
  {
    "id": "node-5211628293",
    "name": "Clinica Elysium",
    "type": "medical",
    "subcategory": "clinic",
    "lat": 44.466981,
    "lng": 26.0892275,
    "osmType": "node",
    "brand": null,
    "operator": null
  },
  {
    "id": "node-5261470025",
    "name": "Medtelesystems",
    "type": "medical",
    "subcategory": "clinic",
    "lat": 44.4778281,
    "lng": 26.0900324,
    "osmType": "node",
    "brand": null,
    "operator": null
  },
  {
    "id": "node-5291180982",
    "name": "MedLife - analize medicale",
    "type": "medical",
    "subcategory": "doctors",
    "lat": 44.4682514,
    "lng": 26.0738518,
    "osmType": "node",
    "brand": null,
    "operator": null
  },
  {
    "id": "node-5295093624",
    "name": "GRĂDINIȚA NR.62",
    "type": "school",
    "subcategory": "kindergarten",
    "lat": 44.3830202,
    "lng": 26.0947991,
    "osmType": "node",
    "brand": null,
    "operator": null
  },
  {
    "id": "node-5304667418",
    "name": "Grădinița Aldo Moro",
    "type": "school",
    "subcategory": "kindergarten",
    "lat": 44.4395895,
    "lng": 26.1083035,
    "osmType": "node",
    "brand": null,
    "operator": null
  },
  {
    "id": "node-5304670405",
    "name": "Synlab analize medicale",
    "type": "medical",
    "subcategory": "doctors",
    "lat": 44.4460981,
    "lng": 26.112736,
    "osmType": "node",
    "brand": null,
    "operator": null
  },
  {
    "id": "node-5304671625",
    "name": "Institutul Naţional de Diabet, Nutriţie şi Boli Metabolice “N.C. Paulescu”",
    "type": "medical",
    "subcategory": "clinic",
    "lat": 44.4445781,
    "lng": 26.110614,
    "osmType": "node",
    "brand": null,
    "operator": null
  },
  {
    "id": "node-5336508694",
    "name": "Biserica Creștină după Evanghelie",
    "type": "church",
    "subcategory": "christian",
    "lat": 44.4210217,
    "lng": 26.1208259,
    "osmType": "node",
    "brand": null,
    "operator": null
  },
  {
    "id": "node-5396036263",
    "name": "Superbet",
    "type": "superbet",
    "subcategory": "betting",
    "lat": 44.4379435,
    "lng": 26.1384682,
    "osmType": "node",
    "brand": "Superbet",
    "operator": "Superbet Betting & Gaming SA"
  },
  {
    "id": "node-5401138286",
    "name": "Medcenter Head Offices",
    "type": "medical",
    "subcategory": "clinic",
    "lat": 44.497337,
    "lng": 26.0079458,
    "osmType": "node",
    "brand": null,
    "operator": null
  },
  {
    "id": "node-5429890292",
    "name": "Clinica Gral",
    "type": "medical",
    "subcategory": "clinic",
    "lat": 44.4510011,
    "lng": 26.1212958,
    "osmType": "node",
    "brand": null,
    "operator": null
  },
  {
    "id": "node-5462036636",
    "name": "Clarfon proteze auditive",
    "type": "medical",
    "subcategory": "clinic",
    "lat": 44.3950483,
    "lng": 26.1173381,
    "osmType": "node",
    "brand": null,
    "operator": null
  },
  {
    "id": "node-5485438121",
    "name": "Apollo Med Center",
    "type": "medical",
    "subcategory": "clinic",
    "lat": 44.3668135,
    "lng": 26.1509478,
    "osmType": "node",
    "brand": null,
    "operator": null
  },
  {
    "id": "node-5495927440",
    "name": "Clarfon",
    "type": "medical",
    "subcategory": "clinic",
    "lat": 44.4516715,
    "lng": 26.0676462,
    "osmType": "node",
    "brand": null,
    "operator": null
  },
  {
    "id": "node-5503853831",
    "name": "Life Memorial Hospital",
    "type": "medical",
    "subcategory": "hospital",
    "lat": 44.4652048,
    "lng": 26.0541426,
    "osmType": "node",
    "brand": null,
    "operator": null
  },
  {
    "id": "node-5505425087",
    "name": "Clinica Urechii - Audiologie",
    "type": "medical",
    "subcategory": "clinic",
    "lat": 44.4215979,
    "lng": 26.1060105,
    "osmType": "node",
    "brand": null,
    "operator": null
  },
  {
    "id": "node-5505569816",
    "name": "Clinica Urechii - Chirurgie",
    "type": "medical",
    "subcategory": "clinic",
    "lat": 44.4487629,
    "lng": 26.075231,
    "osmType": "node",
    "brand": null,
    "operator": null
  },
  {
    "id": "node-5516323608",
    "name": "Afterschool",
    "type": "school",
    "subcategory": "kindergarten",
    "lat": 44.4219073,
    "lng": 26.1059837,
    "osmType": "node",
    "brand": null,
    "operator": null
  },
  {
    "id": "node-5516330321",
    "name": "Clinica Polisano",
    "type": "medical",
    "subcategory": "clinic",
    "lat": 44.4222003,
    "lng": 26.1063806,
    "osmType": "node",
    "brand": null,
    "operator": null
  },
  {
    "id": "node-5516331175",
    "name": "Centrul Medical Sphera",
    "type": "medical",
    "subcategory": "clinic",
    "lat": 44.4221578,
    "lng": 26.1077061,
    "osmType": "node",
    "brand": null,
    "operator": null
  },
  {
    "id": "node-5516562198",
    "name": "Laser Esthetic Concept",
    "type": "medical",
    "subcategory": "clinic",
    "lat": 44.4191975,
    "lng": 26.1045268,
    "osmType": "node",
    "brand": null,
    "operator": null
  },
  {
    "id": "node-5518364979",
    "name": "Sanador",
    "type": "medical",
    "subcategory": "clinic",
    "lat": 44.5157938,
    "lng": 26.0804531,
    "osmType": "node",
    "brand": null,
    "operator": null
  },
  {
    "id": "node-5546006976",
    "name": "Gral Medical",
    "type": "medical",
    "subcategory": "clinic",
    "lat": 44.4227252,
    "lng": 26.1332351,
    "osmType": "node",
    "brand": null,
    "operator": null
  },
  {
    "id": "node-5548410890",
    "name": "Bio Ortoclinic",
    "type": "medical",
    "subcategory": "clinic",
    "lat": 44.5050823,
    "lng": 26.0363622,
    "osmType": "node",
    "brand": null,
    "operator": null
  },
  {
    "id": "node-5548754739",
    "name": "Alfa medical - recuperare medicală",
    "type": "medical",
    "subcategory": "clinic",
    "lat": 44.3878805,
    "lng": 26.1312576,
    "osmType": "node",
    "brand": null,
    "operator": null
  },
  {
    "id": "node-5548782063",
    "name": "Alfa medical - recuperare medicală",
    "type": "medical",
    "subcategory": "clinic",
    "lat": 44.3870921,
    "lng": 26.093138,
    "osmType": "node",
    "brand": null,
    "operator": null
  },
  {
    "id": "node-5550871287",
    "name": "Centrul Medical Promemoria",
    "type": "medical",
    "subcategory": "clinic",
    "lat": 44.4389836,
    "lng": 26.1042907,
    "osmType": "node",
    "brand": null,
    "operator": null
  },
  {
    "id": "node-5550899843",
    "name": "Fortus Medical",
    "type": "medical",
    "subcategory": "clinic",
    "lat": 44.4433288,
    "lng": 26.1367934,
    "osmType": "node",
    "brand": null,
    "operator": null
  },
  {
    "id": "node-5581326426",
    "name": "Affidea",
    "type": "medical",
    "subcategory": "clinic",
    "lat": 44.4661722,
    "lng": 26.0744648,
    "osmType": "node",
    "brand": null,
    "operator": "Affidea Romania"
  },
  {
    "id": "node-5590181621",
    "name": "Kinetomedica",
    "type": "medical",
    "subcategory": "clinic",
    "lat": 44.3959786,
    "lng": 26.1094588,
    "osmType": "node",
    "brand": null,
    "operator": null
  },
  {
    "id": "node-5590191855",
    "name": "Regina Maria - analize de laborator",
    "type": "medical",
    "subcategory": "clinic",
    "lat": 44.3930097,
    "lng": 26.1095655,
    "osmType": "node",
    "brand": null,
    "operator": null
  },
  {
    "id": "node-5596483797",
    "name": "Școala gimnazială nr. 190 nivel preșcolar",
    "type": "school",
    "subcategory": "school",
    "lat": 44.3918801,
    "lng": 26.1092913,
    "osmType": "node",
    "brand": null,
    "operator": null
  },
  {
    "id": "node-5665791222",
    "name": "Laurus Medical",
    "type": "medical",
    "subcategory": "clinic",
    "lat": 44.4801576,
    "lng": 26.0922735,
    "osmType": "node",
    "brand": null,
    "operator": null
  },
  {
    "id": "node-5752600576",
    "name": "Centrul Medical Greenfield",
    "type": "medical",
    "subcategory": "doctors",
    "lat": 44.5312729,
    "lng": 26.1024089,
    "osmType": "node",
    "brand": null,
    "operator": null
  },
  {
    "id": "node-5754905721",
    "name": "Cabinet stomatologic",
    "type": "medical",
    "subcategory": "doctors",
    "lat": 44.4586569,
    "lng": 26.1101032,
    "osmType": "node",
    "brand": null,
    "operator": null
  },
  {
    "id": "node-5904885586",
    "name": "Sf. Ioan Evanghelistul",
    "type": "church",
    "subcategory": "christian",
    "lat": 44.3833984,
    "lng": 26.1242228,
    "osmType": "node",
    "brand": null,
    "operator": null
  },
  {
    "id": "node-5907856680",
    "name": "Synevo recoltare analize medicale",
    "type": "medical",
    "subcategory": "clinic",
    "lat": 44.4157806,
    "lng": 26.0498859,
    "osmType": "node",
    "brand": null,
    "operator": null
  },
  {
    "id": "node-5947969279",
    "name": "Regina Maria - analize",
    "type": "medical",
    "subcategory": "doctors",
    "lat": 44.4528933,
    "lng": 26.0730157,
    "osmType": "node",
    "brand": null,
    "operator": null
  },
  {
    "id": "node-6041877113",
    "name": "Grădinița nr.30 Panseluța",
    "type": "school",
    "subcategory": "kindergarten",
    "lat": 44.3833941,
    "lng": 26.1308663,
    "osmType": "node",
    "brand": null,
    "operator": null
  },
  {
    "id": "node-6053541589",
    "name": "Fără nume",
    "type": "church",
    "subcategory": "christian",
    "lat": 44.4116229,
    "lng": 26.1012932,
    "osmType": "node",
    "brand": null,
    "operator": null
  },
  {
    "id": "node-6053541823",
    "name": "Cimitirul Izvorul Nou",
    "type": "church",
    "subcategory": "christian",
    "lat": 44.4198422,
    "lng": 26.1447141,
    "osmType": "node",
    "brand": null,
    "operator": null
  },
  {
    "id": "node-6053554485",
    "name": "Mathnasium",
    "type": "school",
    "subcategory": "school",
    "lat": 44.4341689,
    "lng": 26.0161462,
    "osmType": "node",
    "brand": null,
    "operator": null
  },
  {
    "id": "node-6163608820",
    "name": "Grădinița Licurici",
    "type": "school",
    "subcategory": "kindergarten",
    "lat": 44.4379986,
    "lng": 26.1091443,
    "osmType": "node",
    "brand": null,
    "operator": null
  },
  {
    "id": "node-6225532582",
    "name": "Medicinã de familie",
    "type": "medical",
    "subcategory": "doctors",
    "lat": 44.3793344,
    "lng": 26.1590642,
    "osmType": "node",
    "brand": null,
    "operator": null
  },
  {
    "id": "node-6235076871",
    "name": "Școala de Șoferi",
    "type": "school",
    "subcategory": "school",
    "lat": 44.376591,
    "lng": 26.0908931,
    "osmType": "node",
    "brand": null,
    "operator": null
  },
  {
    "id": "node-6235076872",
    "name": "Școala de Șoferi",
    "type": "school",
    "subcategory": "school",
    "lat": 44.3787784,
    "lng": 26.0927573,
    "osmType": "node",
    "brand": null,
    "operator": null
  },
  {
    "id": "node-6236569783",
    "name": "MediClass",
    "type": "medical",
    "subcategory": "clinic",
    "lat": 44.4317583,
    "lng": 26.0718335,
    "osmType": "node",
    "brand": null,
    "operator": null
  },
  {
    "id": "node-6236791082",
    "name": "centrul medical axa provita",
    "type": "medical",
    "subcategory": "clinic",
    "lat": 44.3817172,
    "lng": 26.0977516,
    "osmType": "node",
    "brand": null,
    "operator": null
  },
  {
    "id": "node-6242179281",
    "name": "MedicalES",
    "type": "medical",
    "subcategory": "clinic",
    "lat": 44.4294704,
    "lng": 26.0811024,
    "osmType": "node",
    "brand": null,
    "operator": null
  },
  {
    "id": "node-6242489279",
    "name": "Prof Medica",
    "type": "medical",
    "subcategory": "clinic",
    "lat": 44.4323606,
    "lng": 26.071018,
    "osmType": "node",
    "brand": null,
    "operator": null
  },
  {
    "id": "node-6243057179",
    "name": "Medicor Centru Medical",
    "type": "medical",
    "subcategory": "clinic",
    "lat": 44.382553,
    "lng": 26.1148614,
    "osmType": "node",
    "brand": null,
    "operator": null
  },
  {
    "id": "node-6245323838",
    "name": "Grădinița Ada",
    "type": "school",
    "subcategory": "kindergarten",
    "lat": 44.4386252,
    "lng": 26.0677765,
    "osmType": "node",
    "brand": null,
    "operator": null
  },
  {
    "id": "node-6245711398",
    "name": "Regina Maria",
    "type": "medical",
    "subcategory": "clinic",
    "lat": 44.4374097,
    "lng": 26.067766,
    "osmType": "node",
    "brand": null,
    "operator": null
  },
  {
    "id": "node-6258807914",
    "name": "Fără nume",
    "type": "medical",
    "subcategory": "clinic",
    "lat": 44.4512444,
    "lng": 26.2059733,
    "osmType": "node",
    "brand": null,
    "operator": null
  },
  {
    "id": "node-6262853659",
    "name": "Capelă",
    "type": "church",
    "subcategory": "christian",
    "lat": 44.5028444,
    "lng": 26.1959848,
    "osmType": "node",
    "brand": null,
    "operator": null
  },
  {
    "id": "node-6266989725",
    "name": "Liberty",
    "type": "medical",
    "subcategory": "clinic",
    "lat": 44.5376208,
    "lng": 26.1971073,
    "osmType": "node",
    "brand": null,
    "operator": null
  },